     2.11           OBSERVATION DATA    G (GPS)             RINEX VERSION / TYPE
teqc  2012Sep13     UNAVCO Archive Ops  20121029 06:32:38UTCPGM / RUN BY / DATE
Solaris x86 5.10|AMD64|cc SC5.8 -xarch=amd64|=+|=+          COMMENT
BIT 2 OF LLI FLAGS DATA COLLECTED UNDER A/S CONDITION       COMMENT
AINP                                                        MARKER NAME
                                                            MARKER NUMBER
Miklius, Asta       USGS/HVO                                OBSERVER / AGENCY
4632120763          TRIMBLE NETRS       1.1-3               REC # / TYPE / VERS
60216820            TRM41249.00     NONE                    ANT # / TYPE
 -5476782.4978 -2500761.5324  2102828.7685                  APPROX POSITION XYZ
        0.0860        0.0000        0.0000                  ANTENNA: DELTA H/E/N
     1     1                                                WAVELENGTH FACT L1/2
     7    L1    L2    C1    P2    P1    S1    S2            # / TYPES OF OBSERV
    30.0000                                                 INTERVAL
RINEX file created by UNAVCO GPS Archive.                   COMMENT
For more information contact archive@unavco.org             COMMENT
Monument ID: 17048                                          COMMENT
UNAVCO 4-char name:   AINP                                  COMMENT
4-char name from Log or data file: AINP                     COMMENT
Monument location: 19.37265216 -155.458018672 1568.1289     COMMENT
Visit ID: 96385                                             COMMENT
                                                            COMMENT
NOTICE: If using these data for scientific purposes,        COMMENT
please acknowledge the source as Stanford University        COMMENT
and the USGS Hawaii Volcano Observatory.                    COMMENT
                                                            COMMENT
End of DB comments                                          COMMENT
 SNR is mapped to RINEX snr flag value [0-9]                COMMENT
  L1 & L2: min(max(int(snr_dBHz/6), 0), 9)                  COMMENT
  2012    10    28     0     0    0.0000000     GPS         TIME OF FIRST OBS
                                                            END OF HEADER
 12 10 28  0  0  0.0000000  0 10G06G22G29G21G18G31G03G30G16G14
 114140467.647 7  88940612.73045  21720208.764    21720205.9874
        47.600          35.5004
 106520105.040 8  83002651.97247  20270102.107    20270095.4044
        51.100          44.0004
 127260680.715 6  99164173.65943  24216902.254    24216904.0504
        38.000          22.5004
 122849973.502 7  95727232.65944  23377572.654    23377567.9444
        43.500          24.3004
 113861029.279 7  88722854.80945  21667033.399    21667027.3404
        47.900          35.7004
 131232548.751 6 102259155.12843  24972723.626    24972730.0524
        40.600          20.4004
 117983296.792 7  91935041.76444  22451474.820    22451476.0884
        43.200          29.1004
 111016873.086 8  86506652.71546  21125808.568    21125808.1944
        50.900          38.8004
 112422485.765 8  87601927.41146  21393287.661    21393285.4124
        49.900          38.0004
 123501271.514 5  96234787.87142  23501510.535    23501518.0154
        35.100          17.8004
 12 10 28  0  0 30.0000000  0 10G06G22G29G21G18G31G03G30G16G14
 114076834.438 7  88891028.58145  21708099.293    21708096.5754
        47.000          34.7004
 106514021.853 8  82997911.91147  20268944.564    20268937.5094
        51.600          44.5004
 127324436.963 6  99213853.68243  24229035.068    24229037.0394
        39.400          22.9004
 122891497.291 7  95759588.85344  23385474.539    23385470.0044
        43.200          26.2004
 113923932.754 7  88771870.48946  21679003.444    21678997.6204
        47.200          36.5004
 131273763.177 6 102291270.18043  24980566.627    24980573.0524
        40.300          20.1004
 117898603.083 7  91869046.91144  22435358.879    22435359.2084
        43.700          29.0004
 111068134.876 8  86546596.87646  21135563.499    21135563.3024
        50.800          38.9004
 112399949.968 8  87584367.10746  21388998.759    21388996.8034
        49.600          38.2004
 123432554.075 6  96181242.23742  23488434.907    23488440.7464
        37.200          17.4004
 12 10 28  0  1  0.0000000  0 10G06G22G29G21G18G31G03G30G16G14
 114013315.556 7  88841533.51645  21696012.049    21696009.8584
        45.800          35.1004
 106508451.252 8  82993571.26847  20267884.519    20267877.5814
        51.000          44.9004
 127388436.063 6  99263722.98443  24241213.907    24241215.9364
        41.100          22.8004
 122932954.261 7  95791892.94244  23393363.834    23393359.3584
        43.100          26.2004
 113987155.312 7  88821134.79546  21691034.382    21691028.6164
        47.300          36.4004
 131314708.049 6 102323175.19943  24988357.837    24988365.3174
        40.100          21.5004
 117814011.968 7  91803132.00544  22419261.528    22419261.7994
        42.700          29.9004
 111119872.424 8  86586911.74546  21145409.251    21145408.8194
        50.700          39.0004
 112377963.468 8  87567234.82746  21384815.030    21384812.7814
        49.300          38.0004
 123363827.650 6  96127689.65643  23475356.913    23475361.4634
        37.300          18.3004
 12 10 28  0  1 30.0000000  0 10G06G22G29G21G18G31G03G30G16G14
 113949912.422 7  88792128.64745  21683947.133    21683944.4164
        46.300          35.5004
 106503392.709 8  82989629.62147  20266921.955    20266915.0174
        50.000          44.2004
 127452677.720 6  99313781.26643  24253438.101    24253440.5994
        40.100          22.8004
 122974343.665 7  95824144.42844  23401240.505    23401236.0294
        42.900          25.4004
 114050694.024 7  88870645.46946  21703125.013    21703119.6584
        47.000          36.0004
 131355381.343 6 102354868.61443  24996098.428    24996104.1504
        39.900          21.1004
 117729525.501 7  91737298.65445  22403184.865    22403184.3154
        43.300          31.0004
 111172083.057 8  86627595.27046  21155344.369    21155344.0544
        50.800          38.8004
 112356526.751 8  87550530.94546  21380735.528    21380733.5144
        49.500          38.5004
 123295094.493 6  96074131.82543  23462275.639    23462282.5924
        36.500          18.6004
 12 10 28  0  2  0.0000000  0 10G06G22G29G21G18G31G03G30G16G14
 113886627.741 7  88742816.07846  21671904.126    21671901.4674
        46.400          36.2004
 106498846.684 8  82986087.35347  20266056.802    20266049.8064
        50.200          44.2004
 127517162.120 6  99364028.71243  24265709.218    24265711.0714
        38.100          22.5004
 123015666.435 6  95856343.99544  23409101.827    23409098.5824
        41.600          24.3004
 114114547.284 7  88920401.23545  21715276.017    21715270.0174
        47.900          35.7004
 131395781.837 6 102386349.42843  25003786.954    25003792.6764
        39.400          21.7004
 117645146.038 7  91671548.67445  22387126.718    22387127.2234
        42.800          30.2004
 111224764.596 8  86668645.72846  21165369.306    21165369.1084
        50.000          38.6004
 112335640.815 8  87534256.24246  21376761.546    21376759.1214
        49.700          38.6004
 123226357.750 6  96020571.17442  23449195.344    23449202.0044
        37.400          17.8004
 12 10 28  0  2 30.0000000  0 10G06G22G29G21G18G31G03G30G16G14
 113823463.031 7  88693596.99045  21659883.763    21659881.6324
        47.500          35.9004
 106494812.196 8  82982943.67047  20265288.816    20265281.9374
        50.900          44.5004
 127581888.685 6  99414464.82343  24278025.998    24278027.8524
        39.000          22.2004
 123056922.404 7  95888491.49244  23416954.515    23416949.7464
        42.600          26.1004
 114178712.353 8  88970399.98746  21727486.591    21727480.2974
        48.100          36.3004
 131435908.221 6 102417616.66143  25011422.629    25011428.5854
        37.500          19.0004
 117560875.268 7  91605883.37845  22371090.681    22371090.4844
        44.100          30.6004
 111277914.214 8  86710060.91746  21175483.656    21175483.1074
        50.900          38.8004
 112315305.568 8  87518410.64146  21372892.011    21372889.2354
        49.100          38.3004
 123157619.967 6  95967009.79743  23436115.168    23436121.0074
        38.700          19.3004
 12 10 28  0  3  0.0000000  0 10G06G22G29G21G18G31G03G30G16G14
 113760420.332 7  88644472.98046  21647886.901    21647884.4184
        47.300          36.0004
 106491288.519 8  82980198.02947  20264617.983    20264611.2214
        51.100          44.0004
 127646857.319 6  99465089.56543  24290390.159    24290391.7794
        39.500          22.6004
 123098111.610 6  95920586.95044  23424791.787    23424786.6084
        41.700          24.2004
 114243187.718 7  89020640.51146  21739755.141    21739749.9624
        46.300          36.3004
 131475759.237 6 102448669.32343  25019005.625    25019012.1094
        38.100          19.3004
 117476715.740 7  91540304.75745  22355076.371    22355074.9424
        44.500          31.4004
 111331529.588 8  86751839.03046  21185686.232    21185685.9754
        51.100          39.6004
 112295521.787 8  87502994.75046  21369126.718    21369124.1764
        49.200          38.2004
 123088883.496 6  95913449.39243  23423034.291    23423039.8964
        40.100          19.0004
 12 10 28  0  3 30.0000000  0 10G06G22G29G21G18G31G03G30G16G14
 113697501.380 7  88595445.37945  21635913.745    21635910.7344
        47.900          35.4004
 106488274.998 8  82977849.89847  20264044.663    20264037.4334
        51.300          44.3004
 127712067.712 6  99515902.71643  24302799.330    24302800.8914
        38.600          22.3004
 123139233.606 7  95952630.03644  23432617.385    23432612.2064
        42.600          24.8004
 114307970.725 7  89071120.74845  21752082.959    21752077.5454
        46.300          35.8004
 131515332.579 5 102479505.59743  25026536.061    25026542.5454
        35.200          19.6004
 117392669.037 7  91474814.05245  22339081.822    22339081.7424
        45.100          31.5004
 111385607.655 8  86793977.67746  21195977.007    21195977.2784
        50.500          39.0004
 112276289.910 8  87488008.91546  21365467.109    21365464.5674
        49.500          38.5004
 123020151.557 6  95859892.50643  23409954.916    23409960.8144
        40.300          19.6004
 12 10 28  0  4  0.0000000  0 10G06G22G29G21G18G31G03G30G16G14
 113634708.779 7  88546516.22545  21623964.908    21623962.1324
        47.400          35.2004
 106485771.739 8  82975899.38747  20263567.905    20263560.8504
        51.100          44.2004
 127777520.484 6  99566904.71843  24315254.427    24315257.2194
        38.400          22.8004
 123180289.392 7  95984621.54344  23440430.785    23440425.6054
        42.400          25.8004
 114373059.524 7  89121839.28546  21764469.189    21764463.7164
        47.800          36.0004
 131554627.746 6 102510125.12642  25034013.677    25034019.2234
        36.000          17.4004
 117308738.134 7  91409413.58945  22323109.622    22323110.4214
        43.800          31.5004
 111440146.724 8  86836475.54546  21206355.730    21206355.5324
        50.600          39.8004
 112257610.574 8  87473453.61846  21361912.189    21361910.5854
        49.500          38.3004
 122951427.231 6  95806341.57243  23396877.270    23396882.6994
        39.900          19.6004
 12 10 28  0  4 30.0000000  0 10G06G22G29G21G18G31G03G30G16G14
 113572044.241 7  88497686.87745  21612040.071    21612037.5294
        46.300          35.7004
 106483778.384 8  82974346.19147  20263188.902    20263181.9054
        50.100          44.0004
 127843214.891 6  99618095.00843  24327755.856    24327758.6474
        37.200          22.6004
 123221278.944 6  96016561.43344  23448230.896    23448226.5374
        41.700          26.3004
 114438451.896 7  89172794.36546  21776913.148    21776907.6174
        46.800          36.3004
 131593642.952 6 102540526.50642  25041439.040    25041443.9424
        37.600          16.3004
 117224925.302 7  91344105.13845  22307161.046    22307161.2594
        44.900          31.7004
 111495143.816 8  86879330.32246  21216821.288    21216821.5604
        50.000          39.3004
 112239484.136 8  87459329.15246  21358462.916    21358460.3744
        49.300          38.9004
 122882713.195 6  95752798.69343  23383800.770    23383805.7894
        40.000          19.6004
 12 10 28  0  5  0.0000000  0 10G06G22G29G21G18G31G03G30G16G14
 113509509.391 7  88448958.56945  21600140.008    21600137.0564
        46.400          35.6004
 106482293.506 8  82973189.21547  20262906.119    20262899.2404
        49.700          43.5004
 127909150.479 6  99669473.21043  24340301.912    24340305.0554
        39.000          22.2004
 123262201.872 6  96048449.42644  23456017.444    23456013.1444
        41.500          26.5004
 114504145.211 7  89223983.94946  21789413.966    21789408.6694
        47.000          36.5004
 131632376.461 6 102570708.31442  25048809.394    25048814.6474
        36.500          16.3004
 117141232.209 7  91278889.98945  22291233.967    22291233.8284
        44.600          31.6004
 111550596.073 8  86922539.76146  21227373.574    21227373.3184
        49.800          39.3004
 112221910.475 8  87445635.40546  21355118.520    21355116.2724
        49.600          38.5004
 122814011.710 6  95699265.59643  23370727.092    23370731.4664
        39.900          20.9004
 12 10 28  0  5 30.0000000  0 10G06G22G29G21G18G31G03G30G16G14
 113447107.065 7  88400333.52845  21588265.395    21588262.2674
        46.500          35.6004
 106481317.379 8  82972428.67147  20262720.558    20262713.1514
        50.200          43.4004
 127975328.022 6  99721039.95343  24352894.122    24352899.6684
        37.400          22.0004
 123303058.910 6  96080286.07144  23463792.287    23463787.8114
        41.700          26.7004
 114570138.284 8  89275407.10246  21801972.208    21801967.1454
        49.200          36.3004
 131670827.694 6 102600670.30842  25056126.313    25056132.3284
        36.000          17.8004
 117057661.433 7  91213770.14745  22275331.511    22275330.6104
        45.100          30.9004
 111606501.369 8  86966102.21346  21238012.179    21238011.6304
        49.300          39.1004
 112204891.038 8  87432373.53146  21351880.168    21351878.1544
        49.300          37.7004
 122745326.680 6  95645745.32243  23357655.907    23357660.4574
        40.100          20.1004
 12 10 28  0  6  0.0000000  0 10G06G22G29G21G18G31G03G30G16G14
 113384837.747 7  88351812.11446  21576416.138    21576412.5414
        47.000          36.4004
 106480847.887 8  82972062.90447  20262630.974    20262623.9784
        51.500          44.4004
 128041745.446 6  99772793.62243  24365534.689    24365538.5944
        39.200          22.2004
 123343848.901 7  96112070.47044  23471554.584    23471549.8154
        42.500          24.3004
 114636426.778 8  89327060.47846  21814586.583    21814581.2874
        49.300          36.0004
 131708993.970 6 102630410.14543  25063389.838    25063394.8574
        36.500          19.0004
 116974214.293 7  91148746.63845  22259451.766    22259451.5104
        45.100          31.2004
 111662855.976 8  87010014.78746  21248736.105    21248736.2014
        48.600          38.9004
 112188424.556 8  87419542.53746  21348746.310    21348744.0614
        50.300          38.4004
 122676658.914 6  95592238.47243  23344588.459    23344592.4814
        40.600          20.4004
 12 10 28  0  6 30.0000000  0 10G06G22G29G21G18G31G03G30G16G14
 113322704.911 7  88303397.06746  21564591.994    21564589.3934
        46.300          36.9004
 106480885.850 8  82972092.54747  20262637.982    20262630.6924
        51.300          44.2004
 128108403.934 6  99824735.13943  24378219.298    24378222.6174
        39.400          22.0004
 123384573.348 6  96143803.79244  23479303.565    23479299.6164
        41.700          25.9004
 114703010.204 7  89378943.66346  21827256.938    21827252.2274
        47.500          36.4004
 131746874.819 5 102659927.63743  25070597.473    25070604.1914
        34.200          18.6004
 116890894.046 7  91083822.02345  22243595.895    22243595.3464
        46.200          32.1004
 111719658.409 8  87054276.29446  21259545.461    21259545.7334
        48.200          39.1004
 112172512.993 8  87407143.94846  21345718.538    21345716.4064
        50.700          38.3004
 122608012.671 6  95538748.42243  23331525.029    23331529.4624
        41.200          20.9004
 12 10 28  0  7  0.0000000  0 10G06G22G29G21G18G31G03G30G16G14
 113260708.989 7  88255088.71446  21552794.873    21552791.3354
        46.600          36.5004
 106481428.972 8  82972515.82547  20262741.367    20262733.9614
        51.600          43.9004
 128175301.895 6  99876863.27243  24390951.233    24390953.0284
        39.800          22.3004
 123425231.053 6  96175485.09344  23487041.154    23487036.9124
        41.700          26.3004
 114769884.645 7  89431053.60445  21839983.212    21839977.2124
        47.100          35.9004
 131784467.642 5 102689220.66842  25077751.644    25077757.5424
        34.200          16.9004
 116807701.498 7  91018996.90745  22227765.287    22227764.0934
        45.000          32.2004
 111776904.408 8  87098883.44846  21270438.804    21270439.0754
        48.800          38.3004
 112157154.948 8  87395176.65546  21342796.446    21342794.1394
        50.700          38.5004
 122539389.220 6  95485276.14843  23318466.254    23318470.4524
        41.100          21.8004
 12 10 28  0  7 30.0000000  0 11G06G22G29G21G18G31G03G30G16G14G19
 113198853.574 7  88206889.83046  21541023.378    21541020.2504
        46.800          36.5004
 106482478.300 8  82973333.55547  20262941.133    20262933.9024
        49.500          43.8004
 128242440.698 6  99929179.09643  24403727.132    24403729.4554
        39.600          22.6004
 123465823.722 6  96207115.74244  23494765.772    23494761.1794
        41.900          25.3004
 114837049.862 7  89483390.13945  21852763.843    21852758.3124
        46.600          35.8004
 131821772.391 5 102718289.20042  25084850.132    25084855.6194
        34.300          16.9004
 116724640.364 7  90954274.16645  22211959.176    22211958.0994
        45.800          31.7004
 111834592.949 8  87143835.43346  21281416.730    21281416.9434
        49.300          38.4004
 112142352.422 8  87383642.24346  21339979.673    21339976.9554
        51.200          38.1004
 122470793.070 7  95431825.13243  23305412.768    23305416.2054
        42.300          22.9004
 129811876.747 5                  24702378.821
        34.700
 12 10 28  0  8  0.0000000  0 11G06G22G29G21G18G31G03G30G16G14G19
 113137136.025 7  88158798.37446  21529279.130    21529275.6514
        47.800          36.3004
 106484028.493 8  82974541.56147  20263236.056    20263228.8844
        49.600          43.8004
 128309815.172 6  99981678.51643  24416547.093    24416550.9984
        37.500          21.1004
 123506346.660 6  96238692.05744  23502476.901    23502472.6014
        41.900          24.3004
 114904498.808 8  89535947.76645  21865598.828    21865593.4734
        48.700          35.3004
 131858783.396 5 102747128.91842  25091893.936    25091899.5994
        35.000          15.6004
 116641708.239 7  90889651.98245  22196176.960    22196176.3524
        46.400          32.7004
 111892716.812 8  87189126.63546  21292477.399    21292477.9054
        49.800          38.6004
 112128100.457 8  87372536.83046  21337267.108    21337264.8014
        50.700          37.2004
 122402222.512 6  95378394.05743  23292363.540    23292367.7974
        41.600          22.0004
 129732175.231 6                  24687211.078
        39.500
 12 10 28  0  8 30.0000000  0 11G06G22G29G21G18G31G03G30G16G14G19
 113075566.368 7  88110822.14946  21517562.572    21517559.3264
        46.600          36.7004
 106486086.737 8  82976145.46747  20263627.891    20263620.1924
        50.700          43.4004
 128377432.976 6 100034367.58343  24429415.240    24429418.3254
        38.700          21.7004
 123546808.073 7  96270220.41844  23510176.481    23510171.8294
        42.100          25.9004
 114972237.013 8  89588730.77745  21878488.982    21878483.6274
        48.400          35.5004
 131895507.033 5 102775744.69742  25098882.271    25098887.4074
        34.800          17.4004
 116558915.222 7  90825138.17945  22180421.567    22180420.6664
        45.100          30.6004
 111951281.094 8  87234761.02246  21303621.807    21303622.4304
        48.800          38.5004
 112114407.476 8  87361867.00446  21334661.445    21334659.1374
        50.600          38.1004
 122333688.164 7  95324991.18243  23279321.360    23279325.9104
        42.000          22.6004
 129652378.690 6 101027837.24443  24672027.243    24672029.6244
        38.100          23.2004
 12 10 28  0  9  0.0000000  0 11G06G22G29G21G18G31G03G30G16G14G19
 113014143.883 7  88062960.60545  21505874.451    21505871.1474
        47.100          35.7004
 106488649.634 8  82978142.59847  20264115.427    20264107.9614
        51.700          43.8004
 128445291.346 6 100087244.06643  24442328.687    24442331.7134
        40.300          20.6004
 123587205.330 6  96301698.82144  23517863.095    23517859.0294
        40.500          24.3004
 115040259.696 8  89641735.47145  21891433.582    21891427.5234
        48.600          34.9004
 131931939.265 5 102804133.27742  25105813.305    25105819.8474
        34.200          17.4004
 116476260.897 7  90760732.46145  22164692.640    22164691.5644
        44.100          30.9004
 112010280.345 8  87280734.33946  21314848.915    21314849.7144
        48.600          38.9004
 112101271.234 8  87351630.98946  21332161.595    21332158.7014
        50.800          38.5004
 122265190.081 6  95271616.62443  23266285.901    23266290.5104
        41.400          22.0004
 129572484.975 6 100965582.49543  24656823.485    24656826.5114
        37.900          22.6004
 12 10 28  0  9 30.0000000  0 11G06G22G29G21G18G31G03G30G16G14G19
 112952868.990 7  88015214.07846  21494213.940    21494210.9884
        46.400          36.2004
 106491714.747 8  82980531.07547  20264698.299    20264691.1864
        50.700          43.5004
 128513388.182 6 100140306.37743  24455286.604    24455290.3344
        38.400          20.9004
 123627537.690 6  96333126.61944  23525538.792    23525533.5544
        41.100          25.8004
 115108562.668 7  89694958.56645  21904431.161    21904425.3364
        47.600          35.5004
 131968077.175 6 102832292.59942  25112690.795    25112696.4004
        37.100          17.4004
 116393746.209 7  90696435.56245  22148990.969    22148990.0094
        44.600          32.6004
 112069710.249 7  87327043.23146  21326158.189    21326159.1634
        47.500          38.1004
 112088690.039 8  87341827.48846  21329767.536    21329765.3454
        50.200          37.9004
 122196729.598 6  95218271.31043  23253257.218    23253262.2954
        40.500          21.1004
 129492493.741 6 100903251.77344  24641601.911    24641603.8824
        38.900          24.6004
 12 10 28  0 10  0.0000000  0 11G06G22G29G21G18G31G03G30G16G14G19
 112891744.044 7  87967584.38046  21482582.404    21482579.1594
        46.400          36.0004
 106495281.556 8  82983310.48147  20265377.201    20265370.2634
        50.800          43.8004
 128581723.451 6 100193554.46443  24468290.900    24468293.5754
        38.000          21.1004
 123667804.717 6  96364503.51744  23533201.366    23533197.4764
        40.400          24.4004
 115177143.857 8  89748398.45846  21917482.375    21917476.3754
        48.300          36.2004
 132003919.810 5 102860221.85542  25119512.474    25119517.2584
        34.400          17.4004
 116311373.669 7  90632249.42145  22133316.015    22133315.1734
        44.700          31.9004
 112129568.295 7  87373685.73746  21337548.439    21337549.5904
        47.000          38.1004
 112076664.178 8  87332456.70546  21327479.164    21327476.6224
        50.300          37.7004
 122128309.410 6  95164957.39543  23240237.553    23240241.0484
        41.600          22.0004
 129412405.999 6 100840845.80143  24626362.073    24626363.6344
        37.900          21.7004
 12 10 28  0 10 30.0000000  0 11G06G22G29G21G18G31G03G30G16G14G19
 112830771.648 7  87920073.56446  21470979.392    21470975.9134
        46.800          36.0004
 106499349.782 8  82986480.61047  20266151.258    20266143.9684
        51.100          43.6004
 128650297.186 6 100246988.42743  24481340.334    24481342.8324
        38.300          21.7004
 123708007.591 6  96395830.41344  23540851.113    23540847.2234
        40.500          25.8004
 115246002.377 7  89802054.44345  21930584.693    21930579.2794
        46.900          35.6004
 132039466.578 5 102887920.46743  25126276.946    25126282.4924
        35.300          19.0004
 116229145.901 7  90568176.08545  22117668.374    22117667.2974
        44.500          32.2004
 112189852.473 7  87420660.29346  21349020.614    21349021.3554
        47.600          37.4004
 112065194.729 8  87323519.49646  21325296.494    21325294.3044
        49.300          38.0004
 122059933.307 7  95111677.85943  23227225.892    23227229.1524
        42.000          20.9004
 129332223.330 5 100778365.94343  24611101.846    24611105.5174
        35.400          20.9004
 12 10 28  0 11  0.0000000  0 11G06G22G29G21G18G31G03G30G16G14G19
 112769953.449 7  87872682.88146  21459405.906    21459402.4264
        47.000          36.8004
 106503918.091 8  82990040.41447  20267020.824    20267013.2414
        50.400          43.5004
 128719108.775 6 100300607.65543  24494434.275    24494437.4774
        37.900          20.4004
 123748146.018 6  96427107.10944  23548489.941    23548485.0554
        40.900          26.4004
 115315135.309 8  89855924.26845  21943741.168    21943734.6414
        48.800          35.1004
 132074715.462 5 102915387.06343  25132984.530    25132991.2494
        35.100          18.3004
 116147064.486 7  90504216.79245  22102047.565    22102047.2504
        44.500          31.9004
 112250559.246 7  87467964.14546  21360573.241    21360573.8644
        47.600          37.3004
 112054281.230 8  87315015.49346  21323219.782    21323217.5924
        49.900          38.0004
 121991603.807 6  95058434.61643  23214222.729    23214226.2244
        41.400          22.3004
 129251946.288 6 100715812.47143  24595826.081    24595829.6344
        37.200          19.9004
 12 10 28  0 11 30.0000000  0 11G06G22G29G21G18G31G03G30G16G14G19
 112709292.303 7  87825414.58246  21447862.200    21447859.5404
        46.800          36.9004
 106508986.973 8  82993990.28047  20267985.423    20267977.7234
        51.900          43.6004
 128788158.832 6 100354412.77843  24507574.416    24507575.8594
        38.700          19.6004
 123788221.816 6  96458334.99044  23556116.287    23556111.1664
        41.900          26.0004
 115384540.439 7  89910006.19946  21956947.673    21956942.1424
        47.300          36.0004
 132109666.217 5 102942621.33442  25139635.314    25139642.1504
        35.200          17.8004
 116065133.051 7  90440374.36345  22086456.772    22086456.5754
        43.400          30.8004
 112311686.904 7  87515595.95946  21372205.255    21372205.5264
        47.800          38.2004
 112043924.531 8  87306945.36646  21321249.130    21321247.1154
        50.000          38.3004
 121923324.455 6  95005230.46843  23201228.935    23201232.8994
        41.200          22.9004
 129171576.715 5 100653186.96643  24580531.436    24580535.3414
        35.000          18.6004
 12 10 28  0 12  0.0000000  0 11G06G22G29G21G18G31G03G30G16G14G19
 112648788.583 8  87778268.94446  21436349.086    21436345.5484
        48.200          36.7004
 106514553.787 8  82998328.14247  20269044.322    20269037.1504
        50.300          43.3004
 128857445.304 6 100408402.07143  24520759.052    24520760.6714
        38.900          19.9004
 123828232.682 6  96489512.26944  23563730.038    23563724.9764
        41.300          26.2004
 115454214.635 7  89964297.79145  21970206.121    21970200.7074
        47.000          34.0004
 132144316.191 5 102969621.24743  25146229.260    25146235.4514
        33.800          18.3004
 115983352.518 7  90376649.51845  22070894.611    22070893.5934
        44.400          32.1004
 112373231.266 8  87563552.47446  21383917.128    21383917.2234
        48.000          38.2004
 112034123.300 8  87299308.06146  21319383.909    21319382.0704
        50.500          38.6004
 121855096.570 6  94952066.41243  23188245.510    23188248.5364
        40.900          22.3004
 129091114.182 6 100590488.97943  24565220.798    24565223.7654
        37.300          21.8004
 12 10 28  0 12 30.0000000  0 11G06G22G29G21G18G31G03G30G16G14G19
 112588445.613 7  87731248.57446  21424865.746    21424862.4424
        47.900          37.3004
 106520618.148 8  83003053.70847  20270198.078    20270190.6714
        50.700          43.7004
 128926968.512 6 100462575.89243  24533989.577    24533991.1974
        37.600          19.9004
 123868179.840 6  96520639.87643  23571330.927    23571326.5104
        40.200          22.9004
 115524156.351 7  90018797.84245  21983516.023    21983509.7884
        46.800          34.4004
 132178664.424 5 102996385.97543  25152765.687    25152771.9374
        34.200          18.3004
 115901725.466 7  90313044.26545  22055361.086    22055360.5954
        44.300          32.6004
 112435189.796 8  87611831.72446  21395707.384    21395708.0074
        48.000          37.5004
 112024877.988 8  87292103.94746  21317624.100    21317622.4964
        49.100          38.6004
 121786923.695 6  94898945.19943  23175273.122    23175275.0344
        40.900          22.8004
 129010560.355 6 100527719.84743  24549892.589    24549894.8534
        38.200          20.6004
 12 10 28  0 13  0.0000000  0 11G06G22G29G21G18G31G03G30G16G14G19
 112528264.638 8  87684354.42646  21413413.547    21413409.8914
        48.600          36.6004
 106527178.916 8  83008166.08047  20271446.853    20271438.6844
        51.300          43.7004
 128996727.744 6 100516933.59743  24547265.065    24547267.2124
        40.200          21.3004
 123908063.508 6  96551718.06343  23578919.897    23578915.3044
        40.700          23.0004
 115594363.028 7  90073504.34845  21996875.752    21996869.7524
        47.900          34.9004
 132212709.887 5 103022914.78443  25159244.511    25159251.3474
        34.900          18.3004
 115820253.876 7  90249560.15045  22039857.650    22039856.2804
        44.600          32.4004
 112497559.709 8  87660431.53046  21407575.917    21407576.5394
        49.300          37.6004
 112016188.484 8  87285332.92446  21315970.910    21315968.7784
        49.900          38.5004
 121718808.420 6  94845868.89443  23162309.756    23162312.7824
        41.200          22.9004
 128929915.972 6 100464880.15843  24534546.052    24534548.0234
        37.900          19.6004
 12 10 28  0 13 30.0000000  0 11G06G22G29G21G18G31G03G30G16G14G19
 112468248.209 8  87637588.50646  21401992.504    21401989.0834
        48.300          36.2004
 106534235.344 8  83013664.68547  20272789.425    20272781.8424
        50.300          43.3004
 129066722.926 6 100571475.13643  24560585.101    24560587.0144
        39.200          21.3004
 123947884.056 6  96582747.04143  23586498.931    23586493.7524
        40.400          22.8004
 115664832.437 7  90128415.57145  22010285.415    22010280.4704
        47.500          34.6004
 132246451.225 5 103049206.64743  25165665.035    25165672.3404
        34.600          18.6004
 115738940.747 7  90186199.51445  22024383.954    22024383.1114
        43.800          31.3004
 112560338.208 8  87709349.70946  21419522.484    21419523.1074
        48.500          37.4004
 112008054.836 8  87278995.03546  21314423.005    21314420.8744
        49.700          38.6004
 121650753.825 6  94792839.83443  23149358.772    23149361.5644
        41.600          22.0004
 128849182.062 6 100401970.74943  24519182.566    24519183.7164
        36.100          19.3004
 12 10 28  0 14  0.0000000  0 11G06G22G29G21G18G31G03G30G16G14G19
 112408399.242 8  87590953.06546  21390604.019    21390600.3644
        49.000          36.8004
 106541787.572 8  83019549.63447  20274226.418    20274218.8944
        50.200          43.7004
 129136954.065 6 100626200.53743  24573949.262    24573952.4634
        38.400          21.1004
 123987642.678 6  96613727.75644  23594064.543    23594059.5404
        39.900          24.2004
 115735562.868 8  90183530.18345  22023745.024    22023739.4344
        48.400          34.0004
 132279888.131 6 103075261.27443  25172028.143    25172034.9784
        36.300          19.9004
 115657788.853 7  90122964.53345  22008941.120    22008939.6334
        44.900          32.0004
 112623523.171 8  87758584.61246  21431546.524    21431546.9714
        49.900          37.4004
 112000477.680 8  87273090.77746  21312981.092    21312978.9604
        50.200          38.6004
 121582763.442 7  94739860.81544  23136421.557    23136423.7044
        42.200          25.6004
 128768360.570 5 100338993.10943  24503802.952    24503804.3954
        35.700          18.6004
 12 10 28  0 14 30.0000000  0 11G06G22G29G21G18G31G03G30G16G14G19
 112348718.521 8  87544448.73046  21379246.755    21379243.9204
        48.300          36.8004
 106549832.800 8  83025818.73347  20275757.184    20275749.7784
        49.900          43.4004
 129207420.185 6 100681109.06843  24587358.535    24587361.8544
        38.200          19.9004
 124027338.454 6  96644659.51243  23601617.933    23601614.0434
        39.300          22.6004
 115806551.547 7  90238846.03445  22037253.720    22037248.1894
        47.300          34.0004
 132313018.469 6 103101077.02143  25178333.073    25178339.2644
        36.500          19.6004
 115576799.331 7  90059856.03745  21993529.059    21993527.1624
        44.900          31.6004
 112687110.831 8  87808133.29446  21443647.162    21443647.3754
        50.300          38.0004
 111993456.462 8  87267619.71946  21311645.166    21311643.0934
        49.900          38.8004
 121514839.263 6  94686933.38844  23123495.630    23123497.3674
        41.600          25.0004
 128687451.561 5 100275947.27942  24488406.418    24488407.9204
        35.400          17.8004
 12 10 28  0 15  0.0000000  0 11G06G22G29G21G18G31G03G30G16G14G19
 112289208.938 8  87498077.73446  21367922.533    21367918.8774
        48.300          36.3004
 106558371.485 8  83032472.33847  20277381.986    20277374.5214
        50.400          43.7004
 129278121.102 6 100736200.51143  24600812.340    24600814.0764
        38.400          18.6004
 124066972.266 6  96675542.97743  23609160.110    23609155.9274
        39.400          23.3004
 115877796.483 7  90294361.55145  22050810.939    22050805.9364
        47.800          34.4004
 132345841.318 5 103126653.18743  25184578.355    25184585.4254
        35.300          18.3004
 115495974.992 7  89996876.26245  21978148.450    21978147.0814
        45.500          32.7004
 112751098.665 8  87857993.80546  21455823.376    21455824.3514
        49.200          37.8004
 111986990.805 8  87262581.55746  21310414.977    21310412.7284
        50.000          39.5004
 121446984.529 7  94634060.05244  23110582.810    23110584.9574
        42.200          25.6004
 128606456.528 5 100212834.35742  24472993.875    24472994.3224
        35.700          17.8004
 12 10 28  0 15 30.0000000  0 11G06G22G29G21G18G31G03G30G16G14G19
 112229873.248 8  87451842.24846  21356631.394    21356627.6214
        48.200          37.0004
 106567403.149 8  83039510.07847  20279100.721    20279093.1394
        49.900          43.7004
 129349057.240 6 100791475.30443  24614311.186    24614313.6264
        37.300          19.6004
 124106545.206 6  96706379.00444  23616691.063    23616686.1184
        39.600          24.5004
 115949295.715 7  90350075.23445  22064417.096    22064411.7414
        47.700          34.2004
 132378356.567 5 103151989.69842  25190765.769    25190772.7224
        35.400          17.8004
 115415319.145 7  89934027.77545  21962800.257    21962798.6534
        44.700          32.6004
 112815484.858 8  87908164.73346  21468075.672    21468076.6464
        48.900          37.7004
 111981081.564 8  87257976.97246  21309290.068    21309288.1704
        49.200          39.1004
 121379202.873 7  94581243.65443  23097683.400    23097686.0744
        42.100          23.6004
 128525377.253 6 100149655.81443  24457564.367    24457565.9274
        36.500          18.6004
 12 10 28  0 16  0.0000000  0 11G06G22G29G21G18G31G03G30G16G14G19
 112170712.229 7  87405742.86946  21345373.270    21345369.4394
        47.100          36.4004
 106576925.311 8  83046930.02647  20280913.115    20280905.5914
        50.500          43.4004
 129420226.779 6 100846931.92743  24627854.189    24627856.6294
        37.200          20.1004
 124146056.262 6  96737166.80743  23624209.636    23624204.1644
        40.500          22.5004
 116021046.351 7  90405984.79945  22078070.923    22078064.6894
        46.900          32.8004
 132410561.889 5 103177084.59342  25196895.674    25196901.1624
        35.100          17.4004
 115334832.836 7  89871311.40345  21947483.647    21947482.2774
        46.400          33.3004
 112880264.979 8  87958642.61246  21480403.277    21480403.8414
        48.800          38.1004
 111975727.522 8  87253805.00146  21308271.237    21308269.5164
        49.100          38.8004
 121311496.055 7  94528485.58144  23084798.430    23084800.9874
        42.200          26.1004
 128444213.516 6 100086411.51043  24442119.429    24442120.4624
        36.700          19.6004
 12 10 28  0 16 30.0000000  0 11G06G22G29G21G18G31G03G30G16G14G19
 112111728.648 8  87359781.74946  21334149.023    21334145.3674
        48.500          36.9004
 106586937.732 8  83054731.98247  20282818.392    20282810.6924
        50.300          43.3004
 129491629.844 6 100902570.56643  24641441.902    24641444.4004
        38.100          18.6004
 124185506.532 6  96767907.26743  23631717.226    23631710.8154
        39.800          22.5004
 116093046.536 7  90462088.81645  22091771.831    22091766.8864
        46.300          34.4004
 132442456.651 5 103201937.61143  25202963.417    25202970.6044
        35.700          18.6004
 115254519.106 7  89808729.50445  21932200.773    21932199.4034
        46.400          34.0004
 112945436.917 8  88009425.80346  21492805.107    21492805.9654
        49.200          37.3004
 111970929.069 8  87250065.96046  21307358.194    21307355.8864
        50.000          38.3004
 121243867.513 6  94475788.49344  23071928.494    23071931.3444
        41.600          24.0004
 128362967.546 5 100023103.07542  24426657.558    24426659.2954
        34.300          17.4004
 12 10 28  0 17  0.0000000  0 11G06G22G29G21G18G31G03G30G16G14G19
 112052924.419 7  87313960.39146  21322958.925    21322955.1524
        47.200          37.0004
 106597439.031 8  83062914.88447  20284816.553    20284808.7364
        50.800          43.4004
 129563265.614 6 100958390.53043  24655074.516    24655075.7844
        38.900          19.9004
 124224895.949 6  96798600.27043  23639212.417    23639206.9454
        39.000          22.5004
 116165293.732 7  90518385.30445  22105520.064    22105514.9434
        46.400          34.2004
 132474039.304 5 103226547.34143  25208973.922    25208981.7544
        35.400          18.6004
 115174379.989 7  89746283.66945  21916950.035    21916948.9004
        44.500          33.1004
 113010997.370 8  88060511.73446  21505280.545    21505281.5784
        49.400          37.1004
 111966685.702 8  87246759.45446  21306551.536    21306548.8184
        50.300          39.0004
 121176320.185 7  94423154.68043  23059073.611    23059077.3414
        42.100          23.9004
 128281639.675 5  99959730.90743  24411182.308    24411183.5174
        35.600          18.6004
 12 10 28  0 17 30.0000000  0 11G06G22G29G21G18G31G03G30G16G14G19
 111994301.209 7  87268280.08046  21311803.305    21311799.0054
        47.000          37.2004
 106608427.622 8  83071477.49947  20286907.486    20286899.4344
        50.300          43.2004
 129635133.377 6 101014391.25143  24668749.811    24668752.1344
        38.000          18.6004
 124264224.472 6  96829245.82443  23646697.203    23646691.6134
        40.900          22.8004
 116237785.354 7  90574872.24345  22119314.766    22119309.0014
        47.300          33.4004
 132505308.367 5 103250912.74743  25214923.861    25214931.2254
        35.400          19.3004
 115094417.329 7  89683975.33345  21901733.474    21901732.8074
        45.300          33.1004
 113076943.057 8  88111897.83846  21517829.682    21517830.9504
        49.100          37.4004
 111962996.548 8  87243884.79946  21305848.724    21305846.2994
        49.900          39.0004
 121108856.517 6  94370586.07344  23046236.033    23046238.7084
        41.400          25.8004
 128200230.686 6  99896295.51243  24395691.729    24395692.4704
        38.800          19.0004
 12 10 28  0 18  0.0000000  0 11G06G22G29G21G18G31G03G30G16G14G19
 111935861.640 8  87222742.86746  21300682.306    21300678.2994
        48.300          37.3004
 106619903.063 8  83080419.46047  20289090.509    20289083.3954
        50.100          43.1004
 129707233.096 6 101070572.72443  24682470.882    24682472.5014
        37.400          19.6004
 124303492.843 6  96859844.51743  23654169.280    23654163.9834
        39.600          22.5004
 116310519.436 7  90631548.12945  22133156.143    22133149.8504
        46.500          32.9004
 132536263.228 5 103275033.33142  25220814.668    25220821.0354
        35.600          17.8004
 115014634.146 7  89621806.85045  21886550.744    21886550.4294
        44.500          33.3004
 113143271.563 8  88163582.25346  21530451.833    21530453.2774
        49.400          37.4004
 111959862.343 8  87241442.57446  21305252.212    21305249.7874
        49.600          38.4004
 121041479.236 7  94318084.76144  23033414.566    23033417.2404
        42.700          25.6004
 128118742.107 6  99832798.11543  24380184.700    24380186.1444
        38.100          20.1004
 12 10 28  0 18 30.0000000  0 11G06G22G29G21G18G31G03G30G16G14G19
 111877607.845 8  87177350.41446  21289597.074    21289593.1254
        48.400          37.2004
 106631864.236 8  83089739.91347  20291367.057    20291359.2404
        50.500          43.6004
 129779564.180 6 101126934.48342  24696234.877    24696235.8514
        39.000          17.8004
 124342701.579 6  96890396.73143  23661629.955    23661625.7724
        39.500          22.5004
 116383493.437 7  90688410.96245  22147042.380    22147036.9074
        46.800          33.3004
 132566903.013 5 103298908.33143  25226645.877    25226652.4784
        35.500          19.0004
 114935032.982 7  89559780.18845  21871403.004    21871402.5724
        44.700          33.0004
 113209979.793 8  88215562.54846  21543146.146    21543147.2964
        49.600          36.8004
 111957282.544 8  87239432.34646  21304761.593    21304759.4614
        50.200          39.0004
 120974191.328 7  94265653.09444  23020609.352    23020611.9094
        42.900          25.7004
 128037175.101 6  99769239.57943  24364661.946    24364664.5624
        36.300          20.1004
 12 10 28  0 19  0.0000000  0 11G06G22G29G21G18G31G03G30G16G14G19
 111819547.727 8  87132108.87646  21278548.578    21278544.8644
        48.800          37.9004
 106644315.574 8  83099442.30547  20293736.286    20293728.9974
        50.300          43.7004
 129852131.854 6 101183480.54842  24710044.681    24710046.1254
        40.200          17.8004
 124381856.774 6  96920907.23143  23669080.403    23669076.4554
        39.200          22.8004
 116456711.173 7  90745463.70645  22160975.656    22160969.5974
        47.600          33.9004
 132597232.105 5 103322541.33643  25232416.417    25232423.9564
        35.500          19.0004
 114855621.774 7  89497901.55645  21856291.592    21856291.2184
        45.300          33.2004
 113277070.673 8  88267841.00746  21555913.227    21555914.9054
        48.900          36.8004
 111955262.637 8  87237858.40446  21304377.184    21304374.2904
        50.200          38.6004
 120907002.151 7  94213298.36344  23007823.542    23007825.6304
        43.200          26.6004
 127955536.698 6  99705625.38443  24349127.886    24349129.2124
        38.900          21.8004
 12 10 28  0 19 30.0000000  0 11G06G22G29G21G18G31G03G30G16G14G19
 111761666.377 8  87087006.64246  21267533.798    21267530.2014
        49.300          38.0004
 106657239.120 8  83109512.64847  20296195.413    20296188.1824
        50.400          43.6004
 129924919.003 6 101240197.68543  24723893.619    24723896.8214
        37.700          18.6004
 124420942.205 6  96951363.37643  23676518.513    23676514.3894
        40.300          22.9004
 116530153.732 7  90802691.64045  22174950.994    22174945.4634
        47.600          33.8004
 132627232.762 6 103345918.37642  25238125.563    25238132.4584
        36.000          17.4004
 114776386.321 7  89436159.87845  21841212.878    21841211.9774
        45.700          33.2004
 113344524.444 8  88320402.22746  21568749.448    21568750.8914
        50.000          36.9004
 111953785.067 7  87236707.05046  21304095.714    21304093.7584
        47.800          38.8004
 120839897.609 7  94161009.58044  22995053.603    22995055.7504
        43.200          26.5004
 127873811.063 6  99641943.27043  24333575.196    24333576.2884
        36.100          20.9004
 12 10 28  0 20  0.0000000  0 11G06G22G29G21G18G31G03G30G16G14G19
 111703988.127 8  87042062.67246  21256557.809    21256554.5644
        49.500          37.4004
 106670655.641 8  83119967.12647  20298748.348    20298740.8244
        50.600          43.5004
 129997946.249 6 101297101.89243  24737790.833    24737793.9774
        37.500          19.0004
 124459979.667 6  96981782.11343  23683946.576    23683942.5104
        39.200          22.9004
 116603840.528 7  90860109.89345  22188973.528    22188967.5284
        46.000          33.5004
 132656926.048 5 103369055.92042  25243776.635    25243783.3534
        34.600          16.3004
 114697350.559 7  89374573.79045  21826173.835    21826172.1134
        47.200          33.6004
 113412359.933 8  88373260.90346  21581658.120    21581659.4464
        49.300          36.6004
 111952871.757 8  87235995.39046  21303922.317    21303919.7174
        49.500          39.0004
 120772902.336 7  94108805.93644  22982304.434    22982306.9924
        42.700          26.0004
 127792021.146 6  99578211.06643  24318010.050    24318012.0804
        36.200          20.1004
 12 10 28  0 20 30.0000000  0 11G06G22G29G21G18G31G03G30G16G14G19
 111646498.448 8  86997265.62846  21245617.885    21245614.2884
        49.700          38.3004
 106684547.389 8  83130791.91047  20301391.994    20301384.5874
        50.600          43.3004
 130071197.171 6 101354180.39243  24751730.766    24751733.6164
        37.500          19.0004
 124498953.392 6  97012151.21443  23691363.427    23691359.3624
        40.400          22.6004
 116677752.516 7  90917703.62445  22203037.878    22203032.1714
        46.700          33.0004
 132686293.672 5 103391939.69242  25249365.812    25249370.2454
        34.600          16.3004
 114618500.340 7  89313132.28845  21811168.619    21811166.4874
        47.300          33.8004
 113480557.637 8  88426401.81746  21594636.186    21594637.5124
        49.000          37.1004
 111952505.834 8  87235710.26146  21303852.376    21303849.9514
        50.100          38.2004
 120706002.841 7  94056676.94244  22969573.190    22969575.6304
        43.200          25.8004
 127710152.097 6  99514417.23443  24302432.134    24302432.8154
        38.100          19.0004
 12 10 28  0 21  0.0000000  0 11G06G22G29G21G18G31G03G30G16G14G19
 111589205.383 8  86952621.79846  21234715.526    21234711.6954
        50.000          38.3004
 106698919.452 8  83141990.97647  20304126.602    20304119.1964
        50.800          43.5004
 130144676.870 6 101411437.15743  24765712.963    24765715.8144
        37.700          18.6004
 124537869.825 7  97042475.63943  23698770.662    23698765.4834
        42.200          22.6004
 116751893.680 8  90975475.93945  22217146.695    22217141.5164
        48.200          33.8004
 132715341.495 5 103414574.24843  25254893.374    25254899.4474
        35.800          18.6004
 114539844.297 7  89251842.09045  21796200.426    21796198.7634
        47.500          34.2004
 113549120.696 8  88479827.42146  21607683.087    21607684.8234
        49.700          36.8004
 111952692.671 8  87235855.85346  21303887.310    21303885.3544
        48.900          38.2004
 120639207.686 7  94004629.21644  22956863.059    22956863.5654
        43.900          26.4004
 127628210.807 6  99450567.05443  24286837.508    24286839.5964
        36.900          19.9004
 12 10 28  0 21 30.0000000  0 11G06G22G29G21G18G31G03G30G16G14G19
 111532110.302 8  86908132.23846  21223850.510    21223846.7374
        48.300          37.7004
 106713769.285 8  83153562.31647  20306952.792    20306945.2094
        50.400          42.9004
 130218383.879 6 101468871.06743  24779740.230    24779742.0254
        39.000          19.9004
 124576728.473 6  97072755.04943  23706165.065    23706159.8274
        41.800          22.9004
 116826260.812 7  91033424.32445  22231298.478    22231292.3024
        46.600          33.4004
 132744067.152 6 103436957.79743  25260359.349    25260366.1264
        37.700          19.6004
 114461383.591 7  89190704.10345  21781269.775    21781268.2884
        46.600          34.4004
 113618044.923 8  88533534.44346  21620799.222    21620800.9004
        48.600          37.1004
 111953431.036 8  87236431.20746  21304028.785    21304025.9504
        49.100          38.8004
 120572518.965 7  93952664.44044  22944171.876    22944173.5544
        43.900          25.6004
 127546197.572 6  99386660.85843  24271230.541    24271232.5714
        36.900          19.6004
 12 10 28  0 22  0.0000000  0 11G06G22G29G21G18G31G03G30G16G14G19
 111475216.417 8  86863799.44946  21213023.796    21213020.0824
        48.100          38.1004
 106729097.283 8  83165506.26747  20309869.473    20309861.8324
        50.800          42.9004
 130292318.849 6 101526482.60643  24793808.913    24793812.1744
        36.900          19.9004
 124615530.430 6  97102990.28443  23713548.351    23713543.8754
        41.600          22.8004
 116900852.621 7  91091547.79345  22245492.782    22245486.9584
        46.700          33.3004
 132772471.006 6 103459090.59143  25265765.279    25265771.7044
        39.400          21.8004
 114383122.076 7  89129721.33645  21766377.092    21766374.6674
        47.200          33.3004
 113687328.620 8  88587521.59146  21633983.797    21633984.9484
        49.900          36.7004
 111954721.288 7  87237436.60446  21304274.074    21304271.3564
        47.500          38.6004
 120505941.093 7  93900786.04044  22931502.533    22931503.3904
        43.000          26.3004
 127464114.761 6  99322700.42243  24255610.724    24255612.2844
        38.100          21.3004
 12 10 28  0 22 30.0000000  0 11G06G22G29G21G18G31G03G30G16G14G19
 111418525.697 7  86819624.97846  21202235.847    21202232.0164
        47.500          38.0004
 106744901.401 8  83177821.21547  20312876.690    20312869.3424
        50.400          43.9004
 130366480.960 6 101584271.13643  24807921.267    24807925.7584
        36.900          19.3004
 124654276.401 6  97133181.90543  23720920.744    23720916.8544
        39.200          22.8004
 116975666.462 7  91149844.28445  22259729.627    22259723.6274
        46.600          32.3004
 132800551.439 6 103480971.35643  25271107.816    25271115.4144
        37.500          20.1004
 114305061.922 7  89068895.45445  21751522.883    21751520.2834
        47.400          34.1004
 113756968.516 8  88641786.28846  21647235.752    21647236.7264
        48.900          36.5004
 111956562.883 8  87238871.60546  21304624.826    21304622.4024
        48.500          37.7004
 120439476.491 7  93848995.90044  22918855.189    22918855.7534
        43.400          27.5004
 127381963.219 6  99258686.41843  24239977.573    24239979.0754
        38.700          21.1004
 12 10 28  0 23  0.0000000  0 11G06G22G29G21G18G31G03G30G16G14G19
 111362039.698 7  86775610.02046  21191487.017    21191483.3034
        47.400          38.3004
 106761179.791 8  83190505.73447  20315974.477    20315967.0124
        49.700          43.9004
 130440868.787 6 101642235.48443  24822078.279    24822080.8954
        38.100          20.1004
 124692966.182 6  97163329.74643  23728283.449    23728279.6174
        38.900          22.5004
 117050699.981 7  91208311.95145  22274007.516    22274001.6344
        45.700          32.5004
 132828307.215 5 103502599.19742  25276388.769    25276396.7774
        35.900          16.3004
 114227204.843 7  89008227.81545  21736707.195    21736704.4774
        47.200          34.0004
 113826961.011 8  88696325.73646  21660555.325    21660555.9484
        48.700          37.1004
 111958954.894 7  87240735.50546  21305079.642    21305077.2174
        47.300          37.8004
 120373127.813 7  93797296.08944  22906228.868    22906228.9054
        44.100          26.7004
 127299743.376 6  99194619.21643  24224332.422    24224333.6904
        39.700          22.0004
 12 10 28  0 23 30.0000000  0 11G06G22G29G21G18G31G03G30G16G14G19
 111305760.460 8  86731756.17546  21180777.389    21180773.2064
        48.400          37.8004
 106777931.328 8  83203558.94147  20319161.995    20319154.5304
        50.300          43.5004
 130515481.877 6 101700375.44443  24836276.595    24836279.6214
        38.700          19.0004
 124731600.062 6  97193434.01743  23735636.038    23735630.9174
        40.300          22.8004
 117125950.718 7  91266948.87645  22288328.305    22288321.6024
        47.100          32.3004
 132855737.519 6 103523973.32442  25281610.386    25281616.9284
        36.200          16.9004
 114149553.261 7  88947720.31345  21721930.125    21721927.9354
        47.200          34.8004
 113897303.197 8  88751137.66446  21673941.416    21673942.1574
        49.000          37.0004
 111961896.912 8  87243027.99046  21305639.795    21305636.7844
        48.900          38.7004
 120306897.397 7  93745688.40844  22893624.552    22893625.5264
        43.700          27.3004
 127217456.916 6  99130500.12843  24208673.072    24208674.2814
        39.300          20.1004
 12 10 28  0 24  0.0000000  0 11G06G22G29G21G18G31G03G30G16G14G19
 111249690.554 8  86688065.43946  21170107.630    21170102.4514
        48.800          37.8004
 106795155.111 8  83216980.13147  20322439.706    20322432.0654
        50.200          43.2004
 130590319.997 6 101758690.67043  24850517.534    24850520.7364
        37.700          19.0004
 124770178.906 6  97223495.39843  23742976.672    23742972.6654
        40.700          22.3004
 117201416.748 7  91325753.55545  22302688.564    22302682.5064
        47.600          32.4004
 132882841.679 6 103545093.40142  25286767.798    25286775.4544
        37.400          16.9004
 114072110.221 7  88887375.30345  21707192.876    21707190.8624
        47.000          34.9004
 113967992.157 8  88806219.81446  21687392.440    21687393.5914
        48.600          37.3004
 111965388.292 7  87245748.53746  21306303.817    21306301.7444
        47.600          38.5004
 120240789.214 7  93694175.97244  22881043.957    22881045.1664
        43.900          26.9004
 127135105.678 6  99066330.55643  24193003.493    24193003.4134
        41.200          23.0004
 12 10 28  0 24 30.0000000  0 11G06G22G29G21G18G31G03G30G16G14G19
 111193832.426 8  86644539.71746  21159477.934    21159473.3414
        49.200          38.0004
 106812850.058 8  83230768.47147  20325806.728    20325799.4384
        50.800          42.6004
 130665382.610 5 101817180.85543  24864800.347    24864804.4284
        35.900          19.3004
 124808703.217 6  97253514.31543  23750307.406    23750303.8094
        41.100          22.8004
 117277095.650 7  91384724.11845  22317089.619    22317083.4444
        47.900          32.4004
 132909618.760 6 103565958.53942  25291863.831    25291870.3154
        38.600          16.9004
 113994878.041 8  88827194.59945  21692496.353    21692494.2214
        48.000          34.6004
 114039025.089 8  88861569.98246  21700909.997    21700911.1474
        49.100          37.6004
 111969429.044 8  87248897.16746  21307072.983    21307070.1484
        50.600          38.3004
 120174805.881 7  93642760.81644  22868487.389    22868488.5404
        44.100          27.0004
 127052690.567 6  99002111.21643  24177318.577    24177319.8454
        40.900          23.0004
 12 10 28  0 25  0.0000000  0 11G06G22G29G21G18G31G03G30G16G14G19
 111138187.862 8  86601180.41246  21148889.323    21148884.9054
        48.100          38.4004
 106831014.526 8  83244922.68547  20329263.326    20329255.4514
        50.600          43.0004
 130740668.655 6 101875845.18042  24879128.683    24879130.9474
        38.700          17.8004
 124847173.948 7  97283491.46743  23757629.604    23757624.7764
        42.100          22.6004
 117352985.061 7  91443858.71645  22331530.994    22331525.1704
        46.900          33.3004
 132936067.675 6 103586567.98142  25296896.179    25296902.5454
        36.800          17.4004
 113917858.883 7  88767179.88645  21677840.059    21677837.1654
        46.300          35.4004
 114110398.691 7  88917185.61746  21714491.921    21714493.1894
        47.300          37.0004
 111974017.852 8  87252472.85446  21307946.029    21307943.1944
        48.500          38.4004
 120108950.323 7  93591445.21344  22855955.382    22855956.3564
        42.900          28.3004
 126970212.876 6  98937843.13743  24161623.718    24161624.4584
        40.800          22.8004
 12 10 28  0 25 30.0000000  0 11G06G22G29G21G18G31G03G30G16G14G19
 111082759.557 7  86557989.62046  21138341.385    21138336.1474
        47.700          37.0004
 106849647.510 8  83259441.97547  20332808.952    20332801.1354
        51.200          43.5004
 130816177.982 6 101934683.46743  24893497.565    24893499.6534
        39.400          18.6004
 124885590.965 6  97313426.71143  23764939.347    23764934.6364
        41.400          22.0004
 117429083.188 8  91503155.94845  22346012.048    22346006.3994
        48.000          33.3004
 132962187.736 6 103606921.23142  25301866.817    25301872.8334
        38.600          17.4004
 113841055.745 7  88707333.49645  21663223.967    21663222.0704
        46.100          35.4004
 114182110.419 8  88973064.72346  21728138.598    21728140.3354
        48.600          36.9004
 111979154.777 8  87256475.64546  21308923.523    21308921.0984
        48.000          38.4004
 120043225.754 7  93540231.67944  22843448.414    22843449.2134
        44.600          27.9004
 126887674.205 6  98873527.54543  24145916.413    24145918.2674
        40.600          23.5004
 12 10 28  0 26  0.0000000  0 11G06G22G29G21G18G31G03G30G16G14G19
 111027549.434 8  86514968.83746  21127835.171    21127830.6954
        48.800          38.2004
 106868747.672 8  83274325.28847  20336443.880    20336436.0054
        51.100          43.5004
 130891910.107 6 101993695.33343  24907908.595    24907912.3254
        39.400          19.3004
 124923955.254 6  97343320.92843  23772239.298    23772234.3534
        41.100          21.5004
 117505387.700 8  91562613.98245  22360532.309    22360526.2504
        48.500          33.1004
 132987978.249 6 103627017.65442  25306774.680    25306782.5704
        38.300          17.4004
 113764470.800 7  88647657.11845  21648650.256    21648648.1824
        46.500          34.9004
 114254157.133 8  89029204.85346  21741848.568    21741850.1294
        48.300          36.5004
 111984838.832 8  87260904.76846  21310005.030    21310002.4884
        48.500          38.2004
 119977634.961 7  93489122.36544  22830966.730    22830967.0014
        44.500          27.2004
 126805075.718 6  98809165.34143  24130198.541    24130198.9884
        40.900          22.6004
 12 10 28  0 26 30.0000000  0 11G06G22G29G21G18G31G03G30G16G14G19
 110972558.885 7  86472119.15446  21117370.445    21117366.0274
        47.800          38.2004
 106888312.525 8  83289570.70947  20340166.775    20340159.1924
        50.900          43.8004
 130967862.867 6 102052879.18343  24922361.732    24922365.8134
        39.400          19.0004
 124962266.237 6  97373173.57043  23779529.619    23779524.9674
        41.400          21.5004
 117581895.272 8  91622230.25745  22375091.150    22375085.3844
        48.100          32.1004
 133013437.265 6 103646855.70942  25311620.043    25311626.1174
        36.400          16.3004
 113688105.829 7  88588152.15345  21634118.165    21634116.5024
        46.600          34.8004
 114326534.668 7  89085602.76646  21755621.627    21755623.0704
        47.800          36.4004
 111991068.368 7  87265758.94346  21311190.448    21311188.3164
        47.000          38.9004
 119912180.145 7  93438119.00944  22818510.521    22818511.2614
        43.500          27.9004
 126722417.821 6  98744756.83943  24114468.931    24114469.3784
        39.500          22.6004
 12 10 28  0 27  0.0000000  0 11G06G22G29G21G18G31G03G30G16G14G19
 110917790.838 8  86429442.84646  21106948.397    21106944.2734
        48.900          38.5004
 106908341.351 8  83305177.66847  20343978.061    20343970.5964
        50.400          43.9004
 131044036.834 6 102112235.38343  24936858.498    24936860.9974
        39.600          19.3004
 125000525.138 6  97402985.64643  23786810.219    23786805.5674
        40.800          20.4004
 117658604.790 7  91682003.88345  22389688.106    22389682.4574
        47.800          32.2004
 133038564.863 5                  25316399.697
        34.100
 113611963.644 7  88528820.78945  21619629.291    21619626.8664
        47.000          34.9004
 114399240.782 7  89142256.72646  21769457.060    21769458.4454
        47.200          36.1004
 111997843.729 8  87271038.43146  21312479.855    21312477.9004
        48.100          39.1004
 119846865.146 7  93387224.58044  22806081.747    22806081.2564
        44.500          27.0004
 126639702.894 6  98680303.89943  24098728.837    24098729.1674
        39.700          23.9004
 12 10 28  0 27 30.0000000  0 11G06G22G29G21G18G31G03G30G16G14G19
 110863247.478 8  86386941.61046  21096568.992    21096565.2784
        49.000          38.9004
 106928832.549 8  83321144.92247  20347877.591    20347869.8924
        50.300          43.1004
 131120430.770 6 102171762.93743  24951393.858    24951398.4084
        37.700          19.0004
 125038732.181 6  97432757.30343  23794081.147    23794076.9644
        39.300          21.5004
 117735513.171 8  91741932.46445  22404323.901    22404317.8424
        48.300          32.2004
 133063555.839 5                  25321119.479
        33.700
 113536046.541 7  88469664.79745  21605182.526    21605179.9844
        46.800          35.5004
 114472272.083 7  89199164.07446  21783354.733    21783356.7634
        47.600          37.3004
 112005163.820 8  87276742.38046  21313872.675    21313870.9544
        49.100          38.8004
 119781692.382 7  93336440.98144  22793679.089    22793679.1844
        43.700          27.0004
 126556931.749 6  98615807.13443  24082977.156    24082978.4824
        39.200          23.0004
 12 10 28  0 28  0.0000000  0 11G06G22G29G21G18G31G03G30G16G14G19
 110808930.552 8  86344616.82146  21086232.945    21086228.6454
        49.700          38.8004
 106949784.719 8  83337471.36547  20351864.090    20351856.5664
        50.700          43.6004
 131197043.621 6 102231461.09842  24965974.665    24965977.6324
        36.900          17.8004
 125076888.114 6  97462489.18043  23801342.052    23801337.4004
        39.700          22.5004
 117812618.002 8  91802014.12145  22418996.047    22418990.3414
        48.000          32.8004
 133088017.026 5                  25325774.486
        33.500
 113460357.368 7  88410686.40645  21590779.176    21590776.5764
        47.300          35.6004
 114545625.572 7  89256322.47546  21797313.862    21797315.4824
        47.900          37.4004
 112013027.777 8  87282870.11746  21315369.600    21315367.0584
        50.700          39.1004
 119716665.013 7  93285770.67244  22781303.937    22781303.9154
        43.700          27.3004
 126474105.687 6  98551267.59344  24067216.309    24067217.1084
        39.500          24.8004
 12 10 28  0 28 30.0000000  0 11G06G22G29G21G18G31G03G30G16G14G19
 110754841.596 8  86302469.66646  21075939.840    21075935.4814
        49.100          37.6004
 106971196.018 8  83354155.57147  20355938.778    20355930.9614
        49.400          43.1004
 131273874.758 6 102291329.29643  24980594.648    24980598.8464
        37.300          18.3004
 125114993.324 6  97492181.50043  23808592.827    23808588.8204
        39.700          21.5004
 117889917.494 8  91862247.45545  22433706.002    22433700.3544
        48.200          32.7004
 133112143.735 5                  25330366.026
        34.900
 113384897.977 7  88351887.06645  21576419.918    21576416.5554
        47.600          35.0004
 114619297.719 8  89313729.17446  21811333.374    21811334.8764
        48.200          36.6004
 112021434.435 8  87289420.74546  21316969.462    21316966.9204
        49.800          38.5004
 119651785.427 7  93235215.51044  22768958.275    22768957.3754
        43.700          27.9004
 126391225.772 6  98486686.12043  24051444.243    24051444.9244
        38.400          22.9004
 12 10 28  0 29  0.0000000  0 11G06G22G29G21G18G31G03G30G16G14G19
 110700983.864 8  86260502.67546  21065691.292    21065686.6994
        49.300          38.1004
 106993065.479 8  83371196.78847  20360100.273    20360092.1634
        50.300          43.2004
 131350923.919 6 102351367.44342  24995256.594    24995260.9104
        37.500          17.8004
 125153048.546 6  97521834.86443  23815834.613    23815831.2504
        39.400          21.8004
 117967409.324 7  91922630.66945  22448452.235    22448446.2354
        47.900          32.4004
 133135935.747 5                  25334893.849
        32.300
 113309671.412 7  88293269.13745  21562104.314    21562101.4794
        47.900          35.6004
 114693286.077 8  89371382.27946  21825412.843    21825414.9314
        48.800          36.8004
 112030383.679 8  87296394.15446  21318671.970    21318669.6044
        49.700          38.5004
 119587057.311 7  93184778.37544  22756640.499    22756640.0084
        44.600          29.0004
 126308293.865 6  98422064.09043  24035663.086    24035663.5334
        38.100          23.0004
 12 10 28  0 29 30.0000000  0 11G06G22G29G21G18G31G03G30G16G14G19
 110647359.157 8  86218717.27446  21055486.922    21055482.2704
        49.600          38.1004
 107015391.765 8  83388593.97047  20364348.624    20364340.9244
        50.100          43.0004
 131428190.498 6 102411574.92242  25009960.351    25009963.6704
        36.300          16.9004
 125191054.381 6  97551449.75543  23823067.717    23823063.4754
        39.800          22.0004
 118045092.054 7  91983162.63645  22463234.297    22463228.1224
        47.300          31.6004
 133159392.107 5                  25339357.065
        31.500
 113234680.388 7  88234834.76245  21547834.004    21547830.9934
        47.800          35.1004
 114767587.500 7  89429279.32146  21839551.742    21839553.8884
        47.900          36.7004
 112039874.901 8  87303789.88246  21320478.418    21320476.0524
        50.000          39.0004
 119522483.498 7  93134461.47444  22744352.066    22744352.0444
        43.800          28.1004
 126225311.520 6  98357402.77444  24019871.432    24019872.4074
        39.400          24.8004
 12 10 28  0 30  0.0000000  0 11G06G22G29G21G18G31G03G30G16G14G19
 110593969.793 8  86177115.25846  21045327.238    21045322.4694
        49.500          38.5004
 107038173.129 8  83406345.74747  20368684.225    20368675.8804
        50.100          42.9004
 131505673.126 6 102471950.73542  25024703.144    25024708.2804
        36.500          14.8004
 125229011.106 6  97581026.36043  23830290.641    23830286.4584
        41.100          22.3004
 118122962.257 7  92043840.66845  22478052.165    22478046.9864
        46.900          31.5004
 133182516.599 5                  25343755.017
        33.600
 113159926.680 7  88176585.30345  21533608.234    21533605.8684
        46.800          34.8004
 114842198.590 8  89487417.67546  21853750.290    21853752.2614
        48.500          36.0004
 112049906.415 8  87311606.62846  21322387.202    21322385.0714
        49.500          38.6004
 119458066.805 7  93084266.99844  22732093.880    22732092.5104
        43.600          26.3004
 126142279.565 6  98292702.80944  24004071.294    24004071.6234
        40.500          24.0004
 12 10 28  0 30 30.0000000  0 11G06G22G29G21G18G31G03G30G16G14G19
 110540818.152 8  86135698.47746  21035212.688    21035208.0364
        49.500          39.1004
 107061407.917 8  83424450.84147  20373105.578    20373097.1174
        50.900          42.9004
 131583371.003 6 102532494.28742  25039489.784    25039493.8064
        37.500          17.4004
 125266919.456 6  97610565.29043  23837503.644    23837500.0474
        39.000          22.8004
 118201017.666 7  92104663.03345  22492905.908    22492900.4944
        47.100          31.7004
 133205303.806 4                  25348090.908
        29.900
 113085413.236 7  88118523.05245  21519428.694    21519426.0354
        47.600          35.3004
 114917116.461 8  89545795.06446  21868006.507    21868008.5964
        48.500          36.1004
 112060477.971 8  87319844.18346  21324399.246    21324396.8214
        49.800          38.2004
 119393810.151 7  93034197.22144  22719865.601    22719865.0524
        42.600          28.9004
 126059199.798 6  98227965.57943  23988261.477    23988262.3934
        39.800          22.3004
 12 10 28  0 31  0.0000000  0 10G06G22G29G21G18G03G30G16G14G19
 110487905.576 8  86094467.97846  21025143.370    21025139.4214
        49.100          38.9004
 107085093.602 8  83442907.28447  20377612.474    20377604.2474
        50.200          42.5004
 131661282.675 6 102593204.46142  25054316.403    25054319.5464
        38.100          17.4004
 125304779.077 6  97640066.23543  23844708.607    23844703.7204
        40.200          21.7004
 118279255.727 7  92165627.72345  22507793.804    22507788.3904
        47.600          31.6004
 113011141.343 8  88060649.02546  21505295.812    21505292.9774
        48.800          36.1004
 114992336.881 8  89604408.21645  21882321.055    21882322.3824
        48.300          35.2004
 112071587.166 8  87328500.67046  21326512.958    21326510.7094
        49.800          38.2004
 119329715.548 7  92984253.71744  22707668.612    22707667.8874
        42.300          27.9004
 125976072.788 6  98163191.54243  23972442.820    23972443.4434
        38.900          22.6004
 12 10 28  0 31 30.0000000  0 10G06G22G29G21G18G03G30G16G14G19
 110435234.911 8  86053425.97746  21015120.367    21015116.1254
        48.400          37.9004
 107109229.783 8  83461714.75747  20382205.419    20382197.3094
        50.700          42.8004
 131739408.863 6 102654081.75742  25069183.902    25069186.6944
        37.600          15.6004
 125342591.609 6  97669530.50943  23851902.813    23851899.5094
        38.300          21.1004
 118357675.020 7  92226733.59345  22522717.266    22522711.2664
        47.700          31.4004
 112937114.477 7  88002965.92545  21491208.307    21491205.7654
        47.700          35.6004
 115067857.863 8  89663255.57845  21896692.035    21896693.4784
        49.100          35.7004
 112083234.644 8  87337576.61046  21328729.427    21328727.3544
        49.800          38.6004
 119265787.325 6  92934439.86344  22695503.081    22695502.3564
        41.900          26.9004
 125892900.833 6  98098382.49644  23956616.192    23956615.5254
        39.700          24.6004
 12 10 28  0 32  0.0000000  0 11G06G22G29G21G18G31G03G30G16G14G19
 110382808.209 8  86012574.07546  21005144.118    21005139.7014
        49.800          38.6004
 107133815.279 8  83480872.35647  20386883.894    20386875.6084
        51.500          43.5004
 131817748.008 6 102715125.00542  25084089.238    25084094.3154
        36.000          17.4004
 125380357.614 6  97698958.51243  23859089.865    23859085.1544
        39.900          21.3004
 118436272.965 8  92287978.73845  22537674.207    22537667.7974
        48.800          32.1004
 133271627.017 5                  25360711.243
        32.300
 112863334.989 8  87945475.58545  21477168.147    21477165.4294
        48.300          35.6004
 115143676.206 8  89722334.63345  21911119.981    21911121.6004
        48.400          35.3004
 112095418.891 8  87347070.80846  21331048.208    21331045.9014
        50.500          38.2004
 119202027.968 7  92884757.55044  22683369.566    22683369.0764
        42.300          27.2004
 125809685.220 6  98033539.42044  23940780.068    23940779.5774
        40.200          25.6004
 12 10 28  0 32 30.0000000  0 11G06G22G29G21G18G31G03G30G16G14G19
 110330628.564 8  85971914.69246  20995214.686    20995210.2104
        49.400          38.9004
 107158849.019 8  83500379.21647  20391647.564    20391640.0994
        49.700          42.3004
 131896300.456 6 102776334.41642  25099040.400    25099042.7234
        37.900          16.9004
 125418078.433 6  97728351.29943  23866267.744    23866263.9134
        39.000          21.3004
 118515048.971 7  92349362.57845  22552664.424    22552658.8934
        47.200          32.1004
 133293034.518 5                  25364788.552
        30.100
 112789806.449 8  87888180.77545  21463175.971    21463173.6634
        49.200          35.5004
 115219789.696 8  89781643.67945  21925604.074    21925605.9284
        48.800          35.0004
 112108140.170 8  87356983.47146  21333468.993    21333466.8034
        50.400          38.8004
 119138441.461 7  92835209.94444  22671269.469    22671268.4514
        42.500          27.2004
 125726428.395 6  97968664.22344  23924935.284    23924936.9034
        39.800          25.3004
 12 10 28  0 33  0.0000000  0 11G06G22G29G21G18G31G03G30G16G14G19
 110278697.009 8  85931448.62846  20985332.244    20985328.0024
        49.300          38.4004
 107184327.832 8  83520232.90647  20396496.026    20396488.0924
        50.000          42.7004
 131975063.634 6 102837707.98942  25114028.992    25114032.8394
        37.800          17.8004
 125455753.065 6  97757708.13243  23873437.628    23873434.1484
        38.900          22.3004
 118593998.421 7  92410881.59645  22567687.760    22567682.0534
        47.600          31.4004
                                  25368804.143
        27.600
 112716529.842 8  87831082.28445  21449231.705    21449229.1044
        48.700          35.3004
 115296193.518 8  89841178.94245  21940143.348    21940145.4364
        49.100          35.4004
 112121395.725 8  87367312.45146  21335990.895    21335989.1154
        50.200          38.6004
 119075029.352 6  92785798.24644  22659202.301    22659201.1654
        41.700          27.4004
 125643130.253 6  97903756.82644  23909085.054    23909085.1504
        41.700          24.7004
 12 10 28  0 33 30.0000000  0 11G06G22G29G21G18G31G03G30G16G14G19
 110227015.461 8  85891177.37746  20975497.255    20975492.8374
        50.000          38.5004
 107210250.266 8  83540432.25347  20401428.868    20401420.8754
        50.500          42.5004
 132054037.187 6 102899245.54442  25129057.281    25129061.0104
        37.300          16.9004
 125493382.753 6  97787029.93943  23880598.639    23880594.6904
        39.900          22.5004
 118673119.618 7  92472534.45145  22582744.515    22582738.5154
        46.700          31.2004
                                  25372749.915
        34.400
 112643507.981 8  87774182.27846  21435336.443    21435333.7844
        48.600          36.0004
 115372884.906 8  89900938.30045  21954737.155    21954739.5944
        49.000          35.7004
 112135184.929 8  87378057.26446  21338615.315    21338613.1254
        50.300          38.7004
 119011794.622 7  92736524.73344  22647169.086    22647168.2444
        42.600          28.3004
 125559792.378 7  97838818.48543  23893226.724    23893226.9954
        42.200          23.9004
 12 10 28  0 34  0.0000000  0 10G06G22G29G21G18G03G30G16G14G19
 110175586.538 8  85851102.97246  20965710.414    20965706.4654
        49.700          38.8004
 107236614.879 8  83560976.16847  20406445.540    20406437.7824
        50.300          42.4004
 132133220.606 5 102960946.54242  25144122.519    25144129.2384
        32.900          16.9004
 125530968.069 6  97816317.17043  23887752.308    23887747.0124
        40.500          22.3004
 118752410.643 7  92534319.62145  22597832.832    22597827.5944
        46.900          31.8004
 112570743.389 7  87717482.75145  21421489.188    21421487.1744
        47.900          35.7004
 115449860.734 8  89960919.28945  21969385.610    21969387.6394
        49.100          35.6004
 112149506.596 8  87389216.98546  21341340.886    21341338.3444
        50.500          38.0004
 118948740.388 7  92687391.87844  22635170.575    22635169.0294
        43.000          29.4004
 125476416.479 6  97773850.48544  23877360.669    23877360.9404
        41.800          24.0004
 12 10 28  0 34 30.0000000  0 10G06G22G29G21G18G03G30G16G14G19
 110124413.077 8  85811227.63946  20955972.698    20955968.2814
        50.200          39.3004
 107263420.598 8  83581863.79147  20411546.916    20411538.5714
        50.600          42.9004
 132212613.160 5 103022810.61542  25159232.364    25159237.1494
        34.800          17.4004
 125568509.929 6  97845570.50443  23894895.817    23894890.1104
        41.000          22.5004
 118831869.485 7  92596235.54945  22612953.417    22612947.7684
        45.900          31.2004
 112498239.048 8  87660986.02945  21407692.320    21407689.3684
        48.800          35.8004
 115527118.380 8  90021119.87645  21984087.161    21984089.1914
        48.800          35.1004
 112164360.182 8  87400791.19146  21344167.505    21344165.1394
        50.600          38.3004
 118885870.018 7  92638402.26744  22623206.272    22623205.4884
        42.600          29.2004
 125393004.644 6  97708854.50744  23861487.079    23861487.1754
        41.900          25.1004
 12 10 28  0 35  0.0000000  0 10G06G22G29G21G18G03G30G16G14G19
 110073496.507 8  85771552.47046  20946283.665    20946279.2474
        49.900          39.2004
 107290665.478 8  83603093.62547  20416731.005    20416723.1294
        49.900          42.4004
 132292213.847 6 103084836.83142  25174381.431    25174384.6924
        37.100          17.4004
 125606008.714 6  97874790.32843  23902030.291    23902026.8114
        40.300          21.8004
 118911493.754 7  92658280.39445  22628106.094    22628100.6804
        45.000          32.1004
 112425997.161 7  87604693.80545  21393944.874    21393941.5704
        47.400          35.6004
 115604654.469 7  90081537.43345  21998841.585    21998844.1424
        47.200          35.3004
 112179744.480 8  87412778.94546  21347094.634    21347092.3854
        49.600          38.7004
 118823186.290 7  92589558.10644  22611277.811    22611276.0314
        42.500          29.1004
 125309558.100 6  97643831.48344  23845606.753    23845607.4344
        41.700          24.5004
 12 10 28  0 35 30.0000000  0 10G06G22G29G21G18G03G30G16G14G19
 110022839.041 8  85732079.20646  20936643.978    20936639.3854
        50.800          38.9004
 107318347.446 8  83624664.04047  20421998.727    20421990.9104
        50.200          42.8004
 132372021.189 5 103147024.10742  25189567.552    25189572.1014
        35.400          16.9004
 125643465.078 6  97903977.03443  23909159.107    23909154.9244
        40.200          22.9004
 118991280.748 7  92720452.02145  22643288.562    22643283.7344
        44.700          31.7004
 112354019.827 7  87548607.72846  21380247.767    21380245.1664
        46.700          36.5004
 115682465.571 7  90142169.28945  22013648.317    22013651.4604
        46.400          34.9004
 112195658.087 8  87425179.13746  21350122.928    21350120.7974
        48.800          38.6004
 118760691.951 7  92540861.49844  22599385.709    22599382.8154
        42.700          28.9004
 125226077.922 7  97578782.26344  23829721.746    23829721.8414
        42.900          26.6004
 12 10 28  0 36  0.0000000  0 11G06G22G29G21G18G31G03G30G16G14G19
 109972443.003 8  85692809.64746  20927053.413    20927049.2894
        50.000          39.0004
 107346465.391 8  83646574.17947  20427349.397    20427341.8734
        48.400          42.7004
 132452034.841 5 103209372.06442  25204792.493    25204798.2734
        33.700          16.3004
 125680879.843 6  97933131.37043  23916278.771    23916274.5884
        40.200          22.3004
 119071228.575 7  92782748.99045  22658502.602    22658496.8374
        46.100          31.3004
                                  25391503.438
        27.300
 112282309.990 7  87492730.09346  21366601.771    21366599.0534
        47.300          36.7004
 115760548.698 7  90203013.11945  22028507.500    22028509.9404
        46.200          34.8004
 112212100.191 8  87437991.14446  21353251.933    21353249.2744
        48.800          39.0004
 118698390.254 7  92492314.98944  22587528.963    22587527.1244
        43.000          28.8004
 125142565.964 7  97513708.30244  23813830.431    23813830.0574
        43.800          27.0004
 12 10 28  0 36 30.0000000  0 10G06G22G29G21G18G03G30G16G14G19
 109922309.954 8  85653745.02846  20917513.397    20917509.1554
        49.900          39.0004
 107375016.811 8  83668822.09747  20432782.255    20432774.9074
        48.300          42.8004
 132532253.375 5 103271879.79442  25220058.994    25220063.6034
        35.400          17.8004
 125718252.963 6  97962253.22843  23923389.518    23923386.5664
        40.300          22.3004
 119151334.815 7  92845169.41045  22673746.288    22673740.4634
        46.300          30.9004
 112210869.453 7  87437062.28946  21353006.861    21353004.3784
        46.700          37.2004
 115838900.233 7  90264066.09745  22043417.123    22043419.9154
        47.100          35.1004
 112229068.638 8  87451213.28946  21356481.065    21356478.9924
        48.200          39.0004
 118636283.400 7  92443920.32344  22575710.926    22575709.1464
        42.600          28.1004
 125059023.225 7  97448610.30944  23797931.991    23797931.4424
        43.700          27.6004
 12 10 28  0 37  0.0000000  0 10G06G22G29G21G18G03G30G16G14G19
 109872443.174 8  85614887.87346  20908024.425    20908019.3624
        50.800          39.5004
 107404000.810 8  83691407.08547  20438297.996    20438289.7694
        48.700          42.4004
 132612676.617 5 103334546.94942  25235362.725    25235367.5684
        35.400          17.4004
 125755585.996 6  97991343.86543  23930494.256    23930490.6004
        39.100          21.7004
 119231597.565 7  92907711.76945  22689020.343    22689014.4024
        45.100          31.4004
 112139701.574 7  87381606.94246  21339464.476    21339461.1724
        46.800          36.8004
 115917517.697 7  90325326.28545  22058377.963    22058380.5204
        45.500          34.5004
 112246563.406 7  87464845.55546  21359810.192    21359807.7674
        47.800          39.0004
 118574375.180 7  92395680.42244  22563929.120    22563927.2814
        42.600          28.0004
 124975451.999 7  97383490.13344  23782028.658    23782028.3434
        44.000          29.3004
 12 10 28  0 37 30.0000000  0 11G06G22G29G21G18G31G03G30G16G14G19
 109822844.605 8  85576239.72246  20898586.217    20898581.0964
        50.100          39.1004
 107433415.494 8  83714327.66647  20443895.506    20443887.5134
        49.400          42.4004
 132693303.939 5 103397373.09642  25250705.815    25250710.4234
        33.700          16.3004
 125792879.642 6  98020403.83343  23937591.240    23937587.1164
        38.300          20.6004
 119312014.918 7  92970374.59545  22704322.513    22704317.0414
        44.500          30.6004
                                  25401969.237
        30.300
 112068808.586 7  87326365.79346  21325973.790    21325970.4274
        46.800          36.3004
 115996397.981 7  90386791.25745  22073388.921    22073391.3614
        45.900          35.2004
 112264583.358 7  87478887.05046  21363239.247    21363237.2334
        47.800          39.0004
 118512668.355 7  92347597.44344  22552186.593    22552185.1064
        42.300          28.1004
 124891853.954 7  97318349.06344  23766120.038    23766119.5474
        42.800          27.6004
 12 10 28  0 38  0.0000000  0 11G06G22G29G21G18G31G03G30G16G14G19
 109773516.126 8  85537802.02346  20889198.861    20889194.5614
        50.900          39.6004
 107463258.493 8  83737581.99646  20449574.227    20449565.8824
        50.000          41.9004
 132774133.185 5 103460356.64142  25266087.358    25266092.7874
        32.500          16.9004
 125830133.809 6  98049433.01643  23944679.695    23944675.9814
        37.200          19.9004
 119392583.673 7  93033155.41045  22719654.398    22719648.1054
        44.600          30.7004
                                  25405325.580
        28.900
 111998192.387 7  87271340.32046  21312535.720    21312532.4164
        46.700          36.4004
 116075537.194 7  90448458.00745  22088448.796    22088451.9394
        45.900          34.8004
 112283125.980 8  87493335.82246  21366768.218    21366765.6174
        48.400          39.2004
 118451165.328 7  92299673.26044  22540482.904    22540480.7144
        42.200          27.6004
 124808229.643 7  97253187.56644  23750207.197    23750206.2964
        43.400          28.5004
 12 10 28  0 38 30.0000000  0 10G06G22G29G21G18G03G30G16G14G19
 109724459.593 8  85499576.24546  20879864.073    20879859.1284
        51.000          39.2004
 107493528.701 8  83761169.22347  20455334.622    20455326.9224
        49.100          42.3004
 132855164.290 5 103523497.41942  25281506.749    25281513.1164
        30.700          16.9004
 125867349.454 6  98078432.21043  23951762.458    23951758.0414
        39.400          19.6004
 119473302.148 7  93096052.88745  22735014.057    22735008.8194
        44.300          30.7004
 111927856.060 7  87216532.93546  21299150.998    21299147.7524
        46.900          36.6004
 116154932.565 7  90510324.36045  22103557.276    22103559.8914
        47.300          34.9004
 112302190.522 8  87508191.29546  21370396.020    21370393.2434
        48.600          38.5004
 118389869.544 7  92251910.55644  22528818.572    22528816.7924
        42.400          27.9004
 124724581.402 7  97188007.41544  23734289.012    23734289.2844
        43.300          28.5004
 12 10 28  0 39  0.0000000  0 11G06G22G29G21G18G31G03G30G16G14G19
 109675676.772 8  85461563.73346  20870580.587    20870575.9354
        51.000          39.3004
 107524223.444 8  83785087.25947  20461175.540    20461167.4304
        50.000          42.3004
 132936394.985 5 103586793.75942  25296965.261    25296971.9214
        31.600          16.9004
 125904526.604 6  98107401.38043  23958836.837    23958833.1814
        40.100          20.1004
 119554167.519 7  93159064.82545  22750402.198    22750397.6644
        44.900          31.4004
 133540296.022 5                  25411835.494
        31.500
 111857801.137 7  87161944.83646  21285820.085    21285816.5474
        47.200          36.3004
 116234580.090 8  90572387.19445  22118714.155    22118716.4784
        48.600          35.1004
 112321775.346 8  87523452.17146  21374122.253    21374120.3564
        48.800          38.0004
 118328783.109 7  92204310.99744  22517194.056    22517192.4524
        42.200          29.1004
 124640909.884 7  97122809.12144  23718365.846    23718365.7074
        43.300          27.7004
 12 10 28  0 39 30.0000000  0 11G06G22G29G21G18G31G03G30G16G14G19
 109627171.929 8  85423767.83246  20861350.332    20861345.6214
        50.900          39.3004
 107555343.063 8  83809336.36346  20467096.884    20467088.8914
        48.400          41.9004
 133017827.083 5 103650246.99742  25312461.987    25312469.0584
        33.300          17.4004
 125941668.268 6  98136342.87843  23965904.536    23965900.4714
        39.800          19.9004
 119635179.859 7  93222191.28645  22765818.006    22765813.2954
        43.900          30.4004
                                  25414993.481
        27.600
 111788032.277 8  87107579.64446  21272543.459    21272540.3894
        48.500          37.1004
 116314478.795 7  90634645.74945  22133918.275    22133920.8334
        46.900          34.3004
 112341880.963 8  87539118.85746  21377948.442    21377946.3104
        48.200          37.9004
 118267911.120 7  92156878.51944  22505610.876    22505608.9204
        43.100          28.0004
 124557218.828 7  97057595.59144  23702440.810    23702439.4404
        43.900          28.5004
 12 10 28  0 40  0.0000000  0 10G06G22G29G21G18G03G30G16G14G19
 109578945.182 8  85386188.61946  20852173.116    20852168.9914
        50.200          39.7004
 107586883.712 8  83833913.53446  20473098.656    20473091.1324
        49.400          41.8004
 133099456.993 5 103713854.37242  25327996.897    25328001.9164
        34.000          14.8004
 125978772.845 6  98165255.52243  23972967.090    23972960.9144
        40.000          20.6004
 119716334.426 7  93285428.55245  22781261.379    22781256.9614
        45.100          30.1004
 111718550.018 8  87053437.77546  21259320.676    21259317.7244
        48.000          37.3004
 116394623.413 7  90697095.92245  22149169.594    22149171.2724
        46.000          34.4004
 112362503.923 8  87555188.67246  21381873.144    21381870.5434
        49.000          38.2004
 118207254.228 7  92109613.66344  22494067.275    22494065.7884
        42.100          28.8004
 124473507.483 7  96992366.29744  23686509.646    23686509.5074
        42.700          27.9004
 12 10 28  0 40 30.0000000  0 10G06G22G29G21G18G03G30G16G14G19
 109530999.305 8  85348828.27946  20843049.385    20843044.6164
        50.700          39.8004
 107618844.175 8  83858817.83846  20479181.137    20479173.0274
        49.200          41.9004
 133181284.729 5 103777615.93242  25343567.855    25343572.9914
        34.100          17.8004
 126015841.796 6  98194140.38943  23980020.542    23980015.0704
        39.400          21.3004
 119797629.936 7  93348775.65945  22796731.481    22796726.9464
        44.800          30.5004
 111649357.237 7  86999521.47246  21246154.222    21246150.9774
        47.500          37.7004
 116475011.420 7  90759735.73745  22164466.592    22164469.0914
        45.500          34.5004
 112383643.364 8  87571660.92146  21385895.627    21385893.9054
        48.300          38.2004
 118146816.130 7  92062519.28744  22482566.137    22482564.3574
        42.800          28.5004
 124389778.531 7  96927123.28944  23670576.595    23670576.6314
        42.500          28.2004
 12 10 28  0 41  0.0000000  0 10G06G22G29G21G18G03G30G16G14G19
 109483336.591 8  85311688.57346  20833979.260    20833974.4914
        51.400          39.8004
 107651222.810 8  83884047.98446  20485342.215    20485334.3984
        49.500          41.8004
 133263309.254 5 103841530.77542  25359177.099    25359181.2394
        33.400          17.8004
 126052875.915 6  98222998.15343  23987066.408    23987062.9284
        37.300          20.1004
 119879064.004 7  93412230.74045  22812227.719    22812223.7714
        44.500          30.4004
 111580456.826 7  86945832.98346  21233042.829    21233039.3504
        47.300          36.6004
 116555639.696 7  90822562.79245  22179809.752    22179812.8954
        46.500          33.5004
 112405298.359 7  87588534.89946  21390016.687    21390014.2034
        47.800          38.6004
 118086599.853 7  92015597.75844  22471107.162    22471104.9134
        42.100          28.1004
 124306033.345 7  96861867.63944  23654640.674    23654639.7154
        42.800          28.6004
 12 10 28  0 41 30.0000000  0 10G06G22G29G21G18G03G30G16G14G19
 109435959.069 8  85274771.10146  20824963.330    20824959.0884
        51.600          39.7004
 107684017.480 8  83909602.30246  20491583.212    20491574.7504
        50.900          41.9004
 133345529.600 5 103905598.28242  25374823.425    25374828.5614
        35.500          17.4004
 126089875.793 6  98251829.18343  23994107.863    23994104.3834
        38.700          19.0004
 119960634.508 7  93475792.12344  22827750.284    22827745.6914
        45.100          29.9004
 111511851.167 7  86892374.15146  21219987.190    21219983.9454
        47.900          36.8004
 116636504.974 7  90885574.51445  22195198.526    22195200.9074
        46.100          34.4004
 112427467.312 8  87605809.36846  21394235.057    21394232.6324
        48.100          38.3004
 118026608.108 7  91968851.20144  22459690.961    22459688.7714
        42.700          28.6004
 124222273.687 7  96796600.69244  23638701.729    23638700.3594
        42.300          28.3004
 12 10 28  0 42  0.0000000  0 10G06G22G29G21G18G03G30G16G14G19
 109388868.308 8  85238077.06746  20816001.991    20815997.8084
        50.700          39.7004
 107717225.910 8  83935479.05047  20497902.637    20497894.0004
        50.900          42.1004
 133427943.972 5 103969816.92342  25390507.325    25390511.6414
        33.700          16.3004
 126126841.721 6  98280633.76143  24001143.247    24001138.6534
        40.900          20.9004
 120042338.857 7  93539457.79944  22843298.774    22843294.2984
        44.600          29.9004
 111443541.877 8  86839146.26946  21206988.580    21206984.4554
        48.400          37.2004
 116717603.355 7  90948767.87945  22210630.763    22210633.8484
        46.600          33.9004
 112450148.099 7  87623482.66646  21398551.138    21398549.4174
        47.900          38.6004
 117966843.143 7  91922281.36444  22448318.327    22448315.9614
        42.500          28.7004
 124138500.517 7  96731323.23544  23622759.991    23622758.1524
        42.700          25.9004
 12 10 28  0 42 30.0000000  0 10G06G22G29G21G18G03G30G16G14G19
 109342066.588 8  85201608.27346  20807096.071    20807091.4784
        51.100          39.7004
 107750846.394 8  83961676.85746  20504299.672    20504291.6804
        50.200          41.8004
 133510551.766 5 104034186.30342  25406226.354    25406231.0804
        34.300          16.9004
 126163774.242 6  98309412.31843  24008171.329    24008166.6774
        40.100          21.8004
 120124174.671 7  93603225.92345  22858871.814    22858866.8694
        44.500          30.4004
 111375531.766 7  86786151.50846  21194046.123    21194042.9364
        47.300          37.4004
 116798931.841 7  91012140.53745  22226107.638    22226110.7814
        46.300          34.6004
 112473339.322 7  87641553.69946  21402964.305    21402962.4674
        47.500          38.0004
 117907308.353 7  91875890.86844  22436988.683    22436986.4934
        42.900          28.6004
 124054715.663 7  96666036.65444  23606815.731    23606814.9484
        42.300          28.9004
 12 10 28  0 43  0.0000000  0 10G06G22G29G21G18G03G30G16G14G19
 109295557.209 8  85165367.27546  20798245.232    20798240.8734
        51.000          39.7004
 107784878.054 8  83988195.06646  20510776.145    20510767.7424
        50.500          41.8004
 133593353.166 6 104098706.55742  25421982.783    25421988.6814
        36.100          16.3004
 126200675.261 6  98338166.30343  24015191.764    24015188.2844
        39.000          20.1004
 120206141.345 7  93667096.00645  22874468.789    22874464.9574
        44.600          30.3004
 111307824.222 8  86733392.51746  21181162.215    21181158.3844
        48.000          36.4004
 116880488.319 7  91075690.85945  22241627.351    22241630.3774
        45.400          33.9004
 112497040.654 7  87660022.21546  21407474.223    21407471.8574
        47.700          38.0004
 117848007.708 7  91829682.82344  22425703.839    22425702.0004
        42.400          29.0004
 123970921.786 7  96600743.04544  23590870.532    23590868.7524
        42.700          29.3004
 12 10 28  0 43 30.0000000  0 10G06G22G29G21G18G03G30G16G14G19
 109249341.626 8  85129355.20046  20789451.077    20789446.3074
        50.700          39.3004
 107819318.717 8  84015031.97546  20517329.999    20517321.7724
        50.200          41.4004
 133676346.123 5 104163376.07542  25437776.556    25437782.3374
        35.500          16.9004
 126237544.963 6  98366895.91943  24022208.086    24022204.5484
        39.000          21.3004
 120288236.148 7  93731065.94645  22890091.726    22890087.6014
        46.000          30.4004
 111240421.345 7  86680870.92846  21168335.415    21168332.1114
        47.400          37.1004
 116962269.153 7  91139416.00245  22257189.508    22257192.6524
        46.000          33.9004
 112521250.189 8  87678886.74046  21412081.351    21412079.2194
        48.400          38.3004
 117788943.269 6  91783658.83544  22414464.378    22414462.3054
        41.800          28.5004
 123887120.261 6  96535443.49344  23574922.773    23574921.8144
        41.700          28.9004
 12 10 28  0 44  0.0000000  0 11G06G22G29G21G18G31G03G30G16G14G19
 109203423.641 8  85093575.02446  20780713.143    20780708.3164
        51.000          40.5004
 107854167.738 8  84042187.07646  20523961.473    20523953.0114
        50.800          41.7004
 133759531.534 5 104228195.52342  25453606.425    25453612.1474
        33.900          15.6004
 126274385.849 6  98395603.06343  24029217.844    24029216.2404
        36.500          21.3004
 120370457.868 7  93795134.77844  22905737.782    22905732.7784
        45.500          29.0004
 133690420.865 5                  25440406.372
        32.500
 111173327.514 7  86628590.14946  21155568.098    21155563.9154
        47.500          36.8004
 117044272.674 7  91203314.66545  22272794.187    22272797.6824
        46.100          34.3004
 112545967.613 8  87698147.01946  21416785.030    21416783.2504
        49.000          38.6004
 117730119.553 7  91737822.41844  22403270.007    22403268.2274
        42.000          27.7004
 123803314.009 6  96470140.27044  23558974.111    23558973.6214
        40.800          28.5004
 12 10 28  0 44 30.0000000  0 10G06G22G21G18G31G03G30G16G14G19
 109157803.295 8  85058026.75746  20772031.908    20772027.1984
        51.100          40.2004
 107889421.111 8  84069657.25446  20530669.835    20530661.7254
        50.300          41.4004
 126311196.461 6  98424286.62543  24036223.651    24036220.9344
        36.900          22.0004
 120452802.241 7  93859299.19144  22921407.324    22921402.8484
        44.800          28.8004
                                  25442892.613
        31.300
 111106542.397 8  86576549.93646  21142859.141    21142855.3694
        48.000          37.2004
 117126493.393 7  91267382.57445  22288440.612    22288443.6384
        46.100          33.8004
 112571189.267 8  87717800.19546  21421584.947    21421582.8744
        49.200          38.2004
 117671537.324 7  91692174.18044  22392121.911    22392119.3114
        42.200          28.5004
 123719502.577 7  96404832.98444  23543026.623    23543024.2574
        42.300          28.4004
 12 10 28  0 45  0.0000000  0 11G06G22G29G21G18G31G03G30G16G14G19
 109112483.000 8  85022712.31046  20763407.838    20763402.8344
        50.900          40.0004
 107925077.229 8  84097441.25946  20537455.094    20537446.8674
        50.000          41.2004
 133926719.553 5                  25485372.630
        34.100
 126347977.886 6  98452947.45643  24043223.074    24043219.6524
        39.100          21.1004
 120535268.109 7  93923558.25645  22937099.866    22937094.8634
        44.800          30.3004
 133716205.304 5                  25445315.417
        35.400
 111040069.128 8  86524752.72546  21130209.808    21130205.5664
        48.500          38.0004
 117208928.574 7  91331617.60045  22304127.954    22304131.2734
        46.700          34.6004
 112596914.081 8  87737845.44546  21426480.024    21426477.7754
        48.000          38.2004
 117613199.662 7  91646716.49644  22381020.566    22381017.5564
        42.400          28.4004
 123635688.138 6  96339523.31044  23527076.363    23527074.2904
        41.800          28.3004
 12 10 28  0 45 30.0000000  0 11G06G22G29G21G18G31G03G30G16G14G19
 109067464.525 8  84987633.03346  20754840.706    20754836.0544
        50.700          39.1004
 107961133.874 8  84125537.36446  20544316.463    20544308.1774
        49.700          41.9004
 134010469.444 5                  25501311.432
        35.800
 126384730.569 6  98481585.90043  24050216.505    24050211.6194
        38.800          20.9004
 120617852.404 7  93987909.60945  22952815.429    22952810.4254
        45.200          30.5004
 133728564.570 5                  25447667.547
        34.400
 110973909.499 7  86473199.90546  21117619.829    21117615.6464
        47.700          38.1004
 117291574.715 7  91396017.00345  22319855.361    22319858.5634
        45.700          34.9004
 112623139.964 8  87758281.13146  21431470.977    21431468.8454
        49.600          38.2004
 117555109.460 7  91601451.65044  22369966.641    22369963.9814
        42.000          27.3004
 123551871.902 7  96274212.25744  23511126.658    23511124.4094
        42.900          28.5004
 12 10 28  0 46  0.0000000  0 10G06G22G29G21G18G03G30G16G14G19
 109022747.426 8  84952788.61646  20746331.498    20746326.3774
        50.900          38.8004
 107997586.720 8  84153942.20446  20551252.822    20551244.9464
        49.400          41.2004
 134094402.743 6                  25517284.377
        36.600
 126421452.766 6  98510200.55943  24057205.296    24057199.4724
        38.000          21.5004
 120700550.696 7  94052349.80644  22968552.243    22968547.3564
        43.600          29.1004
 110908063.728 7  86421891.65846  21105089.875    21105085.9854
        47.800          37.8004
 117374426.027 7  91460576.28545  22335621.858    22335624.7674
        45.900          35.1004
 112649863.169 8  87779104.35546  21436556.549    21436553.8904
        50.200          38.0004
 117497266.920 7  91556379.76244  22358958.948    22358955.9954
        43.300          28.6004
 123468053.481 7  96208899.47844  23495175.814    23495173.7414
        42.800          27.7004
 12 10 28  0 46 30.0000000  0 10G06G22G29G21G18G03G30G16G14G19
 108978340.009 8  84918185.49846  20737881.051    20737875.7544
        50.700          39.4004
 108034439.813 8  84182658.91747  20558266.053    20558257.8854
        49.300          42.1004
 134178524.258 5 104554809.14342  25533291.655    25533295.9714
        32.600          17.4004
 126458151.161 6  98538796.66243  24064188.155    24064183.9724
        37.500          20.4004
 120783366.526 7  94116881.58044  22984311.692    22984306.7474
        43.600          28.4004
 110842540.328 8  86370834.60846  21092620.873    21092616.9244
        49.100          38.2004
 117457485.218 7  91525297.53145  22351427.192    22351430.6284
        44.900          34.3004
 112677087.640 8  87800318.17546  21441736.990    21441734.6244
        49.600          38.0004
 117439680.765 7  91511507.64544  22348000.253    22347997.8284
        42.300          27.5004
 123384240.027 7  96143590.56844  23479226.805    23479224.2044
        42.600          28.9004
 12 10 28  0 47  0.0000000  0 10G06G22G29G21G18G03G30G16G14G19
 108934241.741 8  84883823.28646  20729489.217    20729484.3894
        50.700          40.1004
 108071688.341 8  84211683.78346  20565354.109    20565345.4724
        50.100          41.4004
 134262830.778 5 104620502.17842  25549336.148    25549340.3464
        31.300          15.6004
 126494824.166 6  98567373.01643  24071167.081    24071162.7224
        41.000          20.6004
 120866295.572 7  94181501.57444  23000092.383    23000087.8484
        44.100          29.4004
 110777339.430 8  86320028.85346  21080213.907    21080209.9584
        49.700          38.5004
 117540746.759 7  91590176.47745  22367271.052    22367274.4884
        45.400          33.6004
 112704809.214 8  87821919.33946  21447012.039    21447010.2004
        49.500          37.4004
 117382351.173 7  91466835.45944  22337091.053    22337087.8664
        43.000          27.8004
 123300431.000 7  96078285.11344  23463277.720    23463275.9994
        42.300          28.6004
 12 10 28  0 47 30.0000000  0 10G06G22G29G21G18G03G30G16G14G19
 108890454.494 8  84849703.42546  20721156.727    20721151.4894
        50.300          39.2004
 108109330.339 8  84241015.22146  20572517.165    20572508.4114
        49.800          41.8004
                 104686325.25042  25565413.227
        31.500          12.6004
 126531472.264 6  98595929.94343  24078141.025    24078137.0184
        38.000          20.1004
 120949335.245 7  94246207.77344  23015894.829    23015890.2364
        45.100          29.1004
 110712462.760 8  86269475.74046  21067867.999    21067863.9924
        48.600          39.1004
 117624207.114 7  91655210.35445  22383152.920    22383156.7674
        45.800          33.7004
 112733026.040 8  87843906.42046  21452381.710    21452379.5194
        48.900          38.0004
 117325281.317 7  91422365.65844  22326230.412    22326227.6944
        42.700          27.9004
 123216627.900 7  96012984.27744  23447330.843    23447328.8284
        43.200          28.5004
 12 10 28  0 48  0.0000000  0 10G06G22G29G21G18G03G30G16G14G19
 108846979.019 8  84815826.52446  20712883.189    20712878.4204
        50.200          38.8004
 108147362.621 8  84270650.78347  20579754.571    20579746.0514
        51.000          42.2004
 134432008.146 5 104752339.25242  25581525.145    25581533.3294
        31.800          14.8004
 126568094.849 6  98624467.00343  24085110.619    24085105.6744
        39.900          20.1004
 121032482.198 7  94310997.55444  23031716.979    23031712.2104
        45.800          29.3004
 110647911.628 8  86219176.29446  21055583.943    21055579.8784
        49.300          38.7004
 117707861.847 7  91720395.67745  22399073.046    22399076.6584
        46.400          32.9004
 112761735.039 7  87866276.99546  21457845.013    21457842.3544
        47.600          38.2004
 117268472.476 7  91378099.22744  22315420.345    22315417.6864
        43.500          29.2004
 123132831.312 7  95947688.50844  23431384.235    23431382.5134
        44.500          27.7004
 12 10 28  0 48 30.0000000  0 10G06G22G29G21G18G03G30G16G14G19
 108803819.445 8  84782195.75346  20704670.105    20704665.5124
        50.700          39.3004
 108185784.819 8  84300590.19146  20587065.885    20587057.9514
        51.200          41.5004
 134516861.514 4 104818458.59642  25597672.134    25597679.0874
        29.100          16.9004
 126604694.718 6  98652986.36543  24092075.749    24092071.2734
        39.100          19.9004
 121115736.162 7  94375870.75844  23047560.175    23047555.7574
        46.300          28.7004
 110583690.459 8  86169133.95146  21043362.572    21043359.0344
        49.200          38.8004
 117791709.567 7  91785731.38445  22415028.384    22415032.1134
        46.200          33.1004
 112790936.521 8  87889031.33046  21463401.857    21463399.2564
        48.500          37.4004
 117211929.070 7  91334039.63344  22304660.737    22304657.4334
        43.900          28.9004
 123049044.914 7  95882400.67844  23415440.284    23415438.0934
        44.300          28.9004
 12 10 28  0 49  0.0000000  0 11G06G22G29G21G18G31G03G30G16G14G19
 108760977.777 8  84748812.72146  20696517.918    20696512.7974
        50.900          39.3004
 108224595.137 8  84330832.02946  20594451.408    20594443.2984
        50.400          41.6004
 134601897.561 4 104884709.62442  25613855.350    25613861.0724
        28.600          14.8004
 126641272.748 6  98681488.68243  24099035.269    24099031.2614
        37.900          19.9004
 121199094.798 7  94440825.51544  23063422.257    23063417.8404
        45.500          29.8004
                                  25462241.658
        31.000
 110519801.695 8  86119350.63746  21031204.714    21031200.5904
        49.100          38.0004
 117875746.986 7  91851214.90545  22431020.772    22431023.9154
        46.700          33.5004
 112820629.018 8  87912168.26346  21469052.307    21469050.1754
        50.300          38.0004
 117155654.325 7  91290189.37744  22293951.627    22293948.3234
        44.200          29.1004
 122965270.220 7  95817121.98644  23399498.048    23399496.2684
        43.900          28.8004
 12 10 28  0 49 30.0000000  0 10G06G22G21G18G31G03G30G16G14G19
 108718451.977 8  84715675.80746  20688425.270    20688420.1494
        51.200          39.4004
 108263787.465 8  84361371.54746  20601909.318    20601900.7984
        50.500          41.7004
 126677825.502 6  98709971.35643  24105990.768    24105986.7024
        38.400          20.1004
 121282552.162 7  94505857.18244  23079304.308    23079299.6564
        45.200          28.5004
                                  25464054.816
        30.700
 110456243.796 8  86069825.12346  21019110.379    21019106.1964
        49.300          38.3004
 117959967.098 7  91916840.77845  22447047.085    22447050.5804
        46.900          33.1004
 112850806.106 8  87935682.81046  21474794.762    21474792.9824
        48.800          38.1004
 117099647.010 7  91246547.48444  22283293.210    22283290.2584
        44.500          28.6004
 122881505.085 7  95751850.74044  23383557.681    23383556.1354
        43.400          27.5004
 12 10 28  0 50  0.0000000  0  9G06G22G21G18G03G30G16G14G19
 108676249.537 8  84682790.87646  20680394.558    20680389.8484
        50.400          39.7004
 108303365.039 8  84392211.24046  20609440.857    20609432.6884
        50.300          41.2004
 126714359.105 6  98738439.06743  24112943.515    24112938.1594
        38.900          19.9004
 121366111.620 7  94570968.41944  23095204.811    23095199.8084
        45.700          27.6004
 110393024.499 8  86020563.46046  21007080.443    21007075.4984
        49.400          38.6004
 118044371.930 7  91982610.58745  22463109.507    22463112.4164
        47.100          32.6004
 112881471.506 8  87959577.84746  21480630.377    21480628.4214
        48.100          38.3004
 117043915.239 7  91203120.31344  22272688.050    22272684.9214
        43.800          29.4004
 122797756.655 7  95686592.50144  23367621.941    23367618.9884
        43.900          28.9004
 12 10 28  0 50 30.0000000  0 10G06G22G21G18G31G03G30G16G14G19
 108634372.462 8  84650159.46846  20672425.681    20672419.9744
        51.000          39.0004
 108343325.441 8  84423349.26246  20617045.075    20617036.3794
        50.800          41.0004
 126750874.364 6  98766892.47043  24119892.838    24119888.4794
        39.800          20.1004
 121449770.554 7  94636157.15244  23111124.274    23111119.8564
        45.300          27.5004
 133832647.902 5                  25467474.044
        35.500
 110330145.754 8  85971567.15046  20995114.814    20995110.4554
        49.400          38.6004
 118128957.937 7  92048521.57445  22479205.333    22479208.6524
        45.400          32.1004
 112912623.146 7  87983851.77846  21486557.873    21486556.0354
        47.500          38.2004
 116988461.321 7  91159909.64044  22262135.077    22262132.1834
        44.200          29.5004
 122714026.299 7  95621348.36644  23351687.235    23351685.1034
        43.800          28.6004
 12 10 28  0 51  0.0000000  0 10G06G22G21G18G31G03G30G16G14G19
 108592819.859 8  84617780.89846  20664518.228    20664512.9904
        50.800          39.9004
 108383664.057 8  84454781.98446  20624721.159    20624712.6974
        50.900          41.3004
 126787369.176 6  98795329.94543  24126837.040    24126832.6234
        38.400          19.6004
 121533524.136 7  94701419.68644  23127062.358    23127057.4134
        45.700          28.6004
 133841093.339 5                  25469077.727
        30.100
 110267607.451 8  85922836.12546  20983213.630    20983209.8574
        49.300          38.4004
 118213719.269 7  92114569.17845  22495334.890    22495338.5614
        46.300          32.9004
 112944256.544 7  88008501.09846  21492576.795    21492575.6604
        47.600          37.0004
 116933285.592 7  91116915.73444  22251635.746    22251632.7944
        43.900          29.2004
 122630313.510 7  95556117.91144  23335756.975    23335754.6674
        43.900          28.6004
 12 10 28  0 51 30.0000000  0  9G06G22G21G18G03G30G16G14G19
 108551590.875 8  84585654.49146  20656672.533    20656667.5884
        51.100          39.6004
 108424375.854 8  84486505.50046  20632468.041    20632459.8144
        51.600          41.2004
 126823841.435 6  98823749.75543  24133778.009    24133772.3024
        38.800          19.9004
 121617367.322 7  94766752.00444  23143017.329    23143012.9114
        45.400          28.9004
 110205408.938 8  85874369.86246  20971378.137    20971373.7794
        50.000          38.2004
 118298649.818 7  92180748.64245  22511496.733    22511500.4624
        46.300          33.0004
 112976366.964 8  88033522.13246  21498688.246    21498686.2324
        49.600          37.9004
 116878387.916 7  91074138.50444  22241188.983    22241186.0894
        43.900          28.6004
 122546616.843 7  95490900.01844  23319829.601    23319827.2934
        42.900          29.8004
 12 10 28  0 52  0.0000000  0 10G06G22G21G18G31G03G30G16G14G19
 108510697.424 8  84553789.54346  20648890.881    20648886.0544
        50.700          40.1004
 108465468.602 8  84518525.86446  20640287.290    20640279.2974
        50.800          40.5004
 126860301.761 6  98852160.38843  24140715.296    24140712.0504
        39.700          19.6004
 121701308.200 7  94832160.44644  23158990.906    23158986.1954
        43.300          29.5004
 133856922.073 5                  25472091.900
        31.000
 110143562.232 8  85826177.73746  20959608.108    20959604.2184
        48.600          37.9004
 118383756.099 7  92247065.02945  22527691.602    22527695.6254
        44.100          32.1004
 113008962.119 8  88058920.87446  21504891.230    21504889.3914
        49.400          38.4004
 116823780.929 7  91031587.77644  22230797.419    22230794.3494
        44.300          29.6004
 122462947.800 7  95425703.66145  23303907.984    23303905.6184
        42.800          31.2004
 12 10 28  0 52 30.0000000  0 10G06G22G21G18G31G03G30G16G14G19
 108470133.497 8  84522181.36746  20641171.669    20641166.9004
        51.000          40.6004
 108506932.093 8  84550835.12146  20648178.034    20648169.5144
        50.800          41.1004
 126896743.094 6  98880556.18843  24147649.719    24147647.0014
        39.000          21.5004
 121785336.064 7  94897636.67244  23174981.034    23174975.9134
        45.800          28.9004
 133864300.736 5                  25473492.563
        31.500
 110082061.847 8  85778255.46546  20947905.308    20947901.1844
        48.500          38.0004
 118469026.904 7  92313509.62945  22543918.278    22543922.6524
        45.700          32.4004
 113042032.505 8  88084689.91546  21511184.490    21511182.4754
        48.900          38.3004
 116769459.185 7  90989259.30844  22220459.802    22220457.4354
        43.900          29.9004
 122379300.484 6  95360524.24244  23287989.118    23287987.4554
        41.800          29.3004
 12 10 28  0 53  0.0000000  0 10G06G22G21G18G31G03G30G16G14G19
 108429899.379 8  84490830.17946  20633515.548    20633510.4274
        50.900          40.3004
 108548762.673 8  84583430.41746  20656138.377    20656129.2714
        50.700          40.8004
 126933164.691 6  98908936.64843  24154580.808    24154576.8594
        39.500          21.3004
 121869447.468 7  94963177.98344  23190986.733    23190981.5534
        42.900          28.3004
                                  25474826.933
        33.700
 110020909.028 8  85730604.02646  20936268.412    20936263.8774
        48.600          38.5004
 118554457.441 7  92380078.70345  22560175.716    22560178.9774
        44.200          31.9004
 113075573.746 8  88110825.86346  21517567.330    21517565.7264
        48.500          38.3004
 116715423.867 7  90947154.02744  22210177.022    22210174.4804
        43.900          29.9004
 122295675.142 7  95295361.98744  23272076.154    23272073.5534
        42.900          29.3004
 12 10 28  0 53 30.0000000  0 10G06G22G21G18G31G03G30G16G14G19
 108390004.945 8  84459743.67846  20625923.746    20625918.3914
        51.200          40.4004
 108590965.759 8  84616315.98246  20664168.882    20664160.5974
        51.000          40.9004
 126969574.562 6  98937307.93243  24161509.040    24161505.1504
        38.700          19.9004
 121953647.557 7  95028788.42844  23207009.220    23207003.9824
        43.200          29.0004
                                  25476094.484
        31.900
 109960113.035 8  85683230.62946  20924699.229    20924694.5194
        48.800          38.9004
 118640051.944 7  92446775.53445  22576463.690    22576467.7714
        44.100          31.9004
 113109591.860 8  88137333.40346  21524040.808    21524038.6184
        48.800          38.6004
 116661685.031 7  90905279.76644  22199950.437    22199948.1294
        43.700          29.3004
 122212080.688 7  95230223.75544  23256168.471    23256165.3434
        43.100          29.6004
 12 10 28  0 54  0.0000000  0  9G06G22G21G18G03G30G16G14G19
 108350448.064 8  84428920.20146  20618396.298    20618390.7674
        51.500          40.3004
 108633535.288 8  84649487.07546  20672269.293    20672261.5354
        50.700          41.4004
 127005970.163 6  98965668.15143  24168436.518    24168431.7494
        40.400          20.6004
 122037930.481 7  95094463.41644  23223048.456    23223042.7494
        45.900          28.7004
 109899672.484 8  85636134.19446  20913197.766    20913193.4074
        49.400          39.2004
 118725803.409 7  92513594.67845  22592781.616    22592785.8154
        46.000          30.9004
 113144080.885 8  88164207.88946  21530604.050    21530601.2734
        49.200          37.1004
 116608241.892 7  90863635.93144  22189780.673    22189778.6004
        43.000          28.3004
 122128515.209 7  95165108.10644  23240266.360    23240263.4074
        42.900          29.1004
 12 10 28  0 54 30.0000000  0 10G06G22G21G18G31G03G30G16G14G19
 108311231.021 8  84398361.53846  20610933.104    20610928.3354
        50.800          40.4004
 108676469.342 8  84682942.22846  20680439.641    20680431.3554
        51.900          41.1004
 127042352.051 6  98994017.64643  24175358.120    24175354.7574
        39.900          19.0004
 122122294.688 7  95160201.72344  23239100.765    23239097.0514
        44.600          28.1004
                                  25478416.670
        28.000
 109839590.202 8  85589316.93246  20901763.992    20901760.2784
        49.500          39.0004
 118811708.959 7  92580533.89845  22609129.329    22609133.2934
        46.000          30.9004
 113179039.572 8  88191448.34146  21537255.550    21537253.3604
        48.800          37.6004
 116555097.408 7  90822224.79744  22179667.746    22179664.7944
        43.900          29.9004
 122044981.174 7  95100016.95545  23224370.065    23224366.8204
        43.000          31.1004
 12 10 28  0 55  0.0000000  0 10G06G22G21G18G31G03G30G16G14G19
 108272361.889 8  84368073.96146  20603537.122    20603531.4744
        51.000          40.4004
 108719771.810 8  84716684.44346  20688679.620    20688671.5684
        50.900          40.5004
 127078727.190 6  99022361.87543  24182280.632    24182277.2114
        36.900          20.6004
 122206743.575 7  95226006.02944  23255171.722    23255166.8944
        44.800          28.6004
 133895759.288 4                  25479477.355
        28.300
 109779874.205 8  85542785.09246  20890400.670    20890396.2524
        49.800          39.2004
 118897771.018 7  92647595.07945  22625506.061    22625509.6154
        45.100          31.6004
 113214471.302 7  88219057.39046  21543998.122    21543996.5184
        47.400          37.1004
 116502260.288 7  90781053.16244  22169612.893    22169609.4724
        43.700          29.6004
 121961486.113 6  95034956.18344  23208481.062    23208478.7554
        41.500          29.8004
 12 10 28  0 55 30.0000000  0 10G06G22G21G18G31G03G30G16G14G19
 108233831.064 8  84338050.00746  20596205.031    20596199.3834
        50.300          40.7004
 108763429.383 8  84750703.35946  20696987.548    20696979.3204
        50.900          40.8004
 127115085.689 6  99050693.14643  24189199.715    24189195.7674
        37.700          19.6004
 122291264.146 7  95291866.19844  23271255.972    23271250.7344
        45.200          28.0004
 133900970.709 5                  25480470.462
        30.100
 109720516.019 8  85496532.05046  20879105.354    20879100.4684
        49.600          38.5004
 118983975.783 7  92714767.44245  22641911.121    22641914.8514
        45.800          31.2004
 113250363.023 7  88247024.87546  21550828.575    21550826.8544
        47.700          37.6004
 116449722.154 7  90740114.51844  22159615.250    22159611.8884
        43.200          29.1004
 121878020.883 7  94969918.65644  23192598.298    23192595.6394
        42.300          29.9004
 12 10 28  0 56  0.0000000  0 10G06G22G21G18G31G03G30G16G14G19
 108195646.119 8  84308295.55446  20588938.593    20588933.0034
        50.500          40.2004
 108807444.722 8  84785001.06246  20705363.465    20705355.0624
        51.000          40.6004
 127151432.555 6  99079015.35943  24196114.469    24196112.1034
        36.700          19.3004
 122375859.182 7  95357784.39544  23287353.809    23287348.9824
        43.500          27.3004
 133905828.038 5                  25481397.448
        35.300
 109661522.330 8  85450563.03346  20867878.889    20867874.6474
        48.400          39.1004
 119070324.307 7  92782051.83345  22658343.150    22658346.4694
        45.400          31.5004
 113286717.467 7  88275352.91146  21557746.765    21557744.7514
        47.800          37.6004
 116397490.326 7  90699414.55445  22149676.169    22149672.6894
        43.100          30.4004
 121794591.952 7  94904909.41945  23176722.923    23176718.9744
        42.900          30.5004
 12 10 28  0 56 30.0000000  0 10G06G22G21G18G31G03G30G16G14G19
 108157808.318 8  84278811.61046  20581737.563    20581732.7354
        50.700          40.2004
 108851815.651 8  84819575.84846  20713806.750    20713798.3474
        51.000          40.6004
 127187769.098 6  99107329.50043  24203030.671    24203027.5434
        36.800          19.3004
 122460526.918 7  95423759.23444  23303464.915    23303460.2634
        45.200          27.6004
 133910325.411 6                  25482253.279
        36.200
 109602896.087 8  85404880.34946  20856722.788    20856718.1364
        48.800          39.2004
 119156813.577 7  92849445.89045  22674801.415    22674805.2624
        45.900          31.7004
 113323532.673 8  88304039.99546  21564752.330    21564750.7844
        48.300          38.3004
 116345567.580 7  90658955.43244  22139795.499    22139791.9614
        43.900          29.7004
 121711201.298 7  94839929.98945  23160853.729    23160850.0154
        43.400          31.3004
 12 10 28  0 57  0.0000000  0 10G06G22G21G18G31G03G30G16G14G19
 108120321.115 8  84249600.85246  20574604.226    20574598.9884
        50.800          40.7004
 108896541.084 8  84854426.86646  20722317.580    20722309.5874
        52.200          40.8004
 127224096.939 6  99135636.89443  24209944.571    24209939.6264
        39.000          19.6004
 122545265.682 7  95489789.41644  23319590.878    23319585.3474
        43.700          27.8004
 133914463.633 5                  25483040.830
        32.000
 109544640.640 8  85359486.58646  20845636.767    20845632.3504
        49.800          39.8004
 119243441.617 7  92916948.08344  22691285.779    22691290.0944
        45.400          29.6004
 113360807.378 8  88333085.12146  21571845.923    21571844.3194
        48.200          38.3004
 116293957.464 7  90618739.93445  22129974.305    22129970.3564
        43.400          30.4004
 121627851.672 7  94774982.53045  23144992.537    23144988.7064
        43.400          32.2004
 12 10 28  0 57 30.0000000  0 10G06G22G21G18G31G03G30G16G14G19
 108083185.969 8  84220664.43646  20567537.582    20567532.2264
        50.300          40.3004
 108941618.672 8  84889552.29746  20730895.971    20730887.3344
        51.500          41.0004
 127260416.944 6  99163938.14643  24216854.919    24216851.0874
        37.300          19.0004
 122630073.528 7  95555873.43244  23335728.703    23335724.3444
        43.000          27.5004
 133918242.696 5                  25483758.311
        33.300
 109486757.567 8  85314382.99646  20834622.014    20834617.6554
        49.900          39.4004
 119330204.938 7  92984555.69645  22707796.478    22707801.0874
        45.300          30.2004
 113398539.590 7  88362486.73346  21579025.689    21579024.2024
        47.800          37.2004
 116242662.811 7  90578770.25745  22120212.631    22120209.3274
        43.500          31.1004
 121544545.358 7  94710068.83545  23129139.739    23129136.1424
        44.500          31.9004
 12 10 28  0 58  0.0000000  0 10G06G22G21G18G31G03G30G16G14G19
 108046398.753 8  84191999.12346  20560537.260    20560531.7874
        50.100          39.4004
 108987039.682 8  84924945.31646  20739539.214    20739530.9284
        51.100          40.5004
 127296723.573 6  99192229.06043  24223763.110    24223760.3344
        37.600          19.3004
 122714941.987 7  95622004.67844  23351878.255    23351873.9554
        43.600          28.1004
                                  25484409.213
        32.600
 109429243.088 8  85269566.60846  20823677.431    20823672.4274
        49.700          39.0004
 119417093.969 7  93052261.25645  22724331.571    22724335.7114
        46.000          30.3004
 113436720.587 8  88392238.06146  21586291.137    21586289.7674
        48.300          37.5004
 116191679.888 7  90539043.48945  22110510.841    22110507.7714
        43.600          30.4004
 121461277.349 7  94645184.97545  23113293.817    23113289.8684
        44.300          30.9004
 12 10 28  0 58 30.0000000  0 10G06G22G21G18G31G03G30G16G14G19
 108009980.598 8  84163621.39746  20553607.189    20553601.4234
        49.900          40.1004
 109032821.561 8  84960619.53846  20748251.004    20748242.8354
        50.700          40.7004
 127333037.115 6  99220525.33943  24230673.779    24230670.3584
        37.400          19.0004
 122799888.519 7  95688196.77144  23368043.939    23368038.6424
        43.000          27.3004
 133924707.771 5                  25484994.362
        33.500
 109372119.310 8  85225054.67346  20812806.614    20812802.6074
        50.000          39.1004
 119504125.011 7  93120077.47045  22740892.811    22740898.0644
        45.600          31.4004
 113475367.781 8  88422352.66746  21593645.682    21593643.9024
        49.200          37.3004
 116141030.643 7  90499576.75344  22100872.639    22100869.1604
        45.000          29.7004
 121378069.171 7  94580347.72944  23097459.100    23097455.0924
        44.600          29.7004
 12 10 28  0 59  0.0000000  0 10G06G22G21G18G31G03G30G16G14G19
 107973914.745 8  84135518.17946  20546743.887    20546738.5914
        49.500          40.0004
 109078942.852 8  84996558.24646  20757027.703    20757019.3584
        50.900          40.8004
 127369339.317 6  99248812.77243  24237581.616    24237578.6054
        37.700          20.1004
 122884891.814 7  95754433.10944  23384218.817    23384213.8724
        42.600          26.6004
 133927420.977 5                  25485505.578
        35.300
 109315369.076 8  85180833.81346  20802007.476    20802003.3524
        50.300          39.6004
 119591275.751 7  93187986.96245  22757476.968    22757482.2214
        45.700          30.7004
 113514459.719 8  88452813.82146  21601085.207    21601083.1344
        49.300          37.2004
 116090698.842 7  90460357.38145  22091294.134    22091290.9474
        44.700          30.8004
 121294903.757 7  94515543.79345  23081632.739    23081629.3774
        45.200          30.5004
 12 10 28  0 59 30.0000000  0 10G06G22G21G18G31G03G30G16G14G19
 107938207.839 8  84107694.66946  20539949.217    20539943.9214
        50.000          40.3004
 109125407.019 8  85032764.12946  20765869.565    20765861.0454
        51.000          41.5004
 127405636.302 6  99277096.10443  24244490.452    24244485.3894
        37.900          19.9004
 122969955.484 7  95820716.47844  23400406.228    23400401.1084
        42.900          26.0004
 133929761.874 6                  25485952.426
        36.000
 109258999.861 8  85136909.84846  20791280.805    20791275.9194
        50.000          39.8004
 119678548.313 7  93255991.39345  22774084.688    22774089.5304
        44.700          30.7004
 113553999.572 8  88483623.98746  21608609.706    21608607.6334
        49.500          38.1004
 116040692.261 7  90421391.44345  22081778.991    22081774.9254
        44.900          30.3004
 121211788.314 7  94450778.81545  23065817.009    23065812.9434
        45.500          30.9004
 12 10 28  1  0  0.0000000  0 10G06G22G21G18G31G03G30G16G14G19
 107902862.669 8  84080153.03446  20533222.742    20533217.6214
        48.900          40.0004
 109172211.654 8  85069235.31046  20774775.874    20774768.1744
        51.000          41.5004
 127441929.293 6  99305376.39343  24251395.803    24251392.3824
        36.200          18.6004
 123055077.831 7  95887045.57044  23416604.650    23416599.4704
        42.600          27.0004
 133931742.980 5                  25486327.567
        32.600
 109203014.388 8  85093284.91446  20780627.048    20780622.5724
        50.000          39.3004
 119765939.728 7  93324088.43645  22790714.931    22790719.7164
        44.800          30.4004
 113593985.427 8  88514781.69146  21616218.069    21616216.7584
        49.400          37.2004
 115991013.845 7  90382681.20445  22072324.932    22072321.1014
        45.300          30.8004
 121128724.970 7  94386054.42645  23050009.809    23050006.2714
        45.000          30.9004
 12 10 28  1  0 30.0000000  0 10G06G22G21G18G31G03G30G16G14G19
 107867881.611 8  84052895.12446  20526565.986    20526560.8654
        49.700          39.8004
 109219355.497 8  85105970.79846  20783747.464    20783739.0034
        51.300          41.3004
 127478220.208 6  99333655.01043  24258302.630    24258297.6274
        36.200          18.3004
 123140257.294 7  95953419.16244  23432814.160    23432808.5704
        43.400          27.5004
 133933364.688 5                  25486636.015
        32.600
 109147415.739 8  85049961.38246  20770047.390    20770042.3274
        51.000          39.6004
 119853447.897 7  93392276.45245  22807367.929    22807371.6584
        45.100          30.2004
 113634416.093 8  88546286.00546  21623912.220    21623910.7914
        50.700          37.9004
 115941667.198 7  90344229.50045  22062934.339    22062931.0354
        46.100          30.3004
 121045716.512 7  94321372.79545  23034213.939    23034210.1074
        45.100          30.9004
 12 10 28  1  1  0.0000000  0 10G06G22G21G18G31G03G30G16G14G19
 107833265.944 8  84025921.91746  20519979.076    20519973.7204
        49.500          40.1004
 109266835.510 8  85142968.25846  20792782.428    20792774.1424
        51.100          41.0004
 127514508.946 6  99361931.98643  24265208.073    24265203.1864
        37.300          20.6004
 123225491.185 7  96019835.18744  23449033.890    23449028.6524
        43.500          27.1004
 133934626.636 5                  25486877.101
        33.800
 109092205.628 8  85006940.62246  20759541.083    20759536.1384
        50.300          39.4004
 119941068.695 7  93460552.22944  22824041.536    22824045.3824
        45.100          29.8004
 113675288.341 8  88578134.40746  21631689.707    21631688.3374
        50.300          37.8004
 115892653.970 7  90306037.57645  22053607.469    22053603.6964
        46.300          30.6004
 120962764.111 7  94256734.87145  23018428.634    23018425.2134
        44.500          31.6004
 12 10 28  1  1 30.0000000  0 10G06G22G21G18G31G03G30G16G14G19
 107799017.668 8  83999234.99846  20513461.412    20513456.0564
        48.400          40.1004
 109314649.807 8  85180226.17846  20801881.099    20801872.6964
        51.200          41.1004
 127550796.930 6  99390208.35943  24272113.180    24272108.7044
        36.400          19.9004
 123310777.709 7  96086292.22744  23465263.009    23465257.7714
        42.600          25.8004
 133935528.699 6                  25487049.765
        38.100
 109037386.448 8  84964224.47846  20749109.312    20749104.6024
        50.000          39.7004
 120028799.181 7  93528913.49444  22840736.057    22840740.2554
        43.700          28.7004
 113716600.132 8  88610325.30346  21639550.759    21639549.7414
        50.300          37.0004
 115843977.066 7  90268107.74445  22044344.416    22044340.7024
        47.000          30.8004
 120879870.088 7  94192142.43445  23002654.347    23002650.5154
        45.000          31.9004
 12 10 28  1  2  0.0000000  0 10G06G22G21G18G31G03G30G16G14G19
 107765140.074 8  83972836.92246  20507015.170    20507009.3454
        49.400          40.0004
 109362797.524 8  85217743.91046  20811042.998    20811035.0054
        51.200          40.9004
 127587085.964 5  99418485.51943  24279017.218    24279015.3214
        35.000          19.3004
 123396116.106 7  96152789.68944  23481502.148    23481497.5554
        42.300          24.7004
 133936072.155 6                  25487153.364
        36.800
 108982961.406 8  84921815.45146  20738751.797    20738747.6144
        49.600          39.8004
 120116637.443 7  93597358.72844  22857450.896    22857455.6224
        43.900          28.9004
 113758350.816 8  88642858.19246  21647496.267    21647494.8394
        49.900          36.9004
 115795640.261 7  90230442.89745  22035146.062    22035142.5234
        46.600          31.2004
 120797037.502 7  94127597.86945  22986891.132    22986887.4774
        43.100          31.9004
 12 10 28  1  2 30.0000000  0 10G06G22G21G18G31G03G30G16G14G19
 107731634.758 8  83946728.92246  20500639.237    20500633.8234
        49.100          40.2004
 109411275.998 8  85255519.36746  20820268.557    20820260.2124
        50.300          40.5004
 127623376.929 5  99446764.23543  24285922.532    24285920.5764
        35.300          18.3004
 123481504.216 7  96219325.90344  23497750.992    23497746.3994
        42.300          27.5004
 133936256.619 5                  25487191.299
        33.600
 108928932.737 8  84879715.27846  20728470.799    20728466.1474
        49.300          39.9004
 120204579.981 7  93665885.20644  22874185.635    22874190.8304
        42.800          28.7004
 113800537.251 8  88675730.63046  21655523.942    21655522.9244
        49.500          37.4004
 115747645.860 7  90193044.85645  22026013.109    22026008.6914
        46.300          31.2004
 120714268.101 7  94063102.53645  22971140.408    22971136.7534
        43.100          32.6004
 12 10 28  1  3  0.0000000  0 10G06G22G21G18G31G03G30G16G14G19
 107698503.171 8  83920912.14546  20494334.624    20494329.3864
        49.200          40.5004
 109460082.587 8  85293550.49746  20829556.144    20829547.4484
        51.600          40.7004
 127659669.835 5  99475044.45243  24292829.773    24292827.4074
        35.800          19.0004
 123566939.369 7  96285898.75144  23514008.486    23514004.0694
        43.100          25.4004
 133936082.702 5                  25487154.263
        32.800
 108875302.336 8  84837925.44446  20718265.235    20718261.1694
        50.000          39.5004
 120292623.408 7  93734490.32144  22890940.304    22890944.9714
        43.200          29.0004
 113843157.102 8  88708940.79846  21663634.611    21663633.2414
        50.100          37.5004
 115699996.106 7  90155915.37145  22016945.008    22016941.1184
        46.600          31.4004
 120631563.594 7  93998657.76745  22955402.158    22955397.9164
        43.900          32.3004
 12 10 28  1  3 30.0000000  0 10G06G22G21G18G31G03G30G16G14G19
 107665746.127 8  83895387.21146  20488101.222    20488095.3984
        49.600          40.8004
 109509214.378 8  85331835.04246  20838905.475    20838896.8974
        50.700          39.8004
 127695964.941 6  99503326.34442  24299736.603    24299733.1824
        36.200          17.8004
 123652419.244 7  96352506.46144  23530274.649    23530270.5834
        43.000          26.5004
 133935549.053 5                  25487054.194
        34.300
 108822071.485 8  84796446.95746  20708135.587    20708131.3454
        50.800          40.3004
 120380763.683 7  93803170.88944  22907712.595    22907717.4974
        42.200          28.9004
 113886206.746 8  88742485.86646  21671827.153    21671825.8424
        49.800          37.6004
 115652692.633 7  90119055.71145  22007942.885    22007939.2884
        46.000          31.1004
 120548925.263 7  93934264.53945  22939676.944    22939672.3514
        45.600          33.2004
 12 10 28  1  4  0.0000000  0 10G06G22G21G18G31G03G30G16G14G19
 107633366.359 8  83870156.26746  20481939.789    20481933.6134
        50.400          40.3004
 109558669.185 8  85370371.27946  20848316.316    20848307.6204
        51.300          40.3004
 127732264.241 6  99531611.53243  24306644.313    24306640.7754
        36.000          18.3004
 123737942.061 7  96419147.60844  23546549.364    23546544.6544
        44.200          25.9004
 133934658.150 5                  25486885.251
        35.700
 108769242.883 8  84755281.91046  20698082.417    20698078.0004
        50.200          40.7004
 120468998.298 7  93871924.97144  22924502.875    22924508.3634
        42.100          29.3004
 113929685.034 8  88776364.92646  21680100.415    21680099.2804
        50.100          36.4004
 115605738.691 7  90082468.40745  21999008.042    21999004.1524
        46.000          31.0004
 120466355.404 7  93869924.68645  22923963.933    22923959.6334
        44.100          33.4004
 12 10 28  1  4 30.0000000  0 10G06G22G21G18G31G03G30G16G14G19
 107601358.239 8  83845214.91246  20475848.572    20475842.3964
        49.900          39.7004
 109608437.811 8  85409152.04446  20857787.088    20857778.2164
        50.500          39.5004
 127768561.311 6  99559894.96143  24313552.441    24313547.0854
        36.400          18.6004
 123823498.549 7  96485815.01644  23562830.776    23562825.2454
        44.700          26.2004
                                  25486644.245
        31.200
 108716811.651 8  84714426.49446  20688105.494    20688100.6664
        50.800          40.8004
 120557316.795 7  93940744.40044  22941310.337    22941314.9454
        43.200          28.7004
 113973582.203 8  88810570.39546  21688453.952    21688452.3484
        49.800          37.0004
 115559129.580 7  90046149.79245  21990138.743    21990134.7944
        46.100          31.5004
 120383848.912 7  93805634.18245  22908262.768    22908258.8194
        44.700          33.4004
 12 10 28  1  5  0.0000000  0  9G06G22G21G18G03G30G16G14G19
 107569738.262 8  83820576.01746  20469831.007    20469825.6524
        48.900          39.5004
 109658532.835 8  85448187.15746  20867319.501    20867310.9224
        50.600          40.3004
 127804870.971 6  99588188.26142  24320460.758    24320457.4544
        36.000          17.8004
 123909101.736 7  96552518.79444  23579119.574    23579115.7424
        43.300          27.2004
 108664794.450 8  84673893.70246  20678206.979    20678201.7994
        51.400          40.7004
 120645730.577 7  94009638.08744  22958135.135    22958140.2124
        42.700          29.4004
 114017910.297 8  88845111.64446  21696889.555    21696888.1274
        49.800          36.8004
 115512882.260 7  90010113.08345  21981337.892    21981333.7684
        45.800          32.1004
 120301422.337 7  93741405.94145  22892578.377    22892573.1394
        46.000          33.3004
 12 10 28  1  5 30.0000000  0 10G06G22G21G18G31G03G30G16G14G19
 107538506.578 8  83796239.68446  20463888.000    20463882.4694
        48.000          39.8004
 109708950.561 8  85487473.72346  20876913.785    20876905.0304
        50.700          39.9004
 127841193.595 5  99616491.61243  24327372.917    24327369.0854
        35.700          18.3004
 123994748.364 7  96619256.43244  23595418.112    23595413.8124
        43.500          27.0004
 133929909.350 6                  25485966.827
        36.900
 108613192.685 8  84633684.63346  20668387.062    20668381.8244
        49.600          40.6004
 120734235.519 7  94078602.82444  22974976.924    22974981.4744
        43.100          29.2004
 114062666.059 8  88879986.14246  21705406.815    21705404.9174
        50.000          37.4004
 115466998.261 7  89974359.46745  21972606.775    21972601.6544
        45.900          31.8004
 120219076.559 7  93677240.64945  22876907.707    22876902.5284
        44.100          32.4004
 12 10 28  1  6  0.0000000  0 10G06G22G21G18G31G03G30G16G14G19
 107507654.428 8  83772199.09746  20458016.982    20458011.5694
        48.600          40.3004
 109759676.935 8  85527000.78946  20886566.892    20886558.0204
        50.800          40.0004
 127877518.430 6  99644796.68343  24334285.782    24334280.8364
        38.100          18.3004
 124080424.695 7  96686017.22344  23611722.193    23611717.1904
        42.900          27.0004
 133927581.359 6                  25485525.694
        38.900
 108561996.529 8  84593791.61046  20658644.721    20658639.6004
        50.800          40.2004
 120822816.706 7  94147626.94445  22991833.106    22991838.2424
        43.100          30.2004
 114107835.058 8  88915182.64546  21714001.798    21714000.4284
        48.100          36.9004
 115421468.510 7  89938881.90245  21963942.597    21963937.9454
        45.900          31.3004
 120136802.117 7  93613130.94645  22861250.745    22861246.2694
        45.200          32.5004
 12 10 28  1  6 30.0000000  0 10G06G22G21G18G31G03G30G16G14G19
 107477189.876 8  83748460.52246  20452219.647    20452214.4094
        49.400          40.7004
 109810716.865 8  85566772.18346  20896279.501    20896270.8054
        50.500          40.4004
 127913853.025 5  99673109.33943  24341199.548    24341196.0094
        35.800          18.6004
 124166135.684 7  96752805.01844  23628031.330    23628027.3224
        42.700          25.6004
 133924896.417 6                  25485012.494
        36.800
 108511215.116 8  84554221.76346  20648981.051    20648975.8714
        51.100          39.9004
 120911478.106 7  94216713.58544  23008705.225    23008710.5954
        42.900          29.8004
 114153421.972 7  88950704.78746  21722676.403    21722675.5614
        47.900          36.3004
 115376302.339 7  89903687.62645  21955347.527    21955343.1684
        45.100          32.4004
 120054607.774 7  93549083.65145  22845609.823    22845605.1714
        45.700          32.6004
 12 10 28  1  7  0.0000000  0 10G06G22G21G18G31G03G30G16G14G19
 107447113.665 8  83725024.56746  20446496.459    20446491.1634
        50.100          41.0004
 109862066.792 8  85606785.14746  20906050.979    20906042.6344
        50.700          40.1004
 127950197.671 5  99701429.86743  24348114.405    24348111.3954
        34.800          18.6004
 124251878.218 7  96819617.39144  23644347.665    23644343.1894
        43.400          25.5004
 133921853.598 5                  25484442.490
        33.100
 108460849.762 8  84514976.12246  20639396.794    20639391.6734
        50.500          39.8004
 121000215.472 7  94285859.44044  23025591.885    23025596.6694
        43.100          29.8004
 114199423.417 8  88986549.94945  21731430.425    21731429.1144
        49.000          35.7004
 115331501.000 7  89868777.63445  21946822.026    21946817.5504
        46.300          33.2004
 119972494.744 7  93485099.73045  22829983.579    22829979.4544
        45.100          32.7004
 12 10 28  1  7 30.0000000  0 10G06G22G21G18G31G03G30G16G14G19
 107417427.693 8  83701892.68446  20440847.657    20440842.1854
        50.300          40.9004
 109913724.379 8  85647037.83246  20915880.574    20915872.5234
        49.400          39.8004
 127986552.854 6  99729758.58842  24355033.902    24355029.6014
        36.000          17.8004
 124337650.311 6  96886452.79444  23660669.309    23660665.0674
        41.800          24.7004
 133918452.745 5                  25483787.004
        33.100
 108410902.084 8  84476055.94546  20629891.744    20629887.0344
        50.500          39.6004
 121089025.402 7  94355061.82544  23042491.282    23042497.1214
        42.800          28.9004
 114245836.461 8  89022715.82846  21740262.655    21740261.7544
        49.200          36.7004
 115287066.819 7  89834153.73445  21938366.737    21938361.7924
        46.700          32.4004
 119890464.645 7  93421180.42145  22814373.696    22814369.3964
        45.700          33.6004
 12 10 28  1  8  0.0000000  0 10G06G22G21G18G31G03G30G16G14G19
 107388133.715 8  83679066.25846  20435273.080    20435267.3734
        50.100          41.0004
 109965687.833 8  85687528.85946  20925769.063    20925760.7774
        50.900          40.0004
 128022920.032 6  99758096.65743  24361955.670    24361950.3154
        36.900          19.6004
 124423450.680 6  96953310.23643  23676996.284    23676992.1604
        41.900          23.0004
 133914603.373 4                  25483064.782
        28.600
 108361374.823 8  84437463.36746  20620467.253    20620462.2494
        51.900          40.4004
 121177905.347 7  94424318.75945  23059404.866    23059410.2364
        42.500          30.0004
 114292659.281 8  89059201.01446  21749172.508    21749172.0764
        48.100          36.2004
 115243003.049 7  89799818.46645  21929981.033    21929976.4394
        45.700          32.3004
 119808520.217 7  93357327.86545  22798780.005    22798775.8814
        45.800          32.8004
 12 10 28  1  8 30.0000000  0  9G06G22G21G18G03G30G16G14G19
 107359229.320 8  83656543.40446  20429772.744    20429766.9204
        48.600          40.7004
 110017949.998 8  85728252.65546  20935714.083    20935705.9734
        50.600          39.9004
 128059295.418 6  99786441.08843  24368877.034    24368873.2624
        37.800          20.1004
 124509272.738 7  97020184.57544  23693328.343    23693323.3394
        43.200          24.1004
 108312265.569 8  84399196.50346  20611122.127    20611117.0654
        51.900          40.5004
 121266847.753 7  94493624.37744  23076330.193    23076336.3844
        42.100          29.2004
 114339884.789 8  89095999.97246  21758159.978    21758158.6674
        49.500          36.6004
 115199307.409 7  89765770.05245  21921666.110    21921661.4584
        46.200          33.0004
 119726659.325 7  93293540.41745  22783201.604    22783197.6554
        45.000          33.0004
 12 10 28  1  9  0.0000000  0 10G06G22G21G18G31G03G30G16G14G19
 107330728.521 8  83634335.03846  20424349.047    20424343.5164
        49.000          40.7004
 110070520.985 8  85769217.08846  20945718.231    20945710.0044
        51.100          40.3004
 128095692.764 6  99814802.67543  24375803.841    24375798.8964
        38.500          20.4004
 124595126.780 7  97087083.83244  23709665.634    23709660.9824
        43.500          25.6004
 133906131.222 6                  25481436.769
        38.100
 108263588.744 8  84361266.59646  20601858.885    20601854.2914
        51.700          40.7004
 121355861.721 7  94562985.74944  23093269.362    23093274.7914
        43.200          29.0004
 114387522.748 8  89133120.31746  21767225.123    21767223.8124
        48.100          36.1004
 115155994.529 7  89732019.87645  21913423.491    21913419.0734
        45.100          31.6004
 119644895.654 7  93229828.72845  22767643.520    22767638.6344
        46.600          33.6004
 12 10 28  1  9 30.0000000  0 10G06G22G21G18G31G03G30G16G14G19
 107302622.938 8  83612434.62846  20419000.713    20418995.1234
        51.300          41.0004
 110123389.161 8  85810413.09446  20955778.653    20955770.7194
        51.000          40.4004
 128132102.706 6  99843174.09343  24382731.582    24382725.8754
        38.300          19.6004
 124681001.367 7  97153999.11943  23726007.227    23726001.6374
        43.400          22.8004
 133901303.524 6 104338720.56543  25480514.892    25480522.6074
        36.900          20.1004
 108215337.038 8  84323667.94946  20592677.144    20592671.9064
        51.600          40.1004
 121444934.522 7  94632392.95244  23110219.047    23110224.5934
        42.000          28.5004
 114435561.419 8  89170552.92346  21776366.776    21776365.6994
        49.900          36.2004
 115113057.344 7  89698562.46645  21905252.767    21905248.1154
        46.600          32.8004
 119563222.024 7  93166187.18145  22752101.190    22752096.1274
        46.600          33.4004
 12 10 28  1 10  0.0000000  0 10G06G22G21G18G31G03G30G16G14G19
 107274915.406 8  83590844.39146  20413727.945    20413722.6484
        51.000          40.3004
 110176552.316 8  85851838.95446  20965895.534    20965886.7794
        50.300          40.3004
 128168527.284 6  99871556.89143  24389662.793    24389658.8454
        39.200          18.6004
 124766895.110 7  97220929.32843  23742352.312    23742346.1374
        43.600          23.0004
 133896117.667 5 104334679.57342  25479526.365    25479535.2524
        35.600          17.8004
 108167512.458 8  84286402.13346  20583575.791    20583571.1984
        51.500          40.5004
 121534063.414 7  94701843.88344  23127180.532    23127184.9654
        42.500          27.7004
 114483998.638 8  89208296.08146  21785583.902    21785583.2944
        48.000          36.7004
 115070498.269 7  89665399.67745  21897154.250    21897149.8914
        46.800          33.1004
 119481640.806 7  93102617.65345  22736576.967    22736571.2604
        47.200          34.0004
 12 10 28  1 10 30.0000000  0  9G06G22G21G18G03G30G16G14G19
 107247602.150 8  83569561.38846  20408530.400    20408525.2794
        50.300          40.5004
 110230003.554 8  85893489.30946  20976066.844    20976058.4414
        51.000          40.0004
 128204962.287 6  99899947.78943  24396597.185    24396591.8294
        39.800          19.0004
 124852801.282 7  97287869.22544  23758699.908    23758694.2594
        42.900          25.4004
 108120112.766 8  84249467.40546  20574556.176    20574551.3484
        51.300          40.7004
 121623240.748 6  94771332.54444  23144149.873    23144155.1274
        41.800          28.3004
 114532826.581 8  89246343.69846  21794875.967    21794874.8904
        48.800          36.0004
 115028315.330 7  89632529.99545  21889126.906    21889122.8994
        45.400          33.2004
 119400149.291 7  93039118.00645  22721069.009    22721064.0644
        47.400          34.6004
 12 10 28  1 11  0.0000000  0 10G06G22G21G18G31G03G30G16G14G19
 107220698.519 8  83548597.55946  20403410.480    20403405.0664
        50.700          40.7004
 110283753.310 8  85935372.26846  20986295.035    20986286.7494
        49.600          40.2004
 128241421.605 6  99928357.67543  24403533.893    24403529.7694
        37.600          19.9004
 124938731.061 7  97354827.49544  23775051.916    23775046.2094
        42.800          24.2004
                                  25477403.471
        35.700
 108073152.556 8  84212875.11746  20565619.985    20565614.8654
        52.200          40.3004
 121712476.243 7  94840866.54344  23161131.613    23161136.2224
        43.800          28.8004
 114582055.760 7  89284703.95946  21804243.529    21804242.6284
        47.900          36.7004
 114986523.783 7  89599965.28545  21881173.860    21881169.5604
        45.400          32.7004
 119318762.700 7  92975700.13645  22705581.426    22705576.4224
        46.500          33.4004
 12 10 28  1 11 30.0000000  0 10G06G22G21G18G31G03G30G16G14G19
 107194198.624 8  83527948.32746  20398367.984    20398362.3364
        50.500          40.4004
 110337792.340 8  85977480.63446  20996578.373    20996569.0914
        50.100          40.3004
 128277899.422 6  99956781.87743  24410476.141    24410470.9024
        38.400          19.3004
 125024675.739 6  97421797.38343  23791406.122    23791401.0604
        41.900          23.9004
                                  25476189.325
        36.600
 108026627.424 8  84176621.85646  20556766.597    20556761.5934
        51.900          40.9004
 121801760.063 7  94910438.20644  23178121.615    23178126.3414
        43.800          27.9004
 114631676.764 8  89323369.55145  21813686.787    21813685.6524
        49.300          35.8004
 114945119.084 7  89567702.01345  21873294.160    21873289.7424
        45.600          32.8004
 119237476.371 7  92912360.38345  22690113.226    22690108.3984
        46.900          33.6004
 12 10 28  1 12  0.0000000  0  9G06G22G21G18G03G30G16G14G19
 107168105.096 8  83507615.75646  20393402.355    20393396.8244
        49.500          40.0004
 110392118.831 8  86019812.99646  21006915.978    21006907.3404
        50.200          39.9004
 128314396.790 6  99985221.40143  24417422.272    24417417.6204
        38.100          21.3004
 125110633.352 6  97488777.35943  23807763.428    23807758.2494
        41.600          22.8004
 107980539.582 8  84140709.33846  20547996.430    20547991.3684
        52.400          40.9004
 121891089.381 7  94980045.30844  23195120.820    23195125.5464
        43.900          28.8004
 114681687.620 8  89362338.91346  21823203.903    21823202.2994
        49.600          36.5004
 114904103.815 7  89535742.19845  21865489.463    21865485.0464
        45.500          32.7004
 119156292.547 7  92849100.51845  22674663.733    22674659.5504
        46.000          33.8004
 12 10 28  1 12 30.0000000  0  9G06G22G21G18G03G30G16G14G19
 107142419.415 8  83487600.98146  20388514.610    20388509.1964
        49.500          40.6004
 110446730.732 8  86062367.76346  21017308.450    21017299.9894
        49.600          40.4004
 128350915.321 6 100013677.38143  24424369.801    24424366.4974
        38.300          20.4004
 125196602.457 6  97555766.29344  23824124.016    23824118.1334
        41.300          24.3004
 107934891.317 8  84105139.34946  20539309.522    20539304.5184
        51.800          40.9004
 121980461.323 7  95049685.62444  23212128.195    23212133.0374
        44.300          28.8004
 114732085.760 8  89401610.05945  21832794.417    21832793.2814
        49.000          35.8004
 114863480.627 7  89504087.89345  21857759.525    21857754.1704
        45.800          32.5004
 119075213.617 7  92785922.38245  22659235.142    22659230.0794
        46.200          34.0004
 12 10 28  1 13  0.0000000  0  9G06G22G21G18G03G30G16G14G19
 107117144.085 8  83467905.96546  20383704.988    20383699.3994
        50.300          41.2004
 110501626.413 8  86105143.64246  21027755.062    21027746.3074
        49.400          40.0004
 128387456.460 6 100042150.97743  24431324.414    24431319.8804
        37.300          19.9004
 125282581.804 6  97622763.20044  23840484.401    23840479.4564
        41.600          24.7004
 107889685.082 8  84069913.79746  20530707.262    20530702.7864
        51.800          41.0004
 122069873.722 7  95119357.47444  23229142.227    23229147.5974
        43.800          27.8004
 114782869.188 7  89441181.41846  21842457.530    21842457.0984
        47.600          36.3004
 114823252.766 7  89472741.62245  21850103.867    21850099.1574
        45.100          32.3004
 118994242.527 7  92722828.27345  22643826.361    22643821.4744
        46.300          33.9004
 12 10 28  1 13 30.0000000  0  9G06G22G21G18G03G30G16G14G19
 107092280.272 8  83448531.60746  20378973.604    20378967.7214
        50.400          41.2004
 110556802.972 8  86148138.39346  21038254.548    21038245.7354
        49.800          40.0004
 128424020.798 6 100070642.60643  24438281.403    24438278.5104
        37.200          19.6004
 125368569.202 6  97689766.42044  23856847.894    23856841.4254
        41.400          24.7004
 107844922.822 8  84035034.20246  20522189.312    20522184.4254
        52.400          40.7004
 122159323.023 7  95189058.07944  23246163.919    23246169.5244
        43.600          28.7004
 114834035.200 8  89481050.89545  21852194.330    21852193.4884
        48.400          35.9004
 114783421.798 7  89441704.61745  21842524.299    21842519.4714
        46.000          32.4004
 118913380.799 7  92659819.37545  22628438.876    22628433.5804
        46.400          34.2004
 12 10 28  1 14  0.0000000  0 10G06G22G21G18G31G03G30G16G14G19
 107067790.246 8  83429448.51446  20374313.155    20374307.2724
        50.400          40.4004
 110612218.829 8  86191319.61646  21048799.740    21048791.1614
        50.200          40.0004
 128460569.955 6 100099122.46143  24445236.307    24445232.9444
        36.900          19.6004
 125454523.951 7  97756744.14543  23873203.900    23873198.7794
        42.500          22.6004
 133842005.045 5                  25469256.541
        31.200
 107800567.044 8  84000471.33346  20513748.128    20513743.3594
        52.000          40.3004
 122248766.868 7  95258754.43844  23263184.572    23263190.3534
        43.400          28.6004
 114885541.628 8  89521185.63746  21861996.229    21861994.8004
        48.700          36.0004
 114743950.719 7  89410948.04645  21835013.483    21835008.4214
        46.500          33.1004
 118832591.478 7  92596866.90045  22613065.282    22613060.2794
        46.300          34.1004
 12 10 28  1 14 30.0000000  0  9G06G22G21G18G03G30G16G14G19
 107043792.451 8  83410748.97446  20369746.279    20369740.9834
        50.200          40.6004
 110667988.422 8  86234776.46446  21059412.344    21059403.7064
        49.900          39.8004
 128497221.761 6 100127682.30943  24452211.679    24452207.3204
        38.300          18.6004
 125540560.730 6  97823785.80644  23889576.335    23889571.0394
        41.400          24.3004
 107756736.954 8  83966318.09346  20505407.600    20505402.3624
        52.100          40.5004
 122338319.101 7  95328535.24644  23280225.939    23280231.9554
        44.100          28.7004
 114937502.455 7  89561674.46145  21871883.798    21871883.3664
        47.500          35.6004
 114704958.597 7  89380564.69645  21827593.992    21827588.7534
        45.700          33.8004
 118751993.640 7  92534063.62745  22597727.331    22597722.9724
        45.700          33.5004
 12 10 28  1 15  0.0000000  0 10G06G22G21G18G31G03G30G16G14G19
 107020177.523 8  83392347.78646  20365252.307    20365246.8344
        49.400          40.5004
 110723998.673 8  86278420.84746  21070070.833    21070062.1964
        49.800          39.9004
 128533865.949 6 100156236.22343  24459183.810    24459180.7404
        38.700          18.6004
 125626566.680 7  97890803.47343  23905942.464    23905937.5194
        42.600          23.9004
 133824636.303 6 104279046.14243  25465942.420    25465950.5454
        38.900          22.2004
 107713323.226 8  83932489.28946  20497146.431    20497140.7244
        51.200          40.9004
 122427865.849 7  95398311.76144  23297266.247    23297272.2624
        42.100          28.8004
 114989804.699 8  89602429.31646  21881836.349    21881835.5654
        48.000          36.2004
 114666336.833 7  89350469.92445  21820243.256    21820238.8974
        44.900          33.4004
 118671478.301 7  92471324.65145  22582404.808    22582401.0944
        46.000          34.0004
 12 10 28  1 15 30.0000000  0 10G06G22G21G18G31G03G30G16G14G19
 106996975.027 8  83374267.97346  20360836.681    20360831.6784
        49.500          40.1004
 110780274.858 8  86322272.45246  21080779.675    21080770.6864
        49.800          39.9004
 128570531.712 6 100184806.96143  24466162.046    24466157.9224
        39.000          19.0004
 125712567.983 7  97957817.50644  23922308.235    23922303.2904
        42.300          25.6004
 133815552.915 6 104271968.20943  25464214.976    25464222.1054
        38.900          20.9004
 107670355.490 8  83899008.01746  20488969.503    20488964.8514
        52.000          40.9004
 122517431.910 7  95468103.35444  23314310.556    23314316.1024
        44.100          27.6004
 115042472.813 8  89643469.26746  21891859.542    21891858.5834
        48.400          36.0004
 114628115.749 7  89320687.36345  21812970.528    21812965.8184
        46.300          33.8004
 118591075.536 7  92408673.38245  22567105.524    22567100.4614
        45.700          33.8004
 12 10 28  1 16  0.0000000  0 10G06G22G21G18G31G03G30G16G14G19
 106974192.262 8  83356515.22546  20356501.622    20356496.2084
        50.000          39.8004
 110836820.134 8  86366333.74046  21091540.392    21091531.5204
        49.800          40.0004
 128607225.780 6 100213399.67943  24473144.419    24473140.2954
        37.100          19.0004
 125798568.485 7  98024830.90544  23938673.679    23938668.3244
        42.900          24.9004
 133806117.646 6 104264616.03143  25462420.428    25462425.6234
        38.800          18.3004
 107627841.516 8  83865880.32146  20480879.890    20480874.1834
        52.500          41.0004
 122607019.816 7  95537911.95144  23331358.277    23331363.9994
        43.700          28.1004
 115095510.182 8  89684796.93345  21901951.987    21901951.3794
        48.100          35.4004
 114590302.829 7  89291222.84745  21805774.777    21805769.5394
        45.700          33.3004
 118510793.065 7  92346115.83545  22551827.580    22551823.2214
        46.100          33.6004
 12 10 28  1 16 30.0000000  0  9G06G22G21G18G03G30G16G14G19
 106951825.713 8  83339086.79246  20352245.518    20352239.9874
        50.200          39.8004
 110893627.860 8  86410599.53946  21102349.947    21102341.5444
        49.300          40.0004
 128643944.518 6 100242011.71343  24480131.414    24480128.0514
        38.200          18.3004
 125884561.493 6  98091838.48843  23955037.123    23955032.0024
        40.600          23.5004
 107585778.421 8  83833103.95246  20472875.284    20472869.9874
        52.200          40.3004
 122696621.806 7  95607731.53644  23348409.460    23348414.9484
        42.700          27.3004
 115148909.216 7  89726406.42646  21912113.961    21912113.1774
        47.900          36.1004
 114552895.851 7  89262074.67145  21798656.661    21798651.5404
        47.000          33.5004
 118430628.888 7  92283650.48345  22536572.684    22536567.3884
        45.300          33.6004
 12 10 28  1 17  0.0000000  0  9G06G22G21G18G03G30G16G14G19
 106929886.870 8  83321991.64046  20348070.784    20348065.0184
        50.000          40.2004
 110950705.409 8  86455075.58846  21113211.528    21113202.6564
        49.400          39.8004
 128680698.612 5 100270651.25143  24487125.392    24487122.4394
        35.900          19.0004
 125970555.579 7  98158846.89244  23971401.692    23971395.4574
        42.600          25.8004
 107544177.677 8  83800687.86146  20464958.588    20464953.1744
        51.100          40.8004
 122786244.920 7  95677567.55844  23365464.589    23365469.7254
        43.900          26.4004
 115202677.160 8  89768303.36845  21922345.876    21922344.3894
        48.400          35.7004
 114515906.681 7  89233252.04545  21791617.445    21791612.6764
        46.300          34.4004
 118350594.032 7  92221285.88545  22521341.981    22521336.9194
        45.400          33.8004
 12 10 28  1 17 30.0000000  0  9G06G22G21G18G03G30G16G14G19
 106908372.177 8  83305226.99846  20343976.257    20343971.0784
        49.000          39.7004
 111008045.093 8  86499755.89646  21124122.562    21124113.8074
        48.900          39.8004
 128717483.394 6 100299314.71043  24494125.107    24494121.2174
        37.700          18.3004
 126056543.011 6  98225850.10344  23987763.854    23987758.4404
        41.300          24.9004
 107503036.270 8  83768629.68946  20457129.779    20457124.5994
        51.300          40.7004
 122875880.708 7  95747413.46244  23382521.379    23382527.1604
        43.600          27.0004
 115256806.049 7  89810481.58145  21932646.180    21932645.3964
        47.700          35.4004
 114479332.274 7  89204752.59645  21784656.998    21784652.4634
        45.700          33.6004
 118270686.200 7  92159020.27045  22506135.650    22506130.8814
        44.100          34.6004
 12 10 28  1 18  0.0000000  0  9G06G22G21G18G03G30G16G14G19
 106887283.553 8  83288794.35746  20339963.598    20339957.9504
        49.900          40.4004
 111065645.303 8  86544639.20246  21135083.571    21135075.0514
        48.800          39.8004
 128754300.556 6 100328003.42843  24501131.717    24501127.2414
        37.900          18.3004
 126142522.615 6  98292847.22544  24004125.936    24004119.9364
        41.400          24.1004
 107462356.741 8  83736931.44446  20449388.371    20449383.0164
        51.700          40.7004
 122965526.762 6  95817267.39044  23399579.785    23399586.1524
        41.400          27.7004
 115311293.474 7  89852939.17545  21943014.616    21943013.8324
        47.000          35.5004
 114443175.757 7  89176578.79745  21777776.535    21777772.3524
        45.800          34.0004
 118190908.309 7  92096855.90645  22490955.204    22490949.9084
        45.900          35.2004
 12 10 28  1 18 30.0000000  0  9G06G22G21G18G03G30G16G14G19
 106866622.376 8  83272694.77946  20336031.625    20336025.8594
        49.700          40.3004
 111123503.278 8  86589723.37646  21146093.517    21146084.8804
        49.100          39.5004
 128791151.259 6 100356718.26043  24508144.158    24508139.2134
        37.900          18.6004
 126228492.803 6  98359837.03243  24020485.147    24020479.5574
        41.600          23.5004
 107422140.855 8  83705594.46546  20441735.529    20441730.2914
        52.000          41.2004
 123055180.138 7  95887127.02344  23416641.201    23416646.8654
        43.200          27.1004
 115366136.842 8  89895674.11245  21953451.405    21953450.6804
        48.500          34.9004
 114407438.757 7  89148731.88645  21770976.549    21770971.5454
        47.100          33.5004
 118111261.921 7  92034794.00745  22475798.629    22475793.5084
        46.500          35.4004
 12 10 28  1 19  0.0000000  0  9G06G22G21G18G03G30G16G14G19
 106846390.385 8  83256929.63346  20332181.648    20332176.0004
        49.200          40.1004
 111181616.949 8  86635006.79146  21157152.367    21157143.4954
        49.900          39.6004
 128828036.597 6 100385460.06843  24515163.876    24515157.7014
        38.600          19.0004
 126314452.157 6  98426818.39743  24036841.859    24036836.5034
        40.700          22.3004
 107382390.486 8  83674620.23046  20434171.352    20434165.4694
        51.900          40.7004
 123144838.142 7  95956990.25344  23433702.446    23433708.4614
        42.200          26.9004
 115421333.656 8  89938684.47145  21963954.678    21963954.3044
        48.800          35.7004
 114372123.447 7  89121213.56245  21764256.252    21764251.1314
        47.800          34.5004
 118031749.570 7  91972836.53845  22460668.885    22460662.5334
        45.700          34.7004
 12 10 28  1 19 30.0000000  0  9G06G22G21G18G03G30G16G14G19
 106826589.035 8  83241500.06946  20328413.745    20328407.9214
        49.900          40.2004
 111239984.259 8  86680487.86246  21168259.342    21168250.5284
        48.900          39.3004
 128864957.293 6 100414229.47442  24522188.538    24522183.6524
        37.100          17.8004
 126400398.905 6  98493789.90343  24053198.000    24053192.0004
        40.200          22.5004
 107343107.356 8  83644010.07846  20426695.513    20426690.8024
        51.400          41.0004
 123234497.784 6  96026854.75644  23450763.962    23450770.5054
        41.300          26.0004
 115476881.058 8  89981968.00946  21974525.451    21974525.3704
        48.400          36.1004
 114337232.164 7  89094025.66145  21757616.716    21757611.4194
        47.100          33.8004
 117952373.139 7  91910984.99045  22445563.160    22445557.0434
        45.600          33.8004
 12 10 28  1 20  0.0000000  0  9G06G22G21G18G03G30G16G14G19
 106807219.962 8  83226407.31546  20324727.719    20324721.8954
        50.500          40.4004
 111298602.581 8  86726164.50646  21179413.854    21179405.2764
        48.000          39.7004
 128901914.715 6 100443027.52742  24529221.866    24529217.8004
        37.700          17.8004
 126486331.234 6  98560750.18143  24069549.548    24069544.6614
        39.400          22.0004
 107304293.784 8  83613765.81746  20419310.031    20419304.9104
        51.600          41.2004
 123324156.041 6  96096718.20844  23467825.219    23467831.8204
        41.600          27.3004
 115532776.488 8  90025522.72046  21985161.682    21985161.6024
        48.900          36.0004
 114302767.140 7  89067169.90245  21751057.972    21751053.1444
        47.300          33.9004
 117873135.622 7  91849241.68745  22430484.122    22430478.7674
        45.900          34.7004
 12 10 28  1 20 30.0000000  0  9G06G22G21G18G03G30G16G14G19
 106788284.479 8  83211652.43446  20321124.265    20321118.6174
        49.900          40.4004
 111357469.551 8  86772034.92546  21190615.764    21190607.5954
        48.900          39.5004
 128938909.689 6 100471854.74242  24536261.795    24536257.7294
        37.600          17.8004
 126572247.389 6  98627697.86843  24085899.540    24085893.7744
        39.500          22.2004
 107265951.669 8  83583888.91846  20412013.680    20412008.1484
        51.500          40.7004
 123413810.086 6  96166578.36444  23484886.303    23484892.2014
        41.400          25.8004
 115589016.972 8  90069346.31746  21995864.624    21995864.3094
        48.100          36.0004
 114268730.584 7  89040648.01945  21744580.563    21744575.9114
        46.400          34.2004
 117794039.289 7  91787608.39445  22415432.610    22415427.3144
        45.200          35.5004
 12 10 28  1 21  0.0000000  0  9G06G22G21G18G03G30G16G14G19
 106769784.278 8  83197236.74246  20317604.298    20317598.4154
        50.400          40.7004
 111416583.202 8  86818097.54446  21201864.909    21201856.3304
        48.300          39.2004
 128975943.371 6 100500712.17743  24543308.600    24543305.5314
        36.300          18.6004
 126658145.720 6  98694631.65343  24102244.836    24102240.3604
        38.700          22.9004
 107228082.699 8  83554380.70746  20404807.411    20404802.4084
        51.100          40.8004
 123503457.231 7  96236433.15144  23501946.773    23501951.8514
        42.600          26.5004
 115645599.937 8  90113436.76945  22006632.112    22006631.3874
        48.600          34.9004
 114235124.446 7  89014461.53645  21738186.305    21738180.4224
        47.800          34.6004
 117715085.949 7  91726086.52045  22400408.072    22400402.9514
        45.200          34.5004
 12 10 28  1 21 30.0000000  0  9G06G22G21G18G03G30G16G14G19
 106751720.780 8  83183161.33246  20314166.661    20314161.0714
        50.100          41.2004
 111475941.271 8  86864350.63046  21213160.335    21213151.5224
        49.000          39.7004
 129013017.054 6 100529600.77543  24550365.327    24550360.4994
        38.300          19.3004
 126744025.151 6  98761550.69943  24118587.135    24118582.5424
        40.600          22.3004
 107190688.800 8  83525242.67846  20397691.202    20397686.0824
        51.300          41.0004
 123593094.513 7  96306280.24544  23519003.343    23519009.4174
        42.100          26.7004
 115702522.730 7  90157792.01745  22017463.754    22017463.9084
        47.800          35.8004
 114201950.887 7  88988612.12445  21731873.209    21731867.4434
        47.400          34.7004
 117636277.938 7  91664677.88645  22385411.016    22385405.7204
        46.100          35.0004
 12 10 28  1 22  0.0000000  0  9G06G22G21G18G03G30G16G14G19
 106734094.628 8  83169426.70546  20310812.589    20310806.5894
        49.800          40.7004
 111535540.522 8  86910791.64846  21224502.083    21224493.4464
        50.200          40.0004
 129050130.856 6 100558520.64042  24557428.188    24557422.5404
        37.800          17.8004
 126829882.646 6  98828452.66843  24134926.011    24134920.3634
        40.500          22.6004
 107153770.590 8  83496475.31746  20390665.887    20390660.6494
        50.900          41.5004
 123682718.307 6  96376116.83344  23536058.059    23536064.3674
        41.600          25.6004
 115759781.581 8  90202409.14545  22028360.102    22028359.7874
        48.300          35.9004
 114169211.283 7  88963100.86345  21725642.732    21725637.3774
        46.100          34.7004
 117557617.195 7  91603384.00045  22370442.567    22370436.6254
        45.900          34.6004
 12 10 28  1 22 30.0000000  0  9G06G22G21G18G03G30G16G14G19
 106716908.241 8  83156034.75546  20307541.540    20307535.7744
        49.500          40.6004
 111595379.816 8  86957419.71346  21235888.587    21235880.4774
        48.400          39.3004
 129087286.858 6 100587473.39442  24564494.852    24564493.9514
        36.200          17.8004
 126915718.115 6  98895337.46043  24151258.707    24151254.1144
        39.200          22.0004
 107117331.047 8  83468080.94246  20383731.698    20383726.0494
        51.600          40.4004
 123772326.713 6  96445941.43944  23553110.090    23553116.1054
        40.700          26.3004
 115817374.939 7  90247286.91145  22039319.468    22039319.3874
        46.800          35.1004
 114136908.671 7  88937930.11445  21719495.531    21719490.7624
        46.000          33.9004
 117479106.670 7  91542207.16245  22355502.174    22355496.7604
        45.500          35.2004
 12 10 28  1 23  0.0000000  0  9G06G22G21G18G03G30G16G14G19
 106700162.661 8  83142986.28546  20304355.431    20304349.6074
        50.600          41.4004
 111655456.223 7  87004232.54046  21247320.888    21247312.4274
        47.600          39.3004
 129124485.743 6 100616459.58042  24571575.241    24571572.6994
        37.900          17.8004
 127001528.618 6  98962202.83043  24167589.338    24167583.2214
        40.700          23.6004
 107081371.574 8  83440060.63746  20376888.957    20376883.1914
        51.700          40.8004
 123861916.444 6  96515751.49744  23570158.670    23570164.4504
        41.200          25.6004
 115875299.628 7  90292422.87945  22050342.183    22050342.3964
        46.300          35.3004
 114105044.686 7  88913101.15445  21713432.325    21713426.7944
        45.900          34.4004
 117400748.575 7  91481149.09446  22340591.455    22340585.2204
        46.800          36.0004
 12 10 28  1 23 30.0000000  0  9G06G22G21G18G03G30G16G14G19
 106683858.795 8  83130282.01746  20301252.734    20301247.0864
        51.500          40.9004
 111715767.390 7  87051228.29346  21258796.740    21258788.8654
        47.600          39.1004
 129161728.107 6 100645479.65142  24578662.049    24578658.2184
        36.400          17.8004
 127087312.598 6  99029047.50843  24183912.724    24183907.8964
        40.300          23.8004
 107045893.739 8  83412415.64046  20370137.587    20370132.0564
        50.800          40.8004
 123951484.221 6  96585544.44344  23587203.212    23587209.2274
        41.000          25.5004
 115933552.230 7  90337814.34845  22061428.096    22061427.9574
        47.600          34.9004
 114073621.079 7  88888615.35045  21707452.882    21707447.5854
        46.000          34.1004
 117322544.663 7  91420211.18645  22325709.593    22325703.4764
        47.700          34.8004
 12 10 28  1 24  0.0000000  0  9G06G22G21G18G03G30G16G14G19
 106667998.749 8  83117923.57246  20298234.679    20298228.9144
        50.300          40.9004
 111776311.382 7  87098405.47046  21270318.254    21270309.9684
        47.300          39.2004
 129199015.667 5 100674534.91842  24585757.860    24585753.5014
        34.800          16.9004
 127173069.367 6  99095870.97544  24200232.090    24200226.2664
        40.900          24.8004
 107010899.807 8  83385147.70746  20363478.384    20363472.5604
        50.100          41.0004
 124041028.034 6  96655318.70744  23604242.999    23604249.6004
        41.600          25.3004
 115992130.883 7  90383459.88145  22072575.015    22072575.2284
        46.400          35.9004
 114042640.421 7  88864474.70045  21701557.264    21701551.8504
        45.900          34.8004
 117244497.985 7  91359395.79945  22310857.959    22310851.4904
        47.700          35.6004
 12 10 28  1 24 30.0000000  0  9G06G22G21G18G03G30G16G14G19
 106652583.739 8  83105911.90646  20295300.993    20295295.5204
        50.700          40.5004
 111837085.692 7  87145762.10646  21281883.278    21281874.7004
        47.000          39.0004
 129236349.249 6 100703626.07943  24592862.293    24592858.1104
        37.500          19.0004
 127258796.830 6  99162671.62443  24216545.825    24216540.3534
        41.400          23.4004
 106976391.505 8  83358258.18646  20356911.523    20356906.0504
        50.300          41.3004
 124130544.809 6  96725071.90044  23621277.481    23621283.6724
        40.700          24.7004
 116051032.545 7  90429357.11645  22083784.315    22083783.8254
        47.200          35.6004
 114012104.436 7  88840680.55245  21695745.762    21695740.9344
        46.100          34.2004
 117166610.492 7  91298704.46645  22296035.707    22296029.3564
        47.600          35.9004
 12 10 28  1 25  0.0000000  0  9G06G22G21G18G03G30G16G14G19
 106637614.930 8  83094247.93246  20292452.744    20292446.6854
        51.000          41.0004
 111898088.211 7  87193296.56046  21293492.184    21293483.3714
        47.900          39.4004
 129273729.712 6 100732753.75042  24599975.472    24599971.3484
        37.200          17.4004
 127344493.193 6  99229448.03243  24232853.494    24232847.5524
        41.100          23.0004
 106942369.821 8  83331747.85446  20350437.836    20350432.0704
        50.800          40.7004
 124220031.455 6  96794801.64643  23638305.760    23638312.7134
        40.500          23.6004
 116110254.045 7  90475503.58646  22095053.742    22095054.0144
        46.900          36.0004
 113982015.152 7  88817234.49145  21690019.956    21690015.0694
        45.900          34.9004
 117088884.466 8  91238138.93145  22281245.073    22281238.1944
        48.500          35.9004
 12 10 28  1 25 30.0000000  0  9G06G22G21G18G03G30G16G14G19
 106623094.323 8  83082933.20646  20289689.882    20289683.5894
        51.200          40.8004
 111959317.142 7  87241007.44546  21305143.362    21305134.4324
        47.900          38.9004
 129311158.904 6 100761919.39443  24607098.693    24607094.8624
        39.000          19.3004
 127430157.575 6  99296199.52043  24249154.445    24249148.2694
        40.000          21.7004
 106908837.558 8  83305618.87846  20344056.873    20344051.6354
        50.600          41.1004
 124309486.068 6  96864506.42143  23655329.766    23655334.7844
        41.300          23.9004
 116169793.485 7  90521897.79545  22106383.331    22106383.8954
        46.700          35.5004
 113952375.276 7  88794138.61445  21684379.564    21684374.1504
        46.100          34.4004
 117011322.963 8  91177701.60145  22266485.106    22266478.8134
        48.600          35.1004
 12 10 28  1 26  0.0000000  0  9G06G22G21G18G03G30G16G14G19
 106609022.838 8  83071968.45146  20287011.766    20287006.0014
        51.500          40.7004
 112020769.287 8  87288892.27146  21316837.654    21316828.2554
        49.300          38.5004
 129348637.282 6 100791123.37143  24614230.294    24614226.1704
        38.100          19.0004
 127515788.237 6  99362924.74643  24265448.713    24265442.9474
        39.500          21.5004
 106875796.033 8  83279872.29646  20337768.647    20337763.5274
        50.800          41.6004
 124398904.985 6  96934183.37943  23672345.622    23672350.9344
        41.100          22.8004
 116229647.379 7  90568537.02845  22117773.751    22117773.4374
        46.600          35.1004
 113923185.433 7  88771393.41645  21678824.256    21678819.1354
        45.500          34.4004
 116933927.648 8  91117393.77446  22251757.222    22251750.4604
        48.000          36.0004
 12 10 28  1 26 30.0000000  0  9G06G22G21G18G03G30G16G14G19
 106595401.954 8  83061354.80346  20284420.013    20284413.8964
        51.200          40.8004
 112082443.013 8  87336949.75146  21328573.496    21328565.0354
        48.900          39.2004
 129386166.308 6 100820366.73943  24621371.432    24621367.3074
        37.200          18.3004
 127601383.767 6  99429622.55243  24281737.479    24281731.7134
        40.900          22.5004
 106843247.166 8  83254509.60146  20331574.917    20331569.6794
        50.000          41.5004
 124488286.062 6  97003830.85043  23689353.952    23689359.4984
        40.100          22.5004
 116289813.153 7  90615419.28145  22129223.236    22129223.3904
        46.600          34.8004
 113894448.808 7  88749001.37645  21673356.990    21673350.7564
        46.300          34.3004
 116856701.327 8  91057217.60445  22237061.628    22237054.8664
        48.400          35.6004
 12 10 28  1 27  0.0000000  0  9G06G22G21G18G03G30G16G14G19
 106582232.991 8  83051093.30446  20281913.628    20281908.0384
        51.100          40.7004
 112144336.251 8  87385178.27146  21340351.033    21340342.6304
        49.000          39.1004
 129423747.124 6 100849650.49943  24628522.712    24628519.4094
        37.600          18.3004
 127686942.007 7  99496291.31343  24298019.135    24298012.8424
        42.500          22.6004
 106811192.378 8  83229531.90846  20325475.114    20325469.5834
        49.800          41.8004
 124577626.404 6  97073446.57743  23706354.382    23706360.5734
        39.900          23.0004
 116350288.148 7  90662542.49645  22140731.378    22140730.9464
        46.300          34.1004
 113866166.995 7  88726963.75045  21667974.254    21667968.6644
        45.700          34.8004
 116779646.254 8  90997174.87746  22222397.918    22222391.5664
        48.100          36.1004
 12 10 28  1 27 30.0000000  0  9G06G22G21G18G03G30G16G14G19
 106569516.767 8  83041184.59146  20279493.712    20279488.1814
        50.000          40.5004
 112206445.950 8  87433575.47546  21352170.115    21352161.3604
        48.300          38.9004
 129461379.979 6 100878974.83942  24635683.532    24635679.8764
        38.800          17.8004
 127772461.283 7  99562929.76644  24314292.727    24314286.8444
        43.400          24.4004
 106779632.705 8  83204940.01946  20319469.856    20319463.6224
        50.000          41.5004
 124666922.701 6  97143028.01243  23723347.174    23723353.0724
        39.600          22.6004
 116411069.004 7  90709904.03745  22152297.661    22152297.7564
        45.900          34.3004
 113838341.354 7  88705281.57145  21662679.026    21662673.3194
        46.100          34.2004
 116702764.315 7  90937267.05846  22207767.716    22207761.3064
        47.800          36.7004
 12 10 28  1 28  0.0000000  0  9G06G22G21G18G03G30G16G14G19
 106557255.302 8  83031630.24646  20277160.454    20277154.9814
        51.100          40.6004
 112268770.702 7  87482140.24346  21364030.224    21364021.5284
        47.300          38.5004
 129499066.895 6 100908341.29042  24642854.949    24642851.0014
        38.100          16.9004
 127857941.000 7  99629537.36243  24330558.581    24330553.1674
        42.200          22.6004
 106748570.942 8  83180736.10846  20313559.112    20313553.2884
        49.600          41.1004
 124756172.942 6  97212573.54343  23740330.050    23740337.1794
        38.600          22.8004
 116472153.377 7  90757502.08645  22163921.304    22163922.0444
        45.600          34.8004
 113810974.331 7  88683956.75645  21657471.396    21657465.7484
        46.300          34.4004
 116626058.601 7  90877496.56845  22193170.634    22193164.3414
        47.300          35.7004
 12 10 28  1 28 30.0000000  0  9G06G22G21G18G03G30G16G14G19
 106545449.260 8  83022430.77646  20274913.943    20274908.5884
        50.800          40.4004
 112331307.651 7  87530870.37146  21375931.000    21375921.4844
        47.800          38.9004
 129536808.665 6 100937750.49943  24650036.885    24650033.0534
        38.000          18.3004
 127943379.082 7  99696112.48543  24346816.671    24346811.2574
        42.100          21.8004
 106718008.162 8  83156921.01046  20307742.512    20307737.1574
        49.800          41.9004
 124845373.966 6  97282080.72743  23757306.029    23757312.5134
        38.900          21.5004
 116533538.204 7  90805334.25745  22175602.566    22175603.5414
        45.600          34.7004
 113784067.556 7  88662990.57345  21652351.168    21652345.5784
        46.100          34.9004
 116549530.954 8  90817864.82445  22178607.974    22178601.0944
        48.600          35.3004
 12 10 28  1 29  0.0000000  0  9G06G22G21G18G03G30G16G14G19
 106534100.036 8  83013587.27446  20272754.391    20272748.4504
        51.200          41.0004
 112394054.682 8  87579764.19846  21387870.416    21387862.1894
        48.600          39.2004
 129574606.022 6 100967202.96342  24657230.213    24657226.3234
        37.500          17.8004
 128028774.047 6  99762654.05344  24363067.421    24363062.4764
        41.400          24.1004
 106687945.741 8  83133495.81546  20302021.922    20302016.6844
        49.600          41.8004
 124934523.198 6  97351547.53443  23774270.397    23774276.4124
        38.800          20.9004
 116595220.462 7  90853398.19345  22187340.289    22187340.9704
        46.100          34.8004
 113757622.869 7  88642384.45845  21647318.744    21647313.4474
        46.300          35.3004
 116473184.085 7  90758373.93545  22164080.054    22164072.4724
        47.600          35.4004
 12 10 28  1 29 30.0000000  0  9G06G22G21G18G03G30G16G14G19
 106523208.373 8  83005100.31146  20270681.434    20270675.9614
        50.500          40.2004
 112457009.014 7  87628819.55846  21399850.694    21399842.2324
        47.500          38.9004
 129612459.635 6 100996699.25243  24664433.816    24664429.6924
        37.300          19.0004
 128114123.794 6  99829160.35643  24379307.425    24379303.1834
        41.100          22.0004
 106658384.606 8  83110461.22546  20296396.367    20296390.7774
        49.100          41.5004
 125023617.113 6  97420971.24443  23791223.137    23791230.3254
        37.900          21.1004
 116657196.800 7  90901691.28145  22199134.317    22199134.8234
        45.800          34.6004
 113731641.582 7  88622139.43545  21642374.736    21642369.2054
        46.400          34.9004
 116397019.715 7  90699025.23545  22149586.365    22149578.8994
        47.900          35.7004
 12 10 28  1 30  0.0000000  0  9G06G22G21G18G03G30G16G14G19
 106512776.115 8  82996971.33346  20268696.242    20268690.0074
        51.100          40.4004
 112520169.244 7  87678035.35946  21411869.699    21411860.9444
        47.400          38.8004
 129650371.541 6 101026241.00242  24671647.721    24671645.0624
        36.300          17.8004
 128199427.720 6  99895630.97143  24395541.382    24395536.1444
        41.100          22.0004
 106629327.306 8  83087819.23146  20290867.172    20290861.5824
        49.800          40.7004
 125112654.032 6  97490350.56443  23808167.680    23808173.4604
        39.700          21.8004
 116719465.177 7  90950211.92045  22210983.787    22210984.1764
        45.700          33.6004
 113706126.287 7  88602257.51445  21637519.512    21637513.5124
        46.300          35.1004
 116321040.795 8  90639821.06246  22135127.621    22135120.4494
        48.500          36.2004
 12 10 28  1 30 30.0000000  0 10G06G22G11G21G18G03G30G16G14G19
 106502803.745 8  82989200.70846  20266798.572    20266792.5134
        51.100          39.7004
 112583531.862 7  87727408.85546  21423927.301    21423918.7224
        47.300          38.1004
 128517085.380 5                  24455988.187
        35.400
 129688341.765 6 101055828.19343  24678873.655    24678870.2344
        37.400          18.3004
 128284683.500 7  99962064.04043  24411764.553    24411759.7844
        42.500          22.6004
 106600774.261 8  83065570.17146  20285433.735    20285427.5014
        49.200          41.2004
 125201630.160 6  97559682.49743  23825098.867    23825106.1134
        39.700          22.3004
 116782021.700 7  90998957.09345  22222887.914    22222888.3614
        45.800          33.5004
 113681077.692 7  88582739.25145  21632752.584    21632746.7014
        45.800          35.3004
 116245249.121 8  90580762.78046  22120705.043    22120698.4574
        48.100          36.5004
 12 10 28  1 31  0.0000000  0 10G06G22G11G21G18G03G30G16G14G19
 106493292.475 8  82981789.37846  20264988.606    20264982.3724
        50.300          40.3004
 112647095.159 7  87776938.72346  21436022.893    21436014.3144
        47.500          38.8004
 128445409.328 6 100087356.54443  24442348.952    24442354.7924
        41.600          21.3004
 129726371.765 6 101085461.96743  24686110.453    24686107.1494
        36.600          18.6004
 128369889.665 6 100028458.49243  24427978.781    24427974.3634
        41.800          22.9004
 106572727.574 8  83043715.67346  20280096.330    20280090.5654
        49.300          41.4004
 125290543.037 6  97628965.15043  23842017.881    23842025.6554
        38.900          21.1004
 116844863.888 7  91047924.86445  22234846.539    22234847.0454
        45.500          33.8004
 113656497.997 7  88563586.36045  21628074.990    21628068.9904
        47.200          34.6004
 116169646.978 8  90521852.18146  22106318.192    22106311.6644
        49.500          37.0004
 12 10 28  1 31 30.0000000  0 10G06G22G11G21G18G03G30G16G14G19
 106484244.623 8  82974739.16546  20263267.066    20263261.0664
        51.300          40.5004
 112710858.250 7  87826624.28746  21448156.984    21448147.7614
        47.800          38.8004
 128373675.730 6 100031460.64943  24428698.307    24428703.9124
        40.000          19.0004
 129764463.536 6 101115143.82142  24693359.402    24693354.9264
        37.600          16.3004
 128455046.000 6 100094814.07943  24444183.660    24444178.3054
        40.900          21.7004
 106545189.848 8  83022257.77046  20274856.157    20274850.5094
        49.500          41.3004
 125379391.396 6  97698197.55543  23858925.973    23858933.1024
        38.600          20.1004
 116907990.078 7  91097113.94245  22246859.527    22246859.5054
        45.600          34.0004
 113632389.916 7  88544800.94745  21623487.107    21623481.6934
        47.300          35.3004
 116094238.117 8  90463092.21046  22091967.979    22091961.6284
        48.500          37.0004
 12 10 28  1 32  0.0000000  0 10G06G22G11G21G18G03G30G16G14G19
 106475660.481 8  82968050.27046  20261633.164    20261627.5754
        50.800          40.5004
 112774817.370 7  87876462.60346  21460328.153    21460318.1094
        47.600          38.6004
 128301883.773 6  99975519.19843  24415036.467    24415041.0174
        40.100          18.6004
 129802617.286 6 101144874.04742  24700620.850    24700616.2574
        36.900          17.8004
 128540149.834 6 100161128.76243  24460378.085    24460371.8514
        41.900          21.5004
 106518161.597 8  83001196.84946  20269712.678    20269707.3234
        49.800          41.1004
 125468171.266 6  97767376.56343  23875820.663    23875827.0304
        39.400          20.9004
 116971396.173 7  91146521.11845  22258925.311    22258926.2274
        45.900          34.1004
 113608754.322 7  88526383.70645  21618989.599    21618983.8924
        45.800          34.7004
 116019024.091 7  90404484.04446  22077655.129    22077648.8364
        46.600          37.2004
 12 10 28  1 32 30.0000000  0 10G06G22G11G21G18G03G30G16G14G19
 106467541.114 8  82961723.54546  20260088.251    20260082.5444
        51.200          40.9004
 112838970.571 7  87926452.15246  21472535.302    21472526.4894
        47.400          38.6004
 128230033.536 6  99919532.37842  24401362.267    24401367.5214
        39.000          17.8004
 129840834.516 6 101174653.70643  24707893.159    24707888.0384
        36.900          18.6004
 128625200.183 7 100227401.78343  24476563.316    24476556.6714
        42.800          22.3004
 106491644.133 8  82980533.94546  20264666.577    20264660.9294
        49.600          41.4004
 125556880.138 6  97836500.26543  23892700.879    23892707.5384
        38.800          19.9004
 117035079.567 7  91196144.37945  22271043.863    22271044.6034
        46.000          34.0004
 113585593.073 7  88508336.09345  21614581.867    21614575.9844
        47.300          34.9004
 115944007.189 8  90346029.47546  22063380.339    22063373.3434
        49.000          37.4004
 12 10 28  1 33  0.0000000  0 10G06G22G11G21G18G03G30G16G14G19
 106459887.593 8  82955759.81946  20258631.780    20258625.8974
        50.400          41.2004
 112903315.650 7  87976591.20546  21484779.803    21484771.2824
        47.400          38.5004
 128158125.378 6  99863500.45342  24387679.733    24387684.2254
        41.600          17.8004
 129879115.690 5 101204483.20142  24715176.315    24715172.6604
        35.400          16.9004
 128710195.706 7 100293632.08543  24492737.832    24492731.3054
        42.600          22.8004
 106465638.858 8  82960270.16246  20259717.946    20259712.4744
        50.000          41.7004
 125645515.358 6  97905566.56543  23909567.832    23909573.9644
        39.900          21.1004
 117099037.467 7  91245981.52245  22283215.015    22283215.3454
        45.600          34.0004
 113562907.694 7  88490659.26845  21610265.049    21610259.2254
        47.200          34.5004
 115869189.812 8  90287730.38646  22049142.505    22049135.9194
        49.000          37.0004
 12 10 28  1 33 30.0000000  0 10G06G22G11G21G18G03G30G16G14G19
 106452701.876 8  82950160.60446  20257264.431    20257258.7824
        51.100          41.0004
 112967851.050 8  88026878.56046  21497060.127    21497051.9004
        48.300          38.6004
 128086160.310 6  99807424.18342  24373985.423    24373989.0354
        39.400          16.9004
 129917462.877 5 101234364.14042  24722474.217    24722470.3274
        35.800          17.8004
 128795135.149 6 100359818.65243  24508901.181    24508895.1234
        41.100          22.8004
 106440148.158 8  82940407.33846  20254867.477    20254861.7114
        50.500          41.6004
 125734075.070 6  97974574.01243  23926420.910    23926426.5744
        41.300          21.3004
 117163267.181 7  91296030.48445  22295437.274    22295437.7214
        45.400          34.0004
 113540700.635 8  88473355.16845  21606039.534    21606032.7724
        48.100          34.2004
 115794575.015 8  90229589.15046  22034944.011    22034936.6634
        49.100          37.1004
 12 10 28  1 34  0.0000000  0 10G06G22G11G21G18G03G30G16G14G19
 106445984.681 8  82944926.46646  20255986.195    20255980.2534
        50.700          40.6004
 113032574.264 8  88077312.26446  21509377.202    21509368.2724
        48.800          38.3004
 128014138.322 6  99751303.57742  24360279.845    24360282.5784
        40.200          17.4004
 129955876.870 6 101264297.10642  24729783.539    24729779.3564
        36.200          17.8004
 128880016.804 7 100425960.24043  24525053.880    24525047.5294
        42.200          22.6004
 106415172.873 8  82920946.13846  20250114.561    20250108.7374
        50.200          41.8004
 125822556.289 6  98043520.32343  23943257.671    23943264.2134
        39.800          20.9004
 117227765.586 7  91346288.81045  22307711.214    22307712.1304
        45.100          33.1004
 113518973.311 7  88456424.89245  21601904.425    21601898.0744
        47.500          34.8004
 115720165.011 8  90171607.49846  22020783.290    22020776.8214
        48.400          37.4004
 12 10 28  1 34 30.0000000  0 10G06G22G11G21G18G03G30G16G14G19
 106439736.177 8  82940057.53646  20254796.976    20254790.8004
        50.900          40.3004
 113097482.272 7  88127889.97746  21521728.988    21521719.5304
        47.700          38.0004
 127942059.027 6  99695138.31442  24346561.911    24346565.9334
        36.600          17.4004
 129994358.294 5 101294282.68042  24737106.678    24737102.6714
        34.400          16.9004
 128964838.747 7 100492055.27443  24541195.455    24541188.9864
        42.800          22.3004
 106390713.838 8  82901887.20146  20245459.869    20245454.1034
        49.100          41.8004
 125910955.486 6  98112402.70343  23960079.734    23960086.3364
        39.400          20.9004
 117292529.365 7  91396753.90645  22320035.868    22320036.1974
        45.800          34.0004
 113497726.520 8  88439869.06645  21597861.266    21597855.6774
        48.100          34.8004
 115645961.466 8  90113786.71346  22006663.394    22006656.4564
        49.200          37.2004
 12 10 28  1 35  0.0000000  0 10G06G22G11G21G18G03G30G16G14G19
 106433958.061 8  82935555.14046  20253697.683    20253691.3904
        49.600          39.9004
 113162573.632 7  88178610.55146  21534115.007    21534105.7844
        47.600          38.6004
 127869923.104 6  99638928.99443  24332835.712    24332839.3244
        40.400          19.0004
 130032908.328 5 101324321.70843  24744442.332    24744439.4384
        35.100          18.6004
 129049600.163 6 100558103.10743  24557323.814    24557318.9284
        40.100          22.6004
 106366772.866 8  82883231.95446  20240903.697    20240898.0494
        49.000          41.3004
 125999271.000 6  98181219.89343  23976885.651    23976892.8394
        40.000          19.6004
 117357556.135 7  91447423.94145  22332409.929    22332410.3764
        45.400          33.0004
 113476962.534 7  88423689.45745  21593909.938    21593904.4074
        46.700          35.1004
 115571967.250 8  90056129.04446  21992582.056    21992575.7634
        48.900          37.0004
 12 10 28  1 35 30.0000000  0 10G06G22G11G21G18G03G30G16G14G19
 106428651.411 8  82931420.11946  20252687.688    20252681.2194
        49.800          40.5004
 113227845.975 7  88229472.15046  21546535.803    21546527.2834
        47.300          37.4004
 127797731.063 6  99582675.89043  24319097.701    24319101.2544
        39.700          19.0004
 130071528.213 5 101354415.06342  24751790.050    24751787.7424
        34.100          17.8004
 129134299.758 6 100624102.83243  24573440.494    24573436.8384
        40.500          21.5004
 106343351.901 8  82864981.89846  20236447.231    20236441.3494
        49.100          41.2004
 126087499.932 6  98249969.60043  23993674.986    23993681.8224
        41.300          21.5004
 117422842.581 7  91498296.32645  22344833.393    22344834.6024
        45.600          33.5004
 113456682.811 7  88407887.21145  21590050.335    21590044.4534
        46.900          34.6004
 115498185.345 8  89998636.82146  21978541.838    21978535.4874
        48.800          36.9004
 12 10 28  1 36  0.0000000  0 10G06G22G11G21G18G03G30G16G14G19
 106423817.272 8  82927653.29446  20251767.494    20251761.4354
        50.500          40.1004
 113293296.927 7  88280472.93346  21558990.859    21558981.4604
        47.500          38.1004
 127725482.956 6  99526379.10442  24305348.791    24305353.1064
        39.200          16.3004
 130110219.106 5 101384563.86842  24759154.026    24759150.1944
        34.600          16.3004
 129218936.091 6 100690053.24743  24589546.598    24589542.5914
        38.600          20.9004
 106320451.336 8  82847137.35946  20232088.906    20232083.1994
        49.000          41.3004
 126175639.801 6  98318649.94643  24010448.137    24010454.5624
        40.600          21.8004
 117488385.869 7  91549368.83645  22357306.293    22357307.2684
        46.200          34.1004
 113436888.920 8  88392463.52545  21586283.888    21586277.3614
        48.400          34.7004
 115424617.861 8  89941311.65546  21964542.683    21964535.6874
        49.800          37.0004
 12 10 28  1 36 30.0000000  0 10G06G22G11G21G18G03G30G16G14G19
 106419455.935 8  82924254.87146  20250937.372    20250931.6654
        50.300          40.5004
 113358923.903 7  88331610.86546  21571479.741    21571470.1074
        47.900          37.7004
 127653178.784 6  99470038.54843  24291589.521    24291593.7774
        39.700          18.3004
 130148981.448 5 101414768.25042  24766530.620    24766526.4374
        35.100          16.3004
 129303507.257 6 100755952.84143  24605639.669    24605635.6624
        39.500          22.3004
 106298072.295 8  82829699.20146  20227830.361    20227824.8884
        49.600          41.0004
 126263687.296 6  98387258.29143  24027202.196    24027209.3244
        38.400          19.3004
 117554183.029 7  91600639.15545  22369827.226    22369827.9084
        45.300          33.7004
 113417581.821 8  88377419.17445  21582609.831    21582603.7134
        48.500          35.0004
 115351266.378 8  89884154.79246  21950584.233    21950577.0024
        49.800          36.9004
 12 10 28  1 37  0.0000000  0 10G06G22G11G21G18G03G30G16G14G19
 106415568.635 8  82921225.83646  20250197.888    20250192.1814
        50.700          40.8004
 113424724.981 8  88382884.46346  21584001.044    21583991.4694
        48.200          38.0004
 127580818.966 6  99413654.65642  24277819.756    24277823.2514
        40.600          17.4004
 130187816.568 5 101445029.37042  24773920.645    24773915.3494
        35.500          17.8004
 129388012.255 6 100821800.92643  24621721.183    24621716.2974
        39.900          21.5004
 106276216.433 8  82812668.71446  20223671.516    20223665.6334
        49.700          41.2004
 126351640.334 6  98455793.02343  24043938.827    24043945.8394
        37.600          20.4004
 117620230.900 7  91652104.83945  22382395.344    22382396.4354
        45.400          33.2004
 113398763.401 7  88362755.60745  21579028.491    21579022.4914
        47.200          35.1004
 115278133.762 8  89827168.49446  21936667.436    21936660.4984
        49.900          38.0004
 12 10 28  1 37 30.0000000  0 10G06G22G11G21G18G03G30G16G14G19
 106412156.402 8  82918566.99046  20249548.565    20249542.5074
        50.800          40.6004
 113490698.188 8  88434292.19246  21596554.859    21596546.2224
        48.500          38.4004
 127508404.069 6  99357227.94543  24264038.929    24264043.0694
        40.800          18.3004
 130226725.744 5 101475348.18742  24781324.224    24781319.0444
        35.400          16.3004
 129472449.501 6 100887596.21343  24637788.315    24637784.8944
        40.100          20.9004
 106254885.082 8  82796046.93547  20219612.330    20219606.5654
        50.200          42.0004
 126439496.300 6  98524252.12043  24060658.597    24060665.5504
        37.800          19.3004
 117686526.427 7  91703763.49745  22395011.186    22395012.2194
        45.500          33.2004
 113380435.142 8  88348473.98645  21575540.853    21575534.9704
        49.200          35.3004
 115205222.357 8  89770354.56646  21922792.839    21922785.9604
        49.600          38.1004
 12 10 28  1 38  0.0000000  0 10G06G22G11G21G18G03G30G16G14G19
 106409220.962 8  82916279.65646  20248989.979    20248983.8614
        49.500          40.0004
 113556841.689 7  88485832.62446  21609141.772    21609133.0764
        47.700          38.8004
 127435935.262 6  99300759.18743  24250249.296    24250253.0844
        40.900          19.9004
 130265710.760 6 101505726.11742  24788743.082    24788738.6654
        36.500          14.8004
 129556818.408 6 100953338.21843  24653844.091    24653839.3804
        41.500          21.7004
 106234080.134 8  82779835.33546  20215653.127    20215647.4204
        50.500          41.2004
 126527253.419 6  98592634.16543  24077356.994    24077365.6474
        38.200          19.0004
 117753067.858 7  91755613.78445  22407674.043    22407675.2524
        45.500          33.2004
 113362599.438 8  88334576.16545  21572146.393    21572140.7444
        48.000          35.3004
 115132535.801 8  89713715.84346  21908960.949    21908953.6594
        48.800          38.2004
 12 10 28  1 38 30.0000000  0 10G06G22G11G21G18G03G30G16G14G19
 106406762.687 8  82914364.15046  20248522.345    20248516.1694
        50.400          40.1004
 113623153.117 7  88537503.90446  21621760.081    21621751.1504
        47.300          38.7004
 127363412.089 6  99244248.05243  24236447.339    24236450.2484
        41.200          19.6004
 130304771.988 5 101536163.43542  24796175.453    24796172.0904
        33.300          15.6004
 129641117.348 6 101019025.69343  24669885.812    24669880.6914
        41.400          21.1004
 106213802.504 8  82764034.63846  20211794.627    20211788.5684
        51.000          40.8004
 126614908.543 6  98660936.78343  24094039.141    24094044.5124
        39.800          19.0004
 117819851.465 7  91807652.77145  22420382.950    22420383.8664
        45.600          33.2004
 113345257.023 8  88321062.73245  21568845.671    21568840.3744
        48.200          34.5004
 115060075.683 7  89657253.56746  21895171.291    21895165.1734
        47.600          37.2004
 12 10 28  1 39  0.0000000  0 10G06G22G11G21G18G03G30G16G14G19
 106404781.357 8  82912820.27146  20248145.222    20248138.9294
        50.200          39.9004
 113689629.112 7  88589303.41746  21634410.539    21634400.8464
        47.400          38.1004
 127290833.937 6  99187694.05643  24222634.929    24222639.1864
        40.900          19.9004
 130343909.854 5 101566660.52142  24803624.115    24803620.5184
        35.400          17.4004
 129725343.925 6 101084656.83243  24685913.619    24685908.5574
        41.400          21.1004
 106194052.193 8  82748644.82646  20208035.970    20208030.6154
        50.400          40.7004
 126702458.219 6  98729157.21243  24110698.560    24110706.0404
        39.000          18.6004
 117886873.463 7  91859877.51545  22433136.813    22433138.0224
        45.800          33.2004
 113328408.319 8  88307934.00345  21565639.736    21565633.5604
        48.600          34.4004
 114987843.471 7  89600968.87246  21881426.215    21881419.2194
        45.700          36.9004
 12 10 28  1 39 30.0000000  0 10G06G22G11G21G18G03G30G16G14G19
 106403279.155 8  82911649.75346  20247859.216    20247853.0404
        48.100          40.2004
 113756268.426 7  88641230.18646  21647091.034    21647082.5734
        46.800          38.5004
 127218202.409 6  99131098.52743  24208812.459    24208817.4784
        39.200          19.6004
 130383126.211 5 101597218.79342  24811087.689    24811083.5654
        33.800          16.9004
 129809497.830 7 101150231.35143  24701927.961    24701922.6644
        42.500          21.5004
 106174831.747 8  82733667.91346  20204378.542    20204372.9524
        51.200          41.2004
 126789900.953 6  98797294.35143  24127338.394    24127345.9924
        38.400          19.6004
 117954132.066 7  91912286.61945  22445935.700    22445937.0854
        45.500          33.3004
 113312056.043 8  88295192.08945  21562527.959    21562522.0764
        48.600          34.2004
 114915842.712 8  89544864.51846  21867724.784    21867717.9054
        48.100          37.0004
 12 10 28  1 40  0.0000000  0 10G06G22G11G21G18G03G30G16G14G19
 106402256.538 8  82910852.93246  20247664.615    20247658.8504
        48.100          39.9004
 113823068.807 7  88693282.46246  21659802.683    21659794.0454
        47.700          38.3004
 127145517.811 7  99074461.60743  24194982.642    24194984.7894
        42.300          20.9004
 130422422.197 6 101627839.04043  24818565.791    24818560.6114
        36.400          18.3004
 129893577.556 6 101215748.03743  24717927.608    24717922.4294
        41.300          20.6004
 106156141.907 8  82719104.44846  20200821.837    20200816.0124
        50.800          41.2004
 126877234.212 6  98865346.21543  24143957.415    24143964.9544
        38.700          18.6004
 118021623.805 7  91964877.39445  22458778.909    22458780.1184
        46.100          32.5004
 113296201.181 7  88282837.76345  21559511.152    21559505.1524
        47.900          35.3004
 114844075.809 8  89488942.38246  21854068.466    21854060.9424
        48.600          36.9004
 12 10 28  1 40 30.0000000  0 10G06G22G11G21G18G03G30G16G14G19
 106401713.562 8  82910429.86746  20247561.166    20247555.1664
        49.900          40.0004
 113890027.489 7  88745458.09546  21672544.104    21672535.5834
        46.700          37.8004
 127072779.649 7  99017782.95343  24181140.712    24181141.5114
        42.100          21.3004
 130461798.025 5 101658521.56242  24826056.698    24826052.8084
        35.500          15.6004
 129977581.256 6 101281205.49943  24733912.035    24733907.2074
        41.200          21.1004
 106137982.802 8  82704954.53846  20197366.483    20197360.8934
        51.700          41.4004
 126964454.640 6  98933310.09243  24160555.208    24160562.1024
        39.200          19.0004
 118089345.084 7  92017647.02245  22471666.179    22471668.2084
        45.300          33.1004
 113280844.531 8  88270871.64045  21556588.360    21556582.5944
        49.400          35.6004
 114772544.417 7  89433203.76246  21840455.614    21840449.1454
        47.700          37.3004
 12 10 28  1 41  0.0000000  0 10G06G22G11G21G18G03G30G16G14G19
 106401652.314 8  82910382.16846  20247549.736    20247543.5604
        49.800          40.2004
 113957143.494 8  88797756.31346  21685316.564    21685306.8714
        48.400          37.8004
 126999989.207 6  98961063.50043  24167288.629    24167290.1314
        41.500          19.9004
 130501255.807 6 101689267.90942  24833566.744    24833561.9164
        36.900          16.3004
 130061508.490 7 101346603.39543  24749883.819    24749877.7604
        42.800          20.6004
 106120357.030 8  82691220.22646  20194012.642    20194006.1734
        51.000          41.8004
 127051560.746 6  99001184.93143  24177130.125    24177137.5474
        39.600          19.6004
 118157294.283 7  92070594.25245  22484596.770    22484598.0974
        45.000          32.8004
 113265988.553 7  88259295.64345  21553761.791    21553755.7334
        47.000          35.6004
 114701252.161 8  89377651.47946  21826889.786    21826882.4384
        48.700          37.6004
 12 10 28  1 41 30.0000000  0 10G06G22G11G21G18G03G30G16G14G19
 106402073.459 8  82910710.36446  20247629.639    20247623.7564
        49.200          40.1004
 114024414.157 8  88850175.04846  21698117.582    21698108.3004
        49.300          37.8004
 126927147.131 6  98904303.85543  24153426.562    24153428.2994
        38.900          20.1004
 130540796.600 5 101720078.95942  24841089.217    24841085.6784
        32.900          16.3004
 130145358.585 7 101411941.16643  24765839.731    24765833.9664
        42.200          20.9004
 106103265.845 8  82677902.46946  20190760.175    20190753.9994
        51.700          41.6004
 127138550.108 6  99068968.78643  24193683.280    24193691.6984
        40.900          19.3004
 118225468.262 7  92123716.64245  22497570.137    22497571.4634
        47.300          33.4004
 113251634.467 7  88248110.72345  21551030.101    21551024.0424
        47.900          35.8004
 114630201.062 7  89322287.10646  21813368.723    21813361.6684
        46.800          37.0004
 12 10 28  1 42  0.0000000  0 10G06G22G11G21G18G03G30G16G14G19
 106402977.328 8  82911414.70546  20247801.370    20247795.4294
        48.600          40.4004
 114091837.011 7  88902712.37846  21710947.900    21710938.2074
        47.700          37.6004
 126854253.007 6  98847503.63843  24139554.718    24139557.9204
        38.100          20.6004
 130580421.360 6 101750955.44042  24848630.544    24848625.7754
        36.100          16.3004
 130229128.985 7 101477216.84943  24781780.636    24781774.6364
        42.300          22.0004
 106086709.733 8  82665001.65746  20187609.242    20187603.5944
        51.900          41.5004
 127225419.830 6  99136659.40943  24210215.204    24210222.9194
        40.600          20.4004
 118293863.310 7  92177011.28745  22510585.537    22510586.4534
        45.600          33.0004
 113237782.838 8  88237317.31245  21548393.893    21548387.7174
        48.200          35.1004
 114559393.435 7  89267112.45646  21799893.895    21799886.8994
        46.700          37.0004
 12 10 28  1 42 30.0000000  0 10G06G22G11G21G18G03G30G16G14G19
 106404364.354 8  82912495.51846  20248065.628    20248059.5704
        49.000          40.2004
 114159409.722 7  88955366.46546  21723806.085    21723797.0954
        47.200          38.3004
 126781307.370 6  98790663.31643  24125674.135    24125676.5164
        40.000          21.7004
 130620130.244 5 101781897.42142  24856185.123    24856182.3474
        34.800          16.9004
 130312818.316 6 101542429.37643  24797706.266    24797700.2664
        41.800          20.9004
 106070689.071 8  82652518.07546  20184560.562    20184555.0314
        52.000          41.2004
 127312166.928 6  99204254.49343  24226723.033    24226729.8104
        40.900          20.4004
 118362476.300 7  92230475.76845  22523642.171    22523643.3804
        45.400          32.0004
 113224435.095 8  88226916.54145  21545853.866    21545848.1594
        48.700          35.1004
 114488831.404 8  89212129.17346  21786466.576    21786459.1114
        48.600          37.3004
 12 10 28  1 43  0.0000000  0 10G06G22G11G21G18G03G30G16G14G19
 106406235.294 8  82913953.41946  20248421.880    20248415.6464
        49.600          40.3004
 114227130.783 8  89008136.15646  21736693.396    21736684.1724
        50.500          37.6004
 126708310.783 6  98733783.29343  24111782.757    24111785.0794
        41.300          22.3004
 130659924.892 6 101812906.27642  24863759.238    24863755.8174
        36.100          16.3004
 130396425.725 6 101607578.02343  24813616.325    24813610.5594
        41.200          21.8004
 106055205.509 8  82640453.01146  20181614.026    20181608.7884
        50.400          41.5004
 127398789.346 6  99271752.40043  24243206.762    24243213.8324
        41.900          19.9004
 118431304.458 7  92284107.90345  22536739.366    22536741.0444
        47.300          32.6004
 113211592.516 7  88216909.40545  21543409.976    21543404.0354
        46.800          35.1004
 114418517.367 8  89157339.14746  21773085.907    21773078.7354
        49.100          37.9004
 12 10 28  1 43 30.0000000  0 10G06G22G11G21G18G03G30G16G14G19
 106408591.010 8  82915789.07246  20248869.843    20248864.1364
        51.300          40.8004
 114294997.813 8  89061019.59246  21749607.874    21749598.2984
        50.000          37.4004
 126635263.490 6  98676863.78943  24097881.753    24097884.2524
        39.100          22.2004
 130699806.095 6 101843982.53642  24871348.605    24871345.0084
        36.400          16.9004
 130479949.685 6 101672661.66543  24829509.355    24829504.5274
        39.200          20.9004
 106040259.747 8  82628807.01146  20178769.920    20178764.1554
        52.200          41.8004
 127485284.512 7  99339151.17343  24259666.163    24259672.1784
        42.300          20.4004
 118500344.819 7  92337905.40845  22549877.897    22549878.9304
        47.100          32.1004
 113199256.365 7  88207296.88445  21541062.538    21541056.2454
        47.000          35.0004
 114348453.932 8  89102744.38546  21759753.552    21759746.0284
        48.800          38.3004
 12 10 28  1 44  0.0000000  0 10G06G22G11G21G18G03G30G16G14G19
 106411432.693 8  82918003.39946  20249410.571    20249404.6884
        50.900          40.6004
 114363008.409 8  89114014.89446  21762549.187    21762540.5504
        48.600          36.6004
 126562166.301 6  98619905.41243  24083970.970    24083974.5234
        39.600          22.5004
 130739775.398 5 101875127.46642  24878954.934    24878951.1614
        35.500          16.9004
 130563389.543 6 101737679.75543  24845386.575    24845382.6854
        39.000          19.9004
 106025853.311 8  82617581.27946  20176028.597    20176022.4794
        50.300          41.3004
 127571650.344 6  99406449.14043  24276101.219    24276106.7074
        41.700          20.4004
 118569595.022 7  92391866.41245  22563055.917    22563057.5954
        47.000          32.4004
 113187428.225 7  88198080.21745  21538811.992    21538805.5234
        46.500          35.7004
 114278643.788 8  89048346.98846  21746469.235    21746461.1254
        48.300          38.4004
 12 10 28  1 44 30.0000000  0 10G06G22G11G21G18G03G30G16G14G19
 106414760.759 8  82920596.71646  20250044.163    20250038.0464
        50.700          41.0004
 114431160.525 8  89167120.46346  21775518.179    21775509.3074
        49.500          36.8004
 126489019.843 6  98562908.61943  24070052.804    24070054.1314
        40.700          22.6004
 130779833.906 6 101906341.89042  24886577.497    24886573.1964
        36.100          16.9004
 130646744.140 6 101802631.45343  24861249.240    24861243.8264
        38.800          19.3004
 106011987.145 8  82606776.52446  20173390.165    20173383.6384
        50.700          41.8004
 127657884.400 6  99473644.47343  24292510.374    24292517.5034
        41.600          20.6004
 118639051.589 7  92445988.22645  22576273.343    22576275.1394
        47.100          32.5004
 113176108.940 7  88189260.06345  21536658.094    21536651.5084
        46.500          35.3004
 114209089.336 8  88994148.82846  21733233.444    21733225.9204
        48.000          38.1004
 12 10 28  1 45  0.0000000  0 10G06G22G11G21G18G03G30G16G14G19
 106418575.716 8  82923569.43446  20250769.671    20250763.9644
        50.500          40.7004
 114499452.125 8  89220334.73546  21788513.371    21788504.6744
        48.800          36.1004
 126415824.199 6  98505873.49443  24056123.258    24056125.4644
        39.500          21.5004
 130819982.293 6 101937626.40742  24894216.518    24894212.5114
        36.300          16.3004
 130730011.961 6 101867515.49043  24877094.736    24877088.9704
        40.000          18.6004
 105998661.780 8  82596393.17946  20170854.225    20170848.1664
        52.100          41.3004
 127743984.262 6  99540735.23943  24308893.797    24308901.9814
        40.800          20.6004
 118708711.673 7  92500268.62945  22589528.859    22589530.8304
        47.900          32.3004
 113165299.748 7  88180837.39245  21534600.845    21534594.3764
        47.900          35.1004
 114139793.033 8  88940151.84246  21720047.020    21720039.3204
        48.400          38.3004
 12 10 28  1 45 30.0000000  0 10G06G22G11G21G18G03G30G16G14G19
 106422877.967 8  82926921.86846  20251588.361    20251582.1854
        50.500          39.8004
 114567880.975 8  89273655.93946  21801534.798    21801525.9264
        48.700          36.7004
 126342579.940 6  98448800.57943  24042185.014    24042186.7514
        41.100          22.2004
 130860221.451 5 101968981.58442  24901874.630    24901870.6234
        35.200          16.9004
 130813191.531 6 101932330.77643  24892923.777    24892917.8364
        40.400          19.6004
 105985878.185 8  82586431.98447  20168421.254    20168416.0754
        50.100          42.0004
 127829947.041 6  99607719.19643  24325253.293    24325259.7784
        39.700          19.6004
 118778571.902 7  92554704.99245  22602823.676    22602825.5894
        47.700          32.7004
 113155001.609 7  88172812.95745  21532641.522    21532634.4674
        46.200          35.1004
 114070757.142 8  88886357.74546  21706909.634    21706901.4664
        48.000          37.7004
 12 10 28  1 46  0.0000000  0 10G06G22G11G21G18G03G30G16G14G19
 106427668.614 8  82930654.87146  20252499.759    20252493.9934
        50.500          40.4004
 114636445.131 8  89327082.57546  21814582.787    21814573.8564
        48.200          37.3004
 126269287.430 6  98391689.99343  24028236.977    24028239.3584
        39.000          22.0004
 130900552.804 5 102000408.58242  24909548.056    24909544.6934
        35.400          17.8004
 130896282.205 6 101997076.83443  24908733.555    24908729.4314
        37.500          20.4004
 105973637.222 8  82576893.61846  20166091.593    20166086.2964
        51.400          41.5004
 127915770.869 6  99674594.88543  24341584.713    24341591.9014
        39.700          19.3004
 118848629.455 7  92609295.10245  22616154.985    22616157.4254
        47.600          33.4004
 113145215.917 7  88165187.85245  21530778.488    21530772.1954
        47.100          35.3004
 114001984.519 7  88832768.80246  21693822.685    21693814.2234
        47.900          37.9004
 12 10 28  1 46 30.0000000  0 10G06G22G11G21G18G03G30G16G14G19
 106432948.324 8  82934768.95246  20253504.821    20253498.8214
        50.800          39.7004
 114705142.730 7  89380613.19646  21827655.601    21827646.6124
        46.700          37.1004
 126195947.421 6  98334542.40243  24014281.407    24014282.9094
        41.800          22.9004
 130940977.790 5 102031908.56642  24917241.865    24917238.3864
        34.800          16.9004
 130979282.540 5 102061752.44043  24924528.227    24924524.6304
        35.600          19.3004
 105961940.250 8  82567779.13246  20163865.983    20163860.2774
        50.300          41.7004
 128001453.383 6  99741360.43943  24357889.400    24357896.5884
        40.100          19.3004
 118918881.766 7  92664036.98845  22629523.187    22629525.6864
        44.200          32.3004
 113135943.979 7  88157963.07145  21529014.206    21529008.0884
        46.100          35.4004
 113933477.486 8  88779386.80246  21680786.161    21680778.1094
        48.000          38.5004
 12 10 28  1 47  0.0000000  0 10G06G22G11G21G18G03G30G16G14G19
 106438716.920 8  82939263.99546  20254602.696    20254596.3454
        49.700          40.0004
 114773970.987 8  89434245.61046  21840753.222    21840744.1754
        48.400          37.1004
 126122559.978 7  98277357.87443  24000315.585    24000317.2044
        42.500          22.0004
 130981496.615 5 102063481.66442  24924952.834    24924949.1784
        35.700          16.3004
 131062190.770 6 102126356.29743  24940306.123    24940301.7644
        37.500          19.3004
 105950787.558 8  82559088.77147  20161743.844    20161737.7854
        52.200          42.0004
 128086991.638 6  99808013.64643  24374167.831    24374174.2564
        39.800          19.0004
 118989325.276 7  92718927.84645  22642928.597    22642930.6274
        46.800          32.1004
 113127186.387 8  88151139.08445  21527347.514    21527341.1634
        48.500          34.9004
 113865237.784 8  88726213.13046  21667800.598    21667792.2544
        48.400          38.3004
 12 10 28  1 47 30.0000000  0 10G06G22G11G21G18G03G30G16G14G19
 106444975.054 8  82944140.48246  20255793.488    20255787.0774
        49.900          40.2004
 114842927.746 8  89487978.17346  21853874.902    21853866.1474
        48.100          37.3004
 126049125.700 6  98220136.85343  23986340.168    23986342.2564
        41.100          20.1004
 131022110.250 5 102095128.75442  24932680.247    24932676.1224
        35.100          16.9004
 131145006.032 5 102190887.74843  24956065.047    24956060.2784
        35.800          18.3004
 105940179.937 8  82550823.13947  20159725.408    20159719.2914
        52.300          42.3004
 128172383.219 6  99874552.49143  24390416.934    24390423.5944
        40.100          19.3004
 119059956.735 7  92773965.16545  22656369.568    22656371.4804
        47.200          31.2004
 113118943.772 8  88144716.40045  21525779.354    21525772.4754
        49.100          35.3004
 113797268.079 8  88673249.84946  21654865.894    21654857.9014
        48.600          38.3004
 12 10 28  1 48  0.0000000  0 10G06G22G11G21G18G03G30G16G14G19
 106451723.492 8  82949399.04046  20257077.523    20257071.1714
        48.900          40.3004
 114912011.097 7  89541809.37146  21867021.290    21867012.0084
        46.600          37.0004
 125975645.167 7  98162879.78843  23972357.895    23972358.9874
        42.400          20.9004
 131062820.060 5 102126850.62742  24940427.385    24940423.6124
        35.000          17.8004
 131227727.605 6 102255346.16243  24971807.528    24971801.2354
        37.800          18.3004
 105930118.392 8  82542983.01346  20157810.201    20157804.6704
        51.400          41.2004
 128257626.178 6  99940975.57243  24406638.046    24406645.0584
        40.000          19.9004
 119130773.564 7  92829146.92745  22669845.293    22669848.0264
        45.100          31.3004
 113111217.631 8  88138696.14845  21524308.809    21524302.1064
        49.100          35.7004
 113729571.411 8  88620499.30346  21641983.608    21641976.0254
        48.800          38.7004
 12 10 28  1 48 30.0000000  0 10G06G22G11G21G18G03G30G16G14G19
 106458962.785 8  82955040.07446  20258454.828    20258448.7114
        48.500          40.0004
 114981219.122 7  89595737.72746  21880190.864    21880181.9334
        46.200          36.7004
 125902119.083 7  98105587.19943  23958366.410    23958367.2684
        42.700          21.5004
 131103627.686 5 102158648.79542  24948193.521    24948190.2754
        33.700          17.4004
 131310354.137 6 102319730.50643  24987529.637    24987524.3404
        37.300          20.1004
 105920603.903 8  82535569.17446  20155999.925    20155994.2774
        51.100          41.4004
 128342718.071 6 100007280.90843  24422830.368    24422836.6764
        39.900          20.6004
 119201772.781 7  92884470.82845  22683356.175    22683358.7324
        43.900          30.9004
 113104009.014 8  88133079.17145  21522937.162    21522930.5184
        48.500          35.5004
 113662149.728 7  88567963.04046  21629153.265    21629146.0344
        47.000          38.5004
 12 10 28  1 49  0.0000000  0 10G06G22G11G21G18G03G30G16G14G19
 106466693.347 8  82961063.91546  20259925.912    20259919.7944
        48.300          40.0004
 115050549.762 7  89649761.60946  21893384.511    21893375.4634
        46.900          36.8004
 125828547.334 6  98048259.04143  23944364.369    23944365.8714
        41.400          20.1004
 131144533.139 5 102190523.23143  24955977.577    24955974.2734
        34.300          18.3004
 131392884.235 6 102384039.72043  25003236.396    25003230.8644
        37.500          19.6004
 105911636.756 8  82528581.82446  20154293.444    20154287.6204
        50.400          41.2004
 128427656.588 6 100073466.73743  24438993.545    24438999.9704
        39.100          21.1004
 119272951.405 7  92939934.53845  22696901.870    22696903.9004
        45.200          31.4004
 113097318.862 8  88127866.18745  21521663.984    21521656.8124
        48.200          35.7004
 113595005.549 7  88515643.02246  21616376.310    21616368.6694
        47.800          38.5004
 12 10 28  1 49 30.0000000  0 10G06G22G11G21G18G03G30G16G14G19
 106474916.124 8  82967471.30846  20261491.181    20261484.4194
        49.300          40.1004
 115120001.334 7  89703879.73546  21906599.981    21906591.2854
        47.000          36.9004
 125754931.595 6  97990896.54843  23930355.102    23930356.8974
        40.800          21.5004
 131185538.230 6 102222475.26242  24963780.310    24963776.9474
        36.300          17.4004
 131475317.491 6 102448273.47543  25018920.476    25018916.3524
        36.200          19.0004
 105903218.166 8  82522021.93946  20152691.637    20152685.3444
        50.200          41.2004
 128512439.673 6 100139531.49043  24455127.345    24455133.5944
        38.500          21.1004
 119344306.604 7  92995535.83545  22710479.669    22710482.3434
        47.300          31.9004
 113091148.461 7  88123058.19545  21520489.166    21520482.4624
        46.300          35.0004
 113528141.649 7  88463541.39246  21603652.302    21603644.0164
        46.500          38.3004
 12 10 28  1 50  0.0000000  0 10G06G22G11G21G18G03G30G16G14G19
 106483630.977 8  82974262.12246  20263149.154    20263143.1544
        48.800          40.1004
 115189571.036 7  89758089.91546  21919838.524    21919829.4174
        46.600          36.2004
 125681271.627 6  97933499.64943  23916339.504    23916339.6584
        41.200          20.4004
 131226643.620 5 102254505.44542  24971602.638    24971598.9834
        35.800          17.8004
 131557652.144 6 102512430.38343  25034588.731    25034584.0794
        36.900          18.6004
 105895348.534 8  82515889.80446  20151193.683    20151187.7424
        50.300          41.3004
 128597064.655 6 100205473.00543  24471231.091    24471238.4544
        38.400          19.6004
 119415835.133 7  93051272.17845  22724091.401    22724094.0754
        46.300          31.5004
 113085498.236 7  88118655.54645  21519413.713    21519407.2444
        46.900          35.5004
 113461560.047 7  88411659.73446  21590982.500    21590973.9214
        47.000          38.2004
 12 10 28  1 50 30.0000000  0 10G06G22G11G21G18G03G30G16G14G19
 106492838.897 8  82981437.15946  20264901.314    20264895.4904
        49.100          39.5004
 115259257.497 8  89812391.09146  21933099.928    21933090.4704
        48.400          36.0004
 125607568.575 6  97876069.17243  23902313.680    23902313.8344
        40.700          19.9004
 131267850.312 6 102286614.60142  24979445.005    24979439.9434
        36.700          17.4004
 131639887.623 6 102576510.05642  25050236.883    25050233.2274
        36.100          17.8004
 105888029.019 8  82510186.34546  20149801.032    20149794.9154
        49.300          41.2004
 128681529.702 6 100271289.92643  24487302.894    24487311.1374
        37.600          20.1004
 119487534.300 7  93107141.46745  22737735.440    22737738.1734
        45.100          31.7004
 113080369.606 7  88114659.31646  21518438.100    21518431.5144
        46.900          36.0004
 113395263.794 7  88360000.41746  21578366.491    21578358.2644
        47.200          38.3004
 12 10 28  1 51  0.0000000  0 10G06G22G11G21G18G03G30G16G14G19
 106502539.951 8  82988996.45546  20266747.415    20266741.3564
        49.700          40.0004
 115329058.265 7  89866781.32846  21946382.639    21946373.5914
        46.900          36.9004
 125533822.482 6  97818605.15043  23888279.384    23888279.5394
        40.500          18.6004
 131309159.784 5 102318803.89942  24987304.100    24987300.1514
        34.000          15.6004
 131722022.378 6 102640511.24443  25065867.594    25065861.9464
        36.700          19.9004
 105881260.073 8  82504911.90146  20148512.820    20148506.3514
        50.800          41.7004
 128765832.060 6 100336980.05343  24503346.927    24503352.9424
        38.400          19.9004
 119559400.865 7  93163141.19945  22751411.743    22751414.3594
        44.300          31.9004
 113075763.157 7  88111069.98445  21517562.043    21517554.7534
        47.000          35.5004
 113329254.855 7  88308564.99846  21565805.486    21565797.7874
        47.500          38.9004
 12 10 28  1 51 30.0000000  0 10G06G22G11G21G18G03G30G16G14G19
 106512733.693 8  82996939.65946  20268687.255    20268680.8454
        49.200          39.8004
 115398970.682 8  89921258.57146  21959686.488    21959677.7334
        48.800          37.3004
 125460033.414 6  97761107.64343  23874237.981    23874237.5494
        41.800          19.6004
 131350572.381 5 102351073.43042  24995184.092    24995180.7294
        33.700          16.3004
 131804054.614 6 102704432.53543  25081476.890    25081471.5934
        36.400          18.3004
 105875041.134 8  82500066.02346  20147329.623    20147323.3894
        50.500          41.2004
 128849969.016 6 100402541.29643  24519358.272    24519363.9354
        39.600          20.9004
 119631431.605 7  93219268.85145  22765118.386    22765120.9434
        46.200          30.9004
 113071679.068 7  88107887.65946  21516784.120    21516777.2414
        46.900          36.0004
 113263535.221 7  88257354.99746  21553299.255    21553291.4384
        47.200          38.5004
 12 10 28  1 52  0.0000000  0 10G06G22G11G21G18G03G30G16G14G19
 106523421.766 8  83005268.05146  20270721.221    20270714.8704
        48.800          39.3004
 115468993.755 7  89975822.01446  21973011.172    21973002.8274
        47.000          36.2004
 125386203.014 6  97703577.95843  23860187.752    23860187.7304
        40.500          19.9004
 131392089.088 5 102383424.15542  25003084.727    25003081.3064
        33.700          16.3004
 131885984.105 6 102768273.73942  25097069.014    25097062.1934
        38.700          17.4004
 105869374.038 8  82495650.14946  20146251.173    20146245.2314
        50.800          41.0004
 128933939.239 6 100467972.57943  24535336.735    24535342.7504
        39.200          21.3004
 119703623.825 7  93275522.36045  22778856.590    22778858.8544
        46.000          31.6004
 113068119.032 8  88105113.70145  21516106.250    21516099.5474
        48.300          35.5004
 113198108.021 7  88206372.86746  21540848.384    21540840.3324
        46.900          38.7004
 12 10 28  1 52 30.0000000  0 10G06G22G11G21G18G03G30G16G14G19
 106534603.953 7  83013981.47446  20272848.773    20272842.5974
        47.500          40.3004
 115539124.963 7  90030469.74346  21986356.951    21986348.0204
        47.200          36.4004
 125312331.334 6  97646016.05443  23846131.013    23846130.1124
        40.600          19.0004
 131433711.909 5 102415857.54642  25011005.040    25011001.6194
        35.100          16.3004
 131967809.968 6 102832034.23943  25112638.972    25112633.7344
        38.300          18.6004
 105864259.407 8  82491664.78646  20145277.763    20145271.9384
        49.800          41.1004
 129017740.053 6 100533271.88243  24551282.089    24551289.7454
        37.800          20.9004
 119775974.219 7  93331899.11545  22792624.486    22792626.7504
        46.400          32.2004
 113065083.618 7  88102748.52446  21515529.048    21515522.4624
        47.400          36.2004
 113132975.481 7  88155620.33146  21528453.932    21528446.0574
        47.500          39.0004
 12 10 28  1 53  0.0000000  0 10G06G22G11G21G18G03G30G16G14G19
 106546280.183 8  83023079.85946  20275070.550    20275064.6684
        48.600          39.8004
 115609362.003 7  90085199.92746  21999722.486    21999713.4974
        47.500          36.0004
 125238418.761 6  97588422.32043  23832064.139    23832064.9384
        40.000          20.1004
 131475440.654 6 102448373.46042  25018946.708    25018942.6424
        36.300          17.4004
 132049530.411 6 102895712.55843  25128191.102    25128184.1654
        39.900          19.3004
 105859697.366 8  82488109.99946  20144409.536    20144403.0094
        50.700          41.7004
 129101368.779 6 100598437.11043  24567196.773    24567204.2534
        38.900          20.6004
 119848479.558 7  93388396.60645  22806422.188    22806423.8664
        46.400          31.9004
 113062573.208 7  88100792.44346  21515051.120    21515044.7694
        46.500          36.1004
 113068139.380 8  88105098.80946  21516116.317    21516108.3834
        48.500          38.3004
 12 10 28  1 53 30.0000000  0 10G06G22G11G21G18G03G30G16G14G19
 106558451.087 8  83032563.70846  20277386.944    20277380.5934
        48.600          40.3004
 115679703.035 7  90140011.14146  22013107.991    22013098.9444
        47.300          36.7004
 125164466.069 6  97530797.34343  23817991.907    23817992.2374
        40.600          20.4004
 131517276.545 5 102480972.94342  25026907.999    25026903.8164
        34.300          16.3004
 132131144.568 6 102959308.06843  25143720.771    25143715.1814
        37.800          18.6004
 105855688.679 8  82484986.40646  20143646.613    20143640.5544
        50.200          41.0004
 129184823.484 6 100663466.75543  24583077.926    24583084.8214
        39.400          19.9004
 119921137.244 7  93445012.83145  22820248.660    22820250.9244
        45.200          31.6004
 113060588.992 7  88099246.37945  21514673.943    21514666.8884
        47.400          35.9004
 113003602.711 8  88054810.60946  21503835.527    21503827.5344
        48.300          38.9004
 12 10 28  1 54  0.0000000  0 10G06G22G11G21G18G03G30G16G14G19
 106571117.885 8  83042433.95746  20279797.401    20279790.8154
        50.000          40.0004
 115750147.359 8  90194902.83446  22026512.701    22026503.5944
        48.400          36.5004
 125090474.933 6  97473142.40043  23803910.657    23803910.7524
        41.700          20.1004
 131559221.679 5 102513657.43642  25034889.957    25034884.1924
        35.400          15.6004
 132212652.412 6 103022820.73742  25159230.882    25159224.9994
        39.200          16.9004
 105852234.823 8  82482295.14646  20142988.957    20142983.0744
        48.900          41.9004
 129268102.788 6 100728359.69643  24598924.768    24598932.5414
        40.400          20.4004
 119993945.161 7  93501746.09345  22834103.108    22834105.7244
        46.200          31.7004
 113059132.337 7  88098111.40745  21514396.115    21514389.6464
        46.200          35.7004
 112939368.975 7  88004758.45946  21491611.537    21491603.7794
        47.000          38.8004
 12 10 28  1 54 30.0000000  0 10G06G22G11G21G18G03G30G16G14G19
 106584279.648 8  83052689.89346  20282301.458    20282295.7514
        48.800          39.8004
 115820691.235 8  90249872.10946  22039936.775    22039927.7274
        48.400          37.0004
 125016444.872 6  97415457.07943  23789823.670    23789822.1834
        41.400          19.3004
 131601276.126 5 102546427.21842  25042891.666    25042886.6044
        35.200          14.8004
 132294051.911 6 103086249.06343  25174722.166    25174715.4044
        39.100          19.9004
 105849335.104 8  82480035.66846  20142437.411    20142431.0004
        49.000          41.3004
 129351203.561 6 100793113.54343  24614738.569    24614745.6984
        40.200          19.3004
 120066899.101 7  93558593.14445  22847985.495    22847988.4634
        44.900          31.0004
 113058202.956 7  88097387.28646  21514219.262    21514212.9694
        45.900          36.0004
 112875439.130 8  87954943.10146  21479446.786    21479438.0904
        48.300          38.8004
 12 10 28  1 55  0.0000000  0 10G06G22G11G21G18G03G30G16G14G19
 106597937.331 8  83063332.27046  20284900.769    20284894.7114
        50.000          40.3004
 115891332.976 8  90304917.65746  22053379.840    22053370.2644
        48.900          36.2004
 124942376.837 6  97357742.16443  23775728.643    23775727.4494
        40.000          19.0004
 131643441.243 5 102579283.21942  25050916.455    25050910.5724
        33.900          13.9004
 132375342.775 6 103149592.64243  25190188.890    25190183.5944
        38.500          19.0004
 105846990.375 8  82478208.66146  20141991.263    20141984.9704
        49.100          41.3004
 129434123.850 6 100857726.75443  24630518.498    24630524.8644
        40.400          19.0004
 120139996.474 7  93615551.96445  22861896.474    22861899.1484
        44.300          31.4004
 113057802.096 7  88097075.00546  21514142.971    21514136.5024
        46.000          36.1004
 112811816.088 7  87905366.81346  21467339.223    21467330.4684
        47.500          38.4004
 12 10 28  1 55 30.0000000  0 10G06G22G11G20G18G03G30G16G14G19
 106612087.128 8  83074358.10746  20287593.800    20287587.3314
        48.900          40.6004
 115962067.345 8  90360035.38145  22066840.045    22066830.7634
        49.500          35.7004
 124868267.698 6  97299995.23342  23761625.621    23761624.7204
        37.900          16.9004
 132362905.806 6                  25187823.566
        36.900
 132456519.629 6 103212847.39043  25205637.402    25205631.2854
        39.200          19.3004
 105845197.678 8  82476811.81446  20141650.170    20141643.6424
        49.500          41.7004
 129516858.124 6 100922195.01343  24646262.219    24646269.0544
        40.000          18.6004
 120213230.868 7  93672617.53945  22875832.340    22875834.8394
        43.700          30.0004
 113057926.628 7  88097172.11745  21514166.619    21514160.0334
        47.600          35.5004
 112748498.770 7  87856028.74746  21455290.207    21455282.0384
        47.100          38.5004
 12 10 28  1 56  0.0000000  0 10G06G22G11G20G18G03G30G16G14G19
 106626738.836 8  83085775.04946  20290381.536    20290375.0684
        50.500          40.3004
 116032901.718 8  90415231.03145  22080319.861    22080309.7584
        49.200          35.5004
 124794127.908 6  97242224.41843  23747515.959    23747516.3474
        36.200          18.6004
 132283249.877 6 103077882.79842  25172664.707    25172671.8364
        37.300          16.9004
 132537591.173 6 103276020.12242  25221065.710    25221058.0694
        37.800          16.9004
 105843966.447 8  82475852.45346  20141415.758    20141409.4654
        49.500          41.1004
 129599413.221 6 100986523.66143  24661970.873    24661979.0574
        38.700          19.3004
 120286608.626 7  93729794.83545  22889795.134    22889798.6874
        44.300          30.4004
 113058586.430 7  88097686.32245  21514292.027    21514285.2074
        46.600          35.9004
 112685498.769 7  87806937.94746  21443301.557    21443293.0954
        47.800          38.7004
 12 10 28  1 56 30.0000000  0 10G06G22G11G20G18G03G30G16G14G19
 106641884.996 8  83097577.28746  20293263.415    20293257.3564
        51.100          40.1004
 116103826.509 8  90470497.13745  22093815.656    22093806.8434
        48.300          35.7004
 124719950.212 6  97184424.07743  23733400.734    23733400.1854
        38.900          20.1004
 132203780.776 6 103015958.73842  25157541.922    25157548.9934
        37.100          16.3004
 132618548.927 6 103339104.20643  25236470.479    25236463.6004
        40.200          20.4004
 105843289.718 8  82475325.18246  20141287.005    20141280.8294
        50.700          41.4004
 129681779.517 6 101050705.18143  24677645.447    24677653.3384
        39.700          19.9004
 120360119.036 7  93787075.51444  22903784.117    22903787.0854
        43.900          29.1004
 113059774.730 7  88098612.35846  21514518.474    21514511.3024
        45.800          36.1004
 112622811.018 8  87758090.45846  21431372.750    21431364.2304
        48.100          39.6004
 12 10 28  1 57  0.0000000  0 10G06G22G11G20G18G03G30G16G14G19
 106657526.807 8  83109765.73846  20296240.365    20296234.1894
        50.800          40.1004
 116174840.823 8  90525832.99746  22107328.956    22107320.6114
        48.400          36.5004
 124645736.590 6  97126595.72043  23719278.493    23719277.0064
        39.200          20.6004
 132124500.182 6 102954181.52542  25142455.490    25142462.1504
        36.700          14.8004
 132699393.034 6 103402099.68743  25251854.674    25251849.0844
        38.800          18.6004
 105843168.589 8  82475230.84346  20141263.933    20141257.5234
        51.100          41.0004
 129763955.938 6 101114738.78343  24693282.722    24693291.0234
        38.600          19.6004
 120433760.274 7  93844458.13745  22917797.077    22917801.0414
        44.900          30.0004
 113061493.308 7  88099951.58845  21514845.870    21514838.2294
        47.300          35.3004
 112560439.106 8  87709489.07446  21419503.575    21419495.4064
        48.800          39.3004
 12 10 28  1 57 30.0000000  0 10G06G22G11G20G18G03G30G16G14G19
 106673665.404 8  83122341.28146  20299311.292    20299304.9994
        51.100          40.1004
 116245943.693 8  90581237.84746  22120859.895    22120850.7304
        48.500          36.8004
 124571488.673 6  97068740.60743  23705149.338    23705147.6174
        39.200          19.3004
 132045409.508 5 102892552.32642  25127405.224    25127411.6494
        35.200          14.8004
 132780123.419 6 103465006.60143  25267217.364    25267210.9544
        41.000          20.6004
 105843604.973 8  82475570.92546  20141346.542    20141340.4844
        50.600          41.0004
 129845941.350 6 101178623.45043  24708884.263    24708892.3884
        39.000          20.4004
 120507530.450 7  93901941.23244  22931835.521    22931839.2504
        45.700          29.8004
 113063743.662 7  88101705.18446  21515273.393    21515266.5734
        46.000          36.0004
 112498386.315 8  87661136.35646  21407694.960    21407686.7334
        48.600          39.2004
 12 10 28  1 58  0.0000000  0 10G06G22G11G20G18G03G30G16G14G19
 106690299.580 8  83135303.00846  20302476.349    20302470.1734
        50.900          39.6004
 116317131.823 8  90636709.15546  22134406.739    22134397.3984
        48.200          36.8004
 124497205.617 6  97010858.09743  23691012.162    23691012.0234
        38.700          20.4004
 131966509.022 6 102831071.31542  25112390.869    25112397.2944
        36.300          16.9004
 132860737.650 6 103527823.03543  25282557.854    25282551.9124
        41.100          19.3004
 105844597.580 8  82476344.43546  20141535.502    20141529.0914
        49.700          41.4004
 129927732.279 6 101242356.64143  24724448.543    24724456.4334
        39.400          20.1004
 120581424.851 7  93959521.15144  22945897.605    22945901.1004
        45.600          29.9004
 113066524.889 7  88103872.45546  21515802.707    21515795.8284
        47.900          36.2004
 112436653.749 8  87613033.16946  21395948.045    21395938.8804
        48.500          39.2004
 12 10 28  1 58 30.0000000  0 10G06G22G11G20G18G03G30G16G14G19
 106707430.207 8  83148651.58946  20305736.218    20305730.0434
        50.100          40.1004
 116388404.182 8  90692246.09145  22147969.530    22147959.8374
        49.600          35.8004
 124422889.149 6  96952949.59743  23676869.804    23676869.9584
        39.200          21.7004
 131887799.425 5 102769738.99442  25097412.412    25097420.0694
        34.200          15.6004
 132941235.977 6 103590549.18043  25297876.672    25297870.0864
        41.200          20.1004
 105846147.618 8  82477552.30046  20141830.539    20141824.1884
        50.000          41.3004
 130009327.507 6 101305937.31243  24739976.566    24739984.0464
        40.300          20.6004
 120655441.957 7  94017196.67544  22959983.225    22959986.3104
        46.400          28.9004
 113069838.176 7  88106454.31845  21516432.829    21516426.1844
        47.000          35.8004
 112375244.512 8  87565181.91946  21384262.057    21384253.7714
        48.300          39.5004
 12 10 28  1 59  0.0000000  0 10G06G22G11G20G18G03G30G16G14G19
 106725058.110 8  83162387.64546  20309090.801    20309084.8014
        50.500          39.8004
 116459759.392 8  90747847.58446  22161547.595    22161537.9614
        49.700          36.2004
 124348540.834 6  96895016.26943  23662722.355    23662721.5124
        39.900          21.8004
 131809282.645 5 102708556.88742  25082471.509    25082479.0484
        34.600          12.6004
 133021617.777 6 103653184.46943  25313172.806    25313166.5134
        40.900          20.1004
 105848256.047 8  82479195.27646  20142231.825    20142225.1804
        51.500          41.3004
 130090725.494 6 101369364.33943  24755466.339    24755473.2344
        40.300          19.0004
 120729578.954 7  94074965.64044  22974091.261    22974093.9354
        46.700          28.9004
 113073684.860 7  88109451.81745  21517164.711    21517158.4184
        46.600          35.9004
 112314161.631 7  87517584.97746  21372638.028    21372629.6254
        47.600          39.4004
 12 10 28  1 59 30.0000000  0 10G06G22G11G20G18G03G30G16G14G19
 106743183.189 8  83176511.10346  20312539.897    20312533.7214
        50.800          39.8004
 116531195.352 8  90803512.01945  22175141.872    22175131.8864
        49.500          35.9004
 124274160.851 6  96837058.26543  23648567.620    23648566.7774
        40.100          21.5004
 131730958.657 5 102647525.07342  25067566.960    25067574.7924
        34.500          16.3004
 133101881.871 6 103715728.05943  25328444.801    25328439.9744
        38.100          20.1004
 105850923.107 8  82481273.54146  20142739.221    20142732.8694
        49.000          41.3004
 130171924.037 6 101432635.92042  24770917.227    24770925.1764
        38.700          17.8004
 120803832.939 7  94132825.76145  22988221.247    22988223.7464
        46.600          30.2004
 113078065.290 7  88112865.21745  21517998.398    21517992.1644
        45.000          35.9004
 112253407.511 8  87470244.21746  21361077.139    21361068.3854
        48.800          39.4004
 12 10 28  2  0  0.0000000  0 10G06G22G11G20G18G03G30G16G14G19
 106761804.328 8  83191021.09146  20316083.134    20316077.6614
        50.200          39.9004
 116602709.526 8  90859237.38446  22188750.258    22188740.5654
        48.600          36.3004
 124199749.118 6  96779075.51943  23634406.334    23634406.1364
        40.900          21.7004
 131652827.176 5 102586643.19242  25052699.323    25052707.1554
        35.700          15.6004
 133182026.480 6 103778178.53943  25343696.577    25343689.9334
        36.900          18.6004
 105854147.482 8  82483786.07446  20143352.483    20143346.3664
        51.200          41.7004
 130252919.922 6 101495749.63142  24786331.411    24786337.0754
        37.400          17.8004
 120878199.743 7  94190773.79945  23002372.982    23002375.8904
        45.800          30.2004
 113082979.223 7  88116694.32045  21518933.427    21518926.6654
        47.300          35.6004
 112192983.573 8  87423160.73846  21349578.769    21349570.1314
        48.500          39.2004
 12 10 28  2  0 30.0000000  0 10G06G22G11G20G18G03G30G16G14G19
 106780924.251 8  83205919.76346  20319721.725    20319715.7254
        50.500          40.0004
 116674301.855 8  90915023.65645  22202373.460    22202363.9434
        48.700          35.7004
 124125309.110 6  96721070.70343  23620241.086    23620240.2444
        40.500          21.8004
 131574891.561 5 102525913.94142  25037869.638    25037876.7084
        35.800          16.9004
 133262053.529 6 103840537.44243  25358924.101    25358918.6874
        37.100          19.3004
 105857932.281 8  82486735.29946  20144073.049    20144067.0494
        51.100          40.7004
 130333713.757 5 101558705.86642  24801704.223    24801711.3524
        35.100          15.6004
 120952679.078 7  94248809.51444  23016545.550    23016549.3964
        44.900          28.3004
 113088428.864 7  88120940.87245  21519970.464    21519963.8784
        47.900          35.5004
 112132894.384 8  87376338.09246  21338144.068    21338135.5484
        49.100          40.1004
 12 10 28  2  1  0.0000000  0 10G06G22G11G20G18G03G30G16G14G19
 106800539.932 8  83221204.74246  20323454.221    20323448.1634
        50.800          39.5004
 116745967.837 8  90970867.32445  22216011.476    22216001.5504
        48.900          35.9004
 124050838.497 6  96663042.06243  23606069.773    23606068.5794
        40.100          21.1004
 131497149.711 5 102465335.68042  25023074.368    25023083.3144
        35.200          17.4004
 133341958.599 6 103902801.24342  25374130.861    25374123.5724
        39.200          17.8004
 105862274.767 8  82490119.10046  20144899.572    20144893.2794
        51.500          41.1004
 130414300.377 5 101621500.69442  24817039.068    24817046.9584
        34.800          13.9004
 121027264.940 7  94306928.24744  23030738.877    23030742.1964
        45.000          28.9004
 113094412.118 8  88125603.22745  21521108.971    21521102.2684
        48.200          35.9004
 112073139.733 8  87329776.13146  21326772.546    21326764.0854
        48.500          39.7004
 12 10 28  2  1 30.0000000  0 10G06G22G11G20G18G03G30G16G14G19
 106820672.849 8  83236892.75446  20327285.619    20327279.1504
        50.700          39.9004
 116817727.096 8  91026783.67546  22229666.960    22229657.1514
        48.900          36.0004
 123976359.711 6  96605007.07243  23591897.836    23591895.5874
        41.600          21.3004
 131419623.662 5 102404925.56142  25008322.079    25008331.1424
        34.300          17.4004
 133421762.953 6 103964986.58943  25389315.964    25389309.4954
        36.500          18.3004
 105867196.853 8  82493954.52046  20145835.991    20145829.8154
        50.700          41.4004
                 101684269.22252  24832337.170
        33.400          16.9004
 121101976.149 7  94365144.64644  23044956.207    23044958.9404
        45.700          29.5004
 113100950.765 7  88130698.34546  21522353.343    21522346.9334
        47.900          36.0004
 112013743.449 8  87283493.41446  21315469.725    21315461.2634
        48.200          39.4004
 12 10 28  2  2  0.0000000  0 10G06G22G11G20G18G03G30G16G14G19
 106841281.529 8  83252951.48746  20331207.565    20331200.8034
        51.100          40.5004
 116889536.403 8  91082739.01345  22243330.700    22243321.6524
        48.000          35.5004
 123901831.901 7  96546933.85843  23577715.209    23577713.3714
        42.900          22.2004
 131342272.539 6 102344651.78242  24993603.801    24993611.4574
        36.700          17.4004
 133501424.052 6 104027060.29042  25404474.855    25404467.8584
        36.400          17.8004
 105872656.827 8  82498209.07946  20146874.924    20146868.8654
        50.700          41.5004
 130574994.572 5 101746773.96342  24847593.967    24847601.0384
        33.700          15.6004
 121176767.856 7  94423423.77144  23059188.829    23059191.5624
        46.000          28.4004
 113108003.918 7  88136194.35345  21523695.442    21523688.7984
        47.200          35.5004
 111954666.361 7  87237459.40846  21304227.917    21304219.5144
        47.000          38.8004
 12 10 28  2  2 30.0000000  0 10G06G22G11G20G18G03G30G16G14G19
 106862385.921 8  83269396.48446  20335223.569    20335217.2174
        50.800          40.8004
 116961413.896 7  91138747.48745  22257008.750    22256999.9954
        47.900          35.3004
 123827275.905 6  96488838.69543  23563527.201    23563525.3634
        41.800          22.9004
 131265117.384 6 102284530.77242  24978921.214    24978928.8124
        36.500          17.8004
 133580961.173 5 104089037.45242  25419608.836    25419603.5984
        35.300          16.3004
 105878675.141 8  82502898.70446  20148020.299    20148014.4754
        48.900          41.3004
 130654949.478 5 101809076.53142  24862809.656    24862816.4334
        33.700          16.3004
 121251657.366 7  94481779.13044  23073440.189    23073442.5704
        45.900          27.7004
 113115591.911 7  88142107.13646  21525139.249    21525132.1944
        45.500          36.2004
 111895930.853 8  87191691.56846  21293050.589    21293042.4794
        48.100          39.5004
 12 10 28  2  3  0.0000000  0 10G06G22G11G20G18G03G30G16G14G19
 106883987.834 8  83286229.16846  20339334.092    20339327.9744
        50.600          40.2004
 117033359.391 8  91194808.93845  22270700.014    22270691.0844
        48.900          35.7004
 123752694.610 7  96430723.80143  23549334.164    23549333.3804
        42.400          22.6004
 131188160.222 6 102224563.98742  24964276.402    24964284.4694
        36.500          16.9004
 133660374.713 6 104150918.30142  25434721.580    25434715.2874
        37.600          17.4004
 105885253.691 8  82508024.87846  20149272.071    20149265.6024
        48.900          41.5004
 130734691.133 5 101871212.83842  24877983.670    24877990.8584
        33.700          14.8004
 121326643.878 7  94540210.07444  23087708.840    23087712.1014
        45.000          27.5004
 113123716.667 7  88148438.17645  21526684.879    21526678.4694
        45.600          35.5004
 111837541.276 8  87146193.29446  21281939.902    21281931.4414
        49.300          40.3004
 12 10 28  2  3 30.0000000  0 10G06G22G11G20G18G03G30G16G14G19
 106906086.157 8  83303448.65646  20343538.966    20343532.9664
        50.800          40.5004
 117105370.344 7  91250921.39945  22284402.985    22284394.1724
        47.600          35.3004
 123678087.898 7  96372589.10543  23535136.849    23535135.3044
        42.400          22.6004
 131111400.831 6 102164751.33942  24949670.490    24949678.4984
        37.500          17.4004
 133739663.275 5 104212701.81742  25449807.578    25449802.0464
        35.200          14.8004
 105892391.687 8  82513586.97646  20150630.009    20150624.1274
        50.000          41.2004
 130814216.664 5 101933180.78942  24893117.643    24893122.9554
        34.500          16.3004
 121401723.203 7  94598713.34644  23101996.101    23101999.6544
        44.700          27.8004
 113132377.732 8  88155187.11845  21528333.227    21528326.2894
        48.000          35.5004
 111779499.075 8  87100965.69046  21270894.571    21270886.2264
        49.200          40.2004
 12 10 28  2  4  0.0000000  0 10G06G22G11G20G31G03G30G16G14G19
 106928671.410 8  83321047.58446  20347836.940    20347830.7654
        50.000          39.8004
 117177435.407 8  91307076.03245  22298116.547    22298107.0894
        48.300          35.6004
 123603446.945 7  96314427.73043  23520933.283    23520930.6824
        42.600          22.8004
 131034830.494 6 102105086.06443  24935100.986    24935108.4084
        39.500          20.9004
 131381663.626 5                  25001032.923
        34.700
 105900079.460 8  82519577.47646  20152093.444    20152086.8584
        49.600          41.7004
 130893514.708 5                  24908208.209
        34.800
 121476883.173 7  94657279.44244  23116298.724    23116303.0984
        45.100          28.9004
 113141565.883 7  88162346.76145  21530081.881    21530074.5334
        47.600          35.9004
 111721797.084 8  87056003.19646  21259914.018    21259905.2634
        50.000          39.6004
 12 10 28  2  4 30.0000000  0 10G06G22G11G20G31G03G30G16G14G19
 106951761.801 8  83339040.10746  20352231.155    20352224.8044
        51.000          40.5004
 117249570.964 8  91363285.59345  22311843.770    22311834.3124
        48.000          35.7004
 123528790.877 7  96256254.57243  23506726.454    23506723.4434
        42.300          22.0004
 130958468.015 6 102045582.74942  24920568.265    24920576.7424
        36.700          17.8004
 131342352.211 6 102344668.13343  24993553.105    24993557.0114
        38.300          19.6004
 105908335.605 8  82526010.86446  20153664.320    20153657.9684
        50.000          40.8004
 130972601.458 5                  24923256.330
        32.000
 121552139.200 7  94715920.38744  23130619.955    23130623.9184
        44.900          28.9004
 113151299.718 7  88169931.62145  21531934.352    21531926.7704
        46.600          35.4004
 111664456.204 8  87011322.08246  21249002.708    21248993.8954
        50.200          39.8004
 12 10 28  2  5  0.0000000  0 10G06G22G11G20G31G03G30G16G14G19
 106975347.478 8  83357418.58246  20356719.245    20356712.8934
        50.400          40.0004
 117321765.593 7  91419541.18945  22325581.561    22325572.1624
        46.200          34.7004
 123454111.130 6  96198062.96743  23492514.690    23492512.1484
        41.600          21.5004
 130882304.603 6 101986234.53143  24906075.113    24906083.5314
        37.200          20.6004
 131302797.623 6 102313846.69843  24986025.683    24986031.5234
        39.300          18.3004
 105917150.422 8  82532879.58246  20155341.644    20155335.0584
        49.100          41.7004
 131051465.478 5                  24938262.700
        30.100
 121627478.529 7  94774626.24244  23144957.086    23144959.9954
        45.300          28.6004
 113161569.635 7  88177934.22245  21533888.610    21533881.5554
        45.900          35.3004
 111607468.935 8  86966916.49746  21238158.320    21238149.2134
        49.000          39.7004
 12 10 28  2  5 30.0000000  0 10G06G22G11G20G31G03G30G16G14G19
 106999429.118 8  83376183.51646  20361301.871    20361295.6954
        51.500          40.9004
 117394018.484 7  91475842.17345  22339330.632    22339321.4674
        46.700          34.7004
 123379409.353 7  96139854.15843  23478298.878    23478296.3364
        42.100          22.8004
 130806341.449 6 101927042.46243  24891619.479    24891628.5424
        37.700          18.6004
 131263002.104 6 102282837.48243  24978452.283    24978458.2984
        37.900          18.6004
 105926524.875 8  82540184.38146  20157125.684    20157118.9814
        50.900          41.2004
 131130105.477 5                  24953228.780
        30.800
 121702899.155 7  94833395.46244  23159308.785    23159312.2804
        45.000          29.7004
 113172376.713 7  88186355.38645  21535944.782    21535937.9034
        46.600          35.5004
 111550838.329 8  86922788.84946  21227381.262    21227372.8594
        49.800          39.8004
 12 10 28  2  6  0.0000000  0 10G06G22G11G20G31G03G30G16G14G19
 107024006.257 8  83395334.54546  20365978.672    20365971.9684
        50.300          41.0004
 117466327.630 7  91532186.99245  22353090.468    22353081.1284
        45.400          34.3004
 123304686.218 6  96081628.68843  23464079.326    23464076.3154
        41.800          22.3004
 130730578.871 6 101868006.67443  24877202.853    24877211.7414
        37.600          19.0004
 131222967.232 5 102251641.72142  24970832.904    24970839.6814
        35.700          17.4004
 105936458.568 8  82547924.95846  20159015.878    20159009.5854
        50.200          41.2004
 131208519.590 4                  24968149.681
        29.900
 121778398.014 7  94892225.63444  23173675.518    23173679.3064
        45.400          27.1004
 113183721.049 7  88195195.18245  21538103.570    21538095.9874
        46.700          35.5004
 111494566.349 8  86878940.65146  21216673.280    21216664.5254
        50.300          40.2004
 12 10 28  2  6 30.0000000  0 10G06G22G11G20G31G03G30G16G14G19
 107049079.012 8  83414871.78846  20370749.817    20370743.4074
        50.200          39.9004
 117538691.215 7  91588574.21645  22366860.328    22366852.0424
        45.100          34.7004
 123229942.662 7  96023387.31843  23449855.749    23449852.9144
        42.300          22.8004
 130655017.977 6 101809128.06443  24862824.094    24862832.5124
        37.700          18.3004
 131182695.260 6 102220261.23742  24963169.391    24963175.8164
        37.400          16.9004
 105946951.741 8  82556101.49546  20161012.582    20161006.3484
        49.000          41.2004
 131286709.987 4                  24983027.752
        28.300
 121853972.377 7  94951114.65744  23188056.788    23188060.1664
        44.300          27.8004
 113195603.202 7  88204454.07345  21540364.434    21540357.6134
        46.000          35.8004
 111438655.960 8  86835374.20246  21206034.118    21206025.0704
        50.300          39.8004
 12 10 28  2  7  0.0000000  0 11G06G22G11G20G31G01G03G30G16G14G19
 107074646.993 8  83434794.91446  20375615.257    20375609.0224
        50.000          39.9004
 117611107.530 7  91645002.53045  22380641.387    22380631.8714
        45.200          34.3004
 123155179.727 6  95965130.84743  23435627.676    23435625.6614
        39.900          22.6004
 130579659.277 6 101750407.07142  24848483.827    24848492.1874
        37.900          17.8004
 131142187.689 6 102188697.16842  24955461.058    24955466.6044
        37.700          17.8004
 129306041.862 5                  24606121.711
        35.500
 105958004.291 8  82564713.90346  20163115.896    20163109.9544
        50.000          41.3004
                                  24997862.121
        28.900
 121929619.329 7  95010060.25544  23202452.454    23202455.3634
        44.500          26.0004
 113208022.880 7  88214131.81645  21542728.028    21542720.6214
        46.400          35.7004
 111383109.277 8  86792091.17246  21195463.653    21195454.9574
        49.900          40.6004
 12 10 28  2  7 30.0000000  0 11G06G22G11G20G31G01G03G30G16G14G19
 107100709.418 8  83455103.31746  20380575.263    20380568.5014
        50.900          39.3004
 117683574.118 7  91701470.01445  22394431.086    22394422.2734
        45.800          35.1004
 123080397.886 6  95906859.65943  23421397.600    23421394.4724
        41.300          23.0004
 130504502.718 6 101691843.62743  24834181.388    24834189.9234
        36.900          19.3004
 131101445.955 6 102156950.58543  24947710.211    24947714.1164
        40.100          18.6004
 129249345.913 6 100713798.81243  24595331.246    24595338.3754
        36.600          21.5004
 105969615.478 8  82573761.62746  20165325.546    20165319.3704
        51.000          41.2004
                                  25012652.246
        27.600
 122005335.493 7  95069059.76744  23216860.403    23216864.3674
        43.300          26.7004
 113220979.859 7  88224228.24046  21545193.757    21545186.1754
        46.900          36.4004
 111327928.057 8  86749092.90346  21184962.753    21184954.4684
        49.500          40.2004
 12 10 28  2  8  0.0000000  0 11G06G22G11G20G31G01G03G30G16G14G19
 107127265.945 8  83475796.72946  20385628.310    20385622.0174
        50.200          40.0004
 117756089.274 7  91757975.36745  22408229.923    22408220.4074
        44.900          34.3004
 123005597.834 6  95848574.26943  23407164.229    23407160.9254
        40.800          22.3004
 130429548.342 6 101633437.71143  24819918.125    24819926.6604
        38.000          19.3004
 131060471.777 6 102125022.88643  24939910.808    24939916.4714
        38.600          18.6004
 129192555.277 5 100669546.89942  24584523.765    24584530.7184
        34.800          17.8004
 105981785.109 8  82583244.49346  20167641.258    20167634.8484
        50.700          41.3004
 131519893.588 5                  25027401.615
        30.500
 122081117.821 7  95128110.83244  23231280.981    23231285.0624
        43.000          26.8004
 113234473.767 7  88234743.04745  21547760.877    21547753.6464
        46.500          35.9004
 111273114.994 8  86706381.52346  21174532.417    21174523.4284
        49.800          40.4004
 12 10 28  2  8 30.0000000  0 11G06G22G11G20G31G01G03G30G16G14G19
 107154315.800 8  83496874.54746  20390775.498    20390769.7324
        50.500          40.0004
 117828651.179 7  91814517.13445  22422038.479    22422028.8464
        45.800          34.0004
 122930780.064 6  95790275.05043  23392926.184    23392922.4694
        39.600          22.6004
 130354796.539 6 101575189.67843  24805694.023    24805701.9134
        38.300          20.1004
 131019266.716 6 102092915.31642  24932069.736    24932074.9314
        39.600          17.8004
 129135669.742 6 100625220.99843  24573698.938    24573705.5404
        36.900          20.9004
 105994512.312 8  82593161.84346  20170063.132    20170056.4874
        50.600          41.1004
 131597139.813 4                  25042099.948
        26.800
 122156962.977 7  95187210.85044  23245714.506    23245718.3524
        43.400          26.9004
 113248504.754 7  88245676.35945  21550431.240    21550423.7744
        47.300          35.3004
 111218671.527 8  86663958.14146  21164171.758    21164163.2964
        49.700          40.1004
 12 10 28  2  9  0.0000000  0 10G06G22G11G20G31G01G03G16G14G19
 107181858.805 8  83518336.65046  20396016.912    20396010.6194
        50.000          40.4004
 117901257.763 7  91871093.73445  22435854.711    22435846.0744
        45.300          34.4004
 122855945.705 6  95731962.91043  23378684.801    23378681.7904
        39.100          22.2004
 130280247.840 6 101517099.85643  24791507.364    24791515.7834
        37.300          20.4004
 130977832.877 6 102060629.42142  24924186.514    24924190.1854
        40.900          16.9004
 129078689.105 6 100580820.99042  24562855.320    24562862.0394
        37.200          17.8004
 106007797.384 8  82603513.88246  20172590.952    20172584.5414
        50.000          40.7004
 122232868.328 6  95246357.78044  23260158.947    23260162.7354
        41.700          27.4004
 113263072.485 7  88257027.93645  21553203.705    21553195.5954
        47.500          35.6004
 111164600.254 8  86621824.78046  21153882.761    21153873.7724
        50.300          40.0004
 12 10 28  2  9 30.0000000  0 10G06G22G11G20G31G01G03G16G14G19
 107209895.803 8  83540183.67646  20401352.055    20401345.7624
        50.400          39.2004
 117973908.577 7  91927704.77245  22449679.949    22449670.9024
        45.000          34.5004
 122781097.075 6  95673639.64243  23364441.156    23364438.6144
        39.700          22.2004
 130205904.197 6 101459169.87943  24777359.058    24777368.2974
        36.500          19.6004
 130936173.212 6 102028167.61743  24916257.719    24916262.8554
        38.200          18.3004
 129021614.049 6 100536347.47542  24551993.273    24552000.1084
        36.500          17.8004
 106021641.782 8  82614301.77046  20175225.523    20175219.1134
        49.900          40.9004
 122308832.038 6  95305550.17644  23274614.261    23274618.8114
        41.600          28.1004
 113278178.378 7  88268798.84645  21556077.332    21556070.3354
        47.200          35.2004
 111110904.523 8  86579984.04246  21143664.471    21143655.8344
        50.300          40.4004
 12 10 28  2 10  0.0000000  0 10G06G22G11G20G31G01G03G16G14G19
 107238425.800 8  83562414.86246  20406781.223    20406774.8134
        49.700          40.1004
 118046601.503 7  91984348.64345  22463513.142    22463503.7424
        45.400          34.3004
 122706234.168 6  95615305.26243  23350195.133    23350192.0644
        40.100          21.5004
 130131765.472 6 101401399.53643  24763250.789    24763260.2624
        36.400          19.3004
 130894288.750 6 101995530.63543  24908285.916    24908292.9864
        36.800          19.0004
 128964443.841 6 100491799.77043  24541114.079    24541120.4464
        37.200          19.6004
 106036044.034 8  82625524.34546  20177966.037    20177959.6864
        49.000          41.2004
 122384850.778 7  95364785.46344  23289080.675    23289084.5804
        42.100          27.4004
 113293821.976 7  88280988.74046  21559054.444    21559047.3894
        46.000          36.0004
 111057585.813 8  86538437.09346  21133518.792    21133509.2174
        50.300          40.1004
 12 10 28  2 10 30.0000000  0 10G06G22G11G20G31G01G03G16G14G19
 107267447.833 8  83585029.43946  20412303.712    20412297.7714
        49.100          40.0004
 118119333.962 7  92041023.31945  22477353.672    22477343.7454
        46.200          32.8004
 122631357.438 6  95556960.06943  23335946.819    23335941.7574
        40.900          22.3004
 130057831.369 6 101343788.65043  24749183.231    24749191.1804
        37.200          19.9004
 130852181.100 6 101962719.70442  24900273.834    24900278.1504
        36.700          17.4004
 128907177.572 6 100447177.30742  24530216.629    24530222.8794
        36.200          17.8004
 106051003.439 8  82637181.06846  20180812.618    20180805.8564
        49.000          40.4004
 122460920.961 7  95424060.84444  23303556.715    23303559.6824
        42.300          27.5004
 113310002.470 7  88293597.00645  21562133.498    21562125.3884
        46.200          35.6004
 111004645.832 8  86497185.25846  21123443.966    21123435.0954
        49.800          40.0004
 12 10 28  2 11  0.0000000  0 11G06G22G11G20G31G01G03G30G16G14G19
 107296961.220 8  83608026.89746  20417920.089    20417913.6784
        49.600          39.8004
 118192103.995 7  92097727.27645  22491201.288    22491191.4784
        46.100          33.0004
 122556467.642 6  95498604.71743  23321695.153    23321690.3844
        40.100          22.0004
 129984102.191 6 101286337.43543  24735152.292    24735160.7104
        36.600          20.1004
 130809851.469 5 101929735.77742  24892217.850    24892222.9274
        33.800          17.4004
 128849814.888 6 100402479.53243  24519300.771    24519306.7874
        38.500          19.9004
 106066519.402 8  82649271.47046  20183764.969    20183758.4424
        49.500          40.5004
                                  25114920.899
        32.500
 122537039.448 7  95483373.86244  23318041.707    23318044.4994
        42.700          27.5004
 113326719.372 7  88306623.25046  21565314.195    21565307.0814
        47.900          36.1004
 110952087.009 8  86456230.42546  21113442.435    21113433.5054
        50.200          40.2004
 12 10 28  2 11 30.0000000  0 11G06G22G11G20G31G01G03G30G16G14G19
 107326966.499 8  83631407.63446  20423629.914    20423623.3874
        49.500          40.1004
 118264911.159 7  92154460.17245  22505055.349    22505046.1844
        46.000          33.7004
 122481567.046 6  95440240.93143  23307441.941    23307437.9344
        40.600          22.2004
 129910578.839 6 101229046.58443  24721161.313    24721169.6734
        36.100          19.0004
 130767303.121 6 101896581.50842  24884121.913    24884126.8734
        36.000          17.4004
 128792356.363 6 100357707.15243  24508366.334    24508372.4084
        36.400          18.6004
 106082592.564 8  82661796.06046  20186823.619    20186817.2084
        48.900          40.6004
 132055617.740 5                  25129346.674
        32.200
 122613204.175 7  95542722.92744  23332535.201    23332538.0524
        42.600          26.8004
 113343973.740 7  88320068.30045  21568597.712    21568590.3054
        47.300          35.7004
 110899912.047 8  86415574.69946  21103513.294    21103504.8904
        49.900          40.3004
 12 10 28  2 12  0.0000000  0 11G06G22G11G20G31G01G03G30G16G14G19
 107357462.581 8  83655170.82546  20429433.051    20429426.1714
        49.700          39.9004
 118337752.747 7  92211219.88345  22518917.192    22518908.3794
        47.000          34.5004
 122406655.726 6  95381868.82443  23293186.473    23293182.0554
        40.700          22.2004
 129837261.818 5 101171916.44743  24707209.082    24707217.5594
        35.700          19.3004
 130724537.261 5 101863257.69142  24875982.681    24875988.1104
        35.400          16.3004
 128734801.161 6 100312859.51443  24497413.727    24497419.0974
        37.600          19.6004
 106099221.728 8  82674753.90146  20189988.436    20189981.7324
        48.900          40.2004
 132131169.183 5                  25143721.817
        31.900
 122689412.058 7  95602105.60544  23347037.326    23347040.2344
        42.100          27.0004
 113361764.579 7  88333931.36745  21571983.468    21571975.7684
        46.400          35.5004
 110848122.994 8  86375219.69346  21093657.876    21093649.6494
        50.300          40.3004
 12 10 28  2 12 30.0000000  0 11G06G22G11G20G31G01G03G30G16G14G19
 107388449.182 7  83679316.24546  20435329.477    20435322.8324
        47.600          39.2004
 118410627.387 7  92268005.35045  22532784.520    22532775.4724
        47.500          34.0004
 122331734.998 6  95323489.37243  23278928.295    23278924.5224
        40.500          22.2004
 129764151.749 6 101114947.59343  24693297.159    24693304.5224
        36.400          18.3004
 130681556.105 6 101829766.05642  24867803.880    24867809.0164
        36.600          16.9004
 128677149.436 6 100267936.51843  24486443.269    24486448.2884
        37.100          19.3004
 106116407.029 8  82688145.09246  20193258.506    20193251.9204
        49.200          40.8004
 132206469.239 5                  25158051.126
        31.500
 122765660.347 6  95661519.78444  23361546.487    23361549.9234
        41.800          24.8004
 113380092.168 7  88348212.69045  21575470.949    21575463.3664
        46.600          35.6004
 110796722.281 8  86335167.29546  21083877.034    21083868.5134
        49.700          40.5004
 12 10 28  2 13  0.0000000  0 11G06G22G11G20G31G01G03G30G16G14G19
 107419926.465 8  83703844.00146  20441319.451    20441312.9244
        48.700          39.5004
 118483534.112 7  92324815.81445  22546658.649    22546649.1334
        47.000          33.6004
 122256806.366 7  95265103.76443  23264671.133    23264666.3054
        42.000          23.0004
 129691249.681 5 101058140.77143  24679423.297    24679432.2434
        35.900          19.3004
 130638362.132 5 101796108.69242  24859584.594    24859588.3244
        35.200          16.9004
 128619401.485 5 100222938.60243  24475453.567    24475458.6454
        35.800          18.3004
 106134148.789 8  82701969.89346  20196634.780    20196628.1354
        50.200          41.1004
 132281518.902 5                  25172332.876
        32.300
 122841946.870 6  95720963.73444  23376062.730    23376066.5764
        41.500          26.0004
 113398956.842 8  88362912.50945  21579060.325    21579053.0364
        49.100          35.5004
 110745712.668 8  86295419.62746  21074170.382    21074160.8654
        50.200          40.6004
 12 10 28  2 13 30.0000000  0 11G06G22G11G20G31G01G03G30G16G14G19
 107451892.886 8  83728752.90846  20447402.939    20447395.7674
        48.700          40.5004
 118556470.498 7  92381649.41045  22560537.947    22560527.6684
        47.000          33.6004
 122181870.013 6  95206712.11743  23250409.783    23250406.8304
        39.600          23.6004
 129618554.827 6 101001495.38543  24665591.019    24665599.3204
        36.200          19.6004
 130594956.540 5 101762286.24542  24851324.763    24851328.7864
        34.000          15.6004
 128561556.129 6 100177864.81043  24464445.361    24464450.6724
        37.000          19.3004
 106152445.773 8  82716227.33346  20200116.377    20200110.0844
        50.200          41.3004
                                  25186563.348
        25.300
 122918267.754 7  95780434.46544  23390586.670    23390590.1654
        42.500          26.7004
 113418357.234 8  88378029.76946  21582752.516    21582744.9924
        48.700          36.0004
 110695095.258 8  86255977.56546  21064538.750    21064528.9994
        50.600          40.7004
 12 10 28  2 14  0.0000000  0 11G06G22G11G20G31G01G03G30G16G14G19
 107484348.293 8  83754042.84646  20453578.451    20453572.2164
        50.000          39.8004
 118629434.825 7  92438504.77245  22574421.578    22574412.0614
        46.600          33.2004
 122106927.214 6  95148315.50644  23236148.377    23236144.7804
        40.900          24.3004
 129546068.407 6 100945012.43743  24651797.251    24651806.1964
        36.500          19.6004
 130551341.804 5                  24843024.680
        33.400
 128503613.557 5 100132715.27343  24453418.485    24453424.5014
        35.200          19.9004
 106171297.731 8  82730917.20946  20203704.010    20203697.3654
        49.000          40.5004
 132430846.815 4                  25200748.176
        29.100
 122994620.277 7  95839929.86044  23405116.629    23405119.8904
        43.200          26.3004
 113438293.762 7  88393564.79345  21586546.020    21586538.6724
        46.000          35.0004
 110644872.680 8  86216843.16946  21054980.782    21054971.3834
        50.000          40.3004
 12 10 28  2 14 30.0000000  0 11G06G22G11G20G31G01G03G30G16G14G19
 107517292.534 8  83779713.69646  20459847.414    20459841.3554
        49.600          39.7004
 118702426.006 7  92495381.05945  22588310.934    22588302.2384
        45.300          32.8004
 122031979.382 7  95089914.94443  23221886.195    23221882.1884
        42.000          22.8004
 129473790.710 6 100888692.10943  24638043.888    24638051.7784
        37.000          20.9004
 130507519.979 5                  24834685.236
        35.200
 128445573.967 5 100087490.06343  24442374.049    24442378.9514
        34.700          18.6004
 106190704.639 8  82746039.52246  20207396.933    20207390.1134
        49.100          41.0004
                                  25214881.772
        25.900
 123071002.314 7  95899448.24244  23419650.866    23419655.0644
        42.200          26.7004
 113458766.466 7  88409517.60945  21590442.028    21590434.5634
        45.900          35.6004
 110595047.114 8  86178018.13246  21045498.987    21045490.1744
        50.300          40.3004
 12 10 28  2 15  0.0000000  0 11G06G22G11G20G31G01G03G30G16G14G19
 107550723.872 8  83805764.10046  20466209.508    20466202.8644
        49.700          39.3004
 118775441.409 7  92552276.22445  22602205.469    22602196.6564
        44.900          32.3004
 121957026.656 6  95031510.53744  23207622.945    23207618.9964
        41.700          25.1004
 129401721.292 6 100832534.12343  24624328.906    24624338.0284
        36.300          19.9004
 130463491.898 6                  24826307.634
        36.300
 128387436.129 5 100042188.36443  24431310.315    24431315.9204
        35.700          20.4004
 106210664.473 8  82761592.68146  20211195.201    20211188.0294
        51.400          40.9004
 132579162.867 4                  25228970.847
        29.400
 123147409.629 7  95958986.34644  23434191.419    23434194.4454
        42.800          26.4004
 113479774.006 8  88425887.18945  21594439.094    21594431.8644
        48.500          35.5004
 110545620.509 8  86139503.96446  21036093.605    21036084.5574
        49.200          40.2004
 12 10 28  2 15 30.0000000  0 11G06G22G11G20G31G01G03G30G16G14G19
 107584641.268 8  83832193.25946  20472663.740    20472657.2124
        50.300          39.7004
 118848479.021 7  92609188.68845  22616104.555    22616094.9804
        44.900          32.7004
 121882069.833 6  94973103.00444  23193359.407    23193354.4624
        41.600          24.0004
 129329860.162 5 100776538.48743  24610653.211    24610662.6854
        34.900          19.3004
 130419259.380 5                  24817890.076
        35.700
 128329199.268 6  99996809.47943  24420227.584    24420232.7784
        36.800          19.0004
 106231176.428 8  82777576.07646  20215098.145    20215091.4424
        51.000          40.5004
 132652923.297 5                  25243007.874
        33.000
 123223839.359 7  96018541.91344  23448735.806    23448739.4764
        42.400          27.8004
 113501315.686 8  88442672.96945  21598538.828    21598531.1874
        49.200          35.8004
 110496594.119 8  86101301.66646  21026763.823    21026755.4204
        49.600          41.4004
 12 10 28  2 16  0.0000000  0 11G06G22G11G20G31G01G03G30G16G14G19
 107619044.885 8  83859001.28346  20479210.809    20479204.3984
        49.500          39.6004
 118921537.721 7  92666117.58345  22630007.304    22629997.6704
        44.100          32.9004
 121807110.399 7  94914693.39944  23179094.199    23179090.0164
        42.600          25.8004
 129258208.480 5 100720706.04042  24597019.386    24597027.2184
        35.000          17.8004
 130374825.099 6                  24809435.964
        38.400
 128270864.285 6  99951354.12143  24409126.319    24409131.6894
        36.900          20.4004
 106252241.330 8  82793990.32746  20219106.633    20219099.5784
        52.000          40.4004
 132726420.972 5                  25256993.606
        32.600
 123300289.443 7  96078113.33444  23463282.883    23463286.6134
        42.300          27.3004
 113523391.864 8  88459875.24445  21602739.494    21602731.9704
        48.400          34.7004
 110447971.052 8  86063413.63446  21017511.688    21017502.4654
        49.800          41.2004
 12 10 28  2 16 30.0000000  0 11G06G22G11G20G31G01G03G30G16G14G19
 107653934.993 8  83886188.39946  20485850.045    20485843.5184
        50.700          39.4004
 118994617.178 7  92723062.64645  22643913.567    22643905.5744
        45.000          33.7004
 121732150.383 7  94856283.31244  23164830.144    23164825.4334
        43.300          27.0004
 129186767.200 5 100665037.58542  24583422.795    24583432.0934
        33.700          14.8004
 130330192.085 6                  24800941.743
        36.800
 128212431.923 6  99905822.81643  24398006.394    24398011.7644
        37.200          22.3004
 106273859.203 8  82810835.45246  20223220.452    20223213.4564
        50.900          41.0004
 132799654.886 5                  25270927.826
        30.300
 123376757.749 7  96137698.95744  23477834.825    23477837.7934
        43.600          26.9004
 113546003.287 7  88477494.57945  21607041.560    21607034.5644
        47.200          34.9004
 110399754.233 8  86025842.16046  21008336.409    21008327.3614
        50.100          40.6004
 12 10 28  2 17  0.0000000  0 11G06G22G11G20G31G01G03G30G16G14G19
 107689310.266 8  83913753.55146  20492581.801    20492575.0974
        50.900          39.3004
 119067714.844 7  92780021.90245  22657823.389    22657815.1624
        45.700          33.3004
 121657189.966 7  94797872.94344  23150564.931    23150560.2204
        42.400          26.8004
 129115536.206 5 100609532.99442  24569869.936    24569877.2994
        35.400          16.9004
 130285361.537 6                  24792409.823
        36.700
 128153901.070 6  99860214.85743  24386867.824    24386873.0784
        36.600          22.8004
 106296028.452 8  82828110.22346  20227438.953    20227432.4844
        51.700          40.7004
 132872622.797 5                  25284815.195
        33.300
 123453240.666 7  96197295.96944  23492389.839    23492392.3964
        43.900          26.0004
 113569148.492 8  88495529.84545  21611446.568    21611439.0444
        48.600          35.7004
 110351945.056 8  85988588.34446  20999238.325    20999229.6294
        49.600          40.2004
 12 10 28  2 17 30.0000000  0 11G06G22G11G20G31G01G03G30G16G14G19
 107725169.356 8  83941695.72546  20499405.225    20499399.1674
        50.200          39.4004
 119140828.505 7  92836993.62545  22671736.540    22671727.3754
        45.600          32.3004
 121582230.266 6  94739463.11844  23136299.951    23136296.4134
        41.400          25.7004
 129044515.445 5 100554192.27343  24556353.198    24556362.6714
        35.600          18.3004
 130240335.038 6                  24783840.346
        37.100
 128095271.106 6  99814529.67043  24375711.364    24375715.9144
        38.600          22.6004
 106318748.346 8  82845814.06946  20231762.454    20231756.0434
        50.300          40.8004
                                  25298649.777
        32.000
 123529735.140 7  96256902.00644  23506946.238    23506948.9714
        43.700          24.1004
 113592826.656 8  88513980.42145  21615952.162    21615945.2834
        48.300          35.2004
 110304545.005 8  85951653.31846  20990218.348    20990209.5354
        49.800          41.1004
 12 10 28  2 18  0.0000000  0 11G06G22G11G20G31G01G03G30G16G14G19
 107761512.537 8  83970015.11246  20506321.227    20506314.8174
        49.800          39.7004
 119213957.514 7  92893977.31245  22685653.010    22685643.3184
        46.200          32.5004
 121507272.868 7  94681055.07744  23122035.805    23122032.0914
        42.400          28.1004
 128973706.032 6 100499016.27242  24542879.247    24542887.3734
        36.400          16.9004
 130195115.834 5                  24775235.883
        35.800
 128036542.890 6  99768767.85743  24364534.987    24364538.8924
        38.500          21.1004
 106342018.800 8  82863946.91746  20236190.532    20236184.0634
        51.000          40.8004
 133017740.830 5                  25312430.917
        30.100
 123606238.986 7  96316515.32344  23521503.610    23521507.2224
        43.500          26.1004
 113617038.460 8  88532846.81245  21620559.930    21620552.8754
        48.500          35.1004
 110257557.490 8  85915039.73546  20981276.746    20981267.6394
        50.500          40.6004
 12 10 28  2 18 30.0000000  0 11G06G22G11G20G31G01G03G30G16G14G19
 107798337.821 8  83998710.16446  20513328.694    20513322.4004
        50.300          39.6004
 119287099.076 7  92950970.76745  22699570.513    22699561.5244
        43.900          31.8004
 121432317.625 7  94622648.73844  23107772.183    23107768.2934
        43.100          28.6004
 128903106.933 5 100444004.14943  24529445.206    24529453.5664
        35.900          19.0004
 130149704.300 5                  24766594.282
        33.700
 127977715.110 6  99722928.48043  24353340.014    24353343.5674
        40.400          21.5004
 106365838.196 8  82882507.51346  20240723.114    20240716.9964
        51.400          40.7004
                                  25326161.330
        28.000
 123682748.292 7  96376132.91744  23536063.408    23536067.0214
        43.000          26.3004
 113641782.098 7  88552127.62645  21625268.785    21625260.6164
        47.800          35.5004
 110210982.973 8  85878747.97946  20972414.186    20972404.7284
        49.300          40.5004
 12 10 28  2 19  0.0000000  0 11G06G22G11G20G31G01G03G30G16G14G19
 107835647.098 8  84027782.35146  20520428.698    20520421.7604
        49.900          39.7004
 119360254.523 7  93007975.05245  22713491.390    22713482.4594
        44.500          32.3004
 121357368.661 6  94564247.25644  23093509.411    23093505.3454
        41.300          26.7004
 128832721.586 6 100389158.57043  24516051.560    24516059.8024
        38.600          20.4004
 130104105.421 5                  24757916.914
        33.400
 127918790.355 6  99677013.55143  24342126.989    24342129.7224
        40.100          21.7004
 106390208.500 8  82901497.38846  20245360.403    20245354.2864
        50.700          40.3004
 133161780.045 5                  25339843.414
        32.400
 123759263.181 7  96435754.82144  23550623.227    23550626.7804
        43.200          25.3004
 113667059.791 8  88571824.59045  21630078.438    21630070.8564
        48.100          35.4004
 110164826.519 8  85842781.98246  20963630.562    20963621.8074
        48.800          40.6004
 12 10 28  2 19 30.0000000  0 11G06G22G11G20G31G01G03G30G16G14G19
 107873434.482 8  84057227.07946  20527619.364    20527612.8954
        49.500          39.4004
 119433417.055 7  93064984.83945  22727414.238    22727404.9564
        45.400          32.0004
 121282421.875 6  94505847.48444  23079248.260    23079243.4914
        41.900          27.1004
 128762544.913 6 100334475.63043  24502696.454    24502705.4584
        38.800          20.4004
                                  24749200.105
        29.400
 127859763.310 6  99631018.90143  24330895.169    24330897.6094
        40.000          22.9004
 106415123.820 8  82920911.94846  20250101.900    20250096.0174
        48.500          40.6004
 133233390.211 5                  25353470.069
        30.500
 123835775.679 7  96495374.89144  23565182.801    23565187.1164
        42.500          26.3004
 113692866.142 7  88591933.49745  21634989.448    21634981.9244
        45.800          35.9004
 110119084.966 8  85807139.28846  20954926.062    20954917.2494
        49.100          41.1004
 12 10 28  2 20  0.0000000  0 11G06G22G11G20G31G01G03G30G16G14G19
 107911701.994 8  84087045.93846  20534901.011    20534894.7764
        50.200          39.5004
 119506587.949 7  93122001.13445  22741338.548    22741329.2664
        44.700          32.7004
 121207480.991 7  94447452.29444  23064987.366    23064981.4254
        42.400          25.8004
 128692579.950 6 100279957.68643  24489381.491    24489391.7854
        38.100          20.1004
                                  24740451.915
        28.900
 127800636.683 6  99584946.68543  24319643.306    24319646.5084
        39.800          22.5004
 106440586.265 8  82940752.83646  20254947.475    20254940.4204
        48.900          40.0004
 133304724.198 5                  25367043.274
        33.300
 123912285.762 7  96554993.07444  23579742.461    23579746.8354
        42.600          24.7004
 113719203.110 7  88612455.88045  21640000.934    21639993.4694
        45.900          35.4004
 110073763.306 8  85771823.78446  20946301.507    20946292.6944
        48.300          41.1004
 12 10 28  2 20 30.0000000  0 11G06G22G11G20G31G01G03G30G16G14G19
 107950452.606 8  84117241.24346  20542275.136    20542268.7854
        50.300          39.8004
 119579769.253 7  93179025.55945  22755264.183    22755254.7844
        45.100          32.7004
 121132551.224 7  94389065.77244  23050728.604    23050722.8974
        42.100          26.4004
 128622830.603 6 100225607.75943  24476109.547    24476118.5514
        38.500          20.1004
 129965977.050 5                  24731670.765
        30.300
 127741414.199 6  99538799.74043  24308371.994    24308375.6064
        38.700          22.8004
 106466598.708 8  82961022.29446  20259897.218    20259890.5734
        50.700          40.4004
 133375783.571 5                  25380566.301
        34.700
 123988794.246 6  96614610.01744  23594301.750    23594305.5384
        41.700          25.2004
 113746073.755 7  88633394.11145  21645114.542    21645107.0764
        47.100          34.9004
 110028867.180 8  85736839.86746  20937757.794    20937748.8634
        49.400          41.2004
 12 10 28  2 21  0.0000000  0 11G06G22G11G20G31G01G03G30G16G14G19
 107989680.317 8  84147808.31446  20549739.899    20549733.7234
        50.900          39.4004
 119652954.113 7  93236052.75445  22769190.553    22769181.2134
        45.500          32.2004
 121057628.321 6  94330684.59144  23036469.467    23036465.4604
        40.900          26.4004
 128553291.977 6 100171422.03043  24462876.525    24462884.4754
        38.100          20.4004
 129919640.425 5                  24722852.555
        32.900
 127682090.499 6  99492573.94343  24297083.441    24297086.7604
        38.600          22.8004
 106493155.405 8  82981715.85346  20264950.790    20264944.0874
        52.000          40.3004
 133446561.904 5                  25394034.523
        31.200
 124065293.299 6  96674219.60844  23608858.799    23608862.5284
        40.500          24.4004
 113773472.549 8  88654743.88945  21650327.959    21650319.9074
        48.800          35.1004
 109984393.586 8  85702185.18746  20929295.331    20929285.9904
        49.300          41.2004
 12 10 28  2 21 30.0000000  0 11G06G22G11G20G31G01G03G30G16G14G19
 108029385.577 8  84178747.48646  20557295.421    20557289.0694
        50.600          39.5004
 119726143.074 7  93293083.14445  22783118.219    22783108.4104
        46.600          33.1004
 120982715.086 6  94272310.98044  23022213.745    23022209.7374
        40.400          27.6004
 128483966.091 6 100117402.11443  24449683.481    24449692.3094
        37.800          21.5004
 129873124.878 5                  24714001.990
        32.500
 127622667.236 6  99446270.59244  24285775.587    24285778.9064
        39.900          24.4004
 106520257.027 8  83002834.02146  20270108.169    20270101.6414
        50.200          40.6004
 133517059.439 5                  25407450.823
        33.700
 124141782.035 6  96733821.17644  23623413.873    23623418.3064
        40.900          24.3004
 113801400.421 8  88676505.93145  21655642.350    21655634.7684
        48.400          35.6004
 109940345.998 8  85667862.46146  20920913.308    20920904.2604
        49.600          41.3004
 12 10 28  2 22  0.0000000  0 11G06G22G11G20G31G01G03G30G16G14G19
 108069567.930 8  84210058.43346  20564941.721    20564935.6634
        50.200          39.3004
 119799334.515 7  93350115.47445  22797045.996    22797037.4754
        46.900          33.4004
 120907812.854 6  94213945.91144  23007960.253    23007955.2504
        41.300          26.2004
 128414853.365 6 100063548.25843  24436531.132    24436540.8994
        36.800          20.1004
 129826432.886 5                  24705114.255
        32.200
 127563144.383 6  99399889.63044  24274447.392    24274451.0044
        39.400          24.8004
 106547903.011 8  83024376.37446  20275368.616    20275362.2644
        50.200          40.8004
 133587274.388 5                  25420812.026
        35.000
 124218257.364 6  96793412.28544  23637967.694    23637970.3684
        40.900          24.7004
 113829856.853 8  88698679.85045  21661057.677    21661049.6854
        48.000          35.3004
 109896726.745 8  85633873.51346  20912612.857    20912603.2824
        50.000          41.5004
 12 10 28  2 22 30.0000000  0 11G06G22G11G20G31G01G03G30G16G14G19
 108110225.518 8  84241739.68746  20572678.800    20572671.9794
        49.800          39.8004
 119872526.049 7  93407147.87045  22810974.164    22810965.2344
        46.300          33.8004
 120832922.055 6  94155589.74344  22993708.505    22993704.2044
        40.500          25.1004
 128345952.957 6 100009859.84443  24423420.447    24423429.4514
        37.800          19.9004
 129779565.494 5                  24696196.516
        32.900
 127503520.966 6  99353430.26243  24263101.952    24263104.0404
        39.600          22.8004
 106576091.316 8  83046341.31646  20280732.922    20280726.3364
        49.900          40.4004
 133657204.392 5                  25434119.973
        33.900
 124294715.899 7  96852990.30044  23652518.120    23652521.0294
        43.300          25.6004
 113858840.349 7  88721264.47145  21666573.024    21666564.5044
        46.200          35.7004
 109853536.842 8  85600219.12046  20904393.400    20904384.2354
        50.100          40.9004
 12 10 28  2 23  0.0000000  0 11G06G22G11G20G31G01G03G30G16G14G19
 108151358.002 8  84273790.99046  20580506.411    20580499.4154
        50.300          40.0004
 119945716.889 7  93464179.72545  22824902.499    22824892.5724
        45.800          33.3004
 120758044.561 6  94097243.94044  22979459.512    22979454.9194
        41.300          26.4004
 128277265.898 6  99956337.68843  24410349.857    24410358.3344
        38.100          19.9004
 129732525.670 5                  24687245.454
        33.100
 127443797.750 6  99306893.13843  24251735.507    24251739.0614
        37.700          22.6004
 106604821.771 8  83068728.70846  20286200.218    20286193.5154
        50.200          40.8004
 133726848.666 5                  25447371.313
        32.900
 124371155.572 7  96912553.61444  23667063.643    23667067.5484
        42.600          25.1004
 113888351.077 7  88744259.91445  21672188.372    21672180.6134
        47.000          35.1004
 109810779.045 8  85566901.42246  20896257.095    20896247.8134
        50.200          40.9004
 12 10 28  2 23 30.0000000  0 11G06G22G11G20G31G01G03G30G16G14G19
 108192965.201 8  84306212.19746  20588423.847    20588417.3794
        50.000          39.6004
 120018906.410 7  93521210.55545  22838829.913    22838819.8694
        44.800          32.8004
 120683181.928 6  94038909.73844  22965213.304    22965209.2974
        41.200          26.0004
 128208792.942 6  99902982.40643  24397320.042    24397328.2844
        38.600          21.3004
 129685316.203 5                  24678263.053
        32.900
 127383975.257 6  99260278.69243  24240353.092    24240355.0044
        38.700          23.2004
 106634094.507 8  83091538.65746  20291770.805    20291764.0434
        50.900          40.6004
 133796206.411 5                  25460570.972
        35.400
 124447574.485 6  96972100.78644  23681604.572    23681609.2984
        41.900          25.3004
 113918388.774 7  88767665.98745  21677904.345    21677896.4694
        47.300          34.9004
 109768455.909 8  85533922.42346  20888203.228    20888194.3564
        50.000          40.8004
 12 10 28  2 24  0.0000000  0 11G06G22G11G20G31G01G03G30G16G14G19
 108235044.069 8  84339000.93446  20596431.099    20596424.5134
        50.100          39.8004
 120092090.595 7  93578237.23645  22852755.934    22852746.7104
        44.300          31.9004
 120608333.406 7  93980586.50444  22950971.297    22950965.8834
        43.200          25.8004
 128140532.334 6  99849792.53343  24384330.159    24384338.4604
        39.900          21.7004
                                  24669241.962
        28.900
 127324051.384 6  99213585.17643  24228947.653    24228951.2654
        37.500          22.9004
 106663906.306 8  83114768.65946  20297443.424    20297436.6034
        49.900          40.5004
 133865273.900 6                  25473713.884
        36.900
 124523967.536 7  97031627.81344  23696142.357    23696146.3214
        43.400          25.3004
 113948950.568 7  88791480.43945  21683719.855    21683711.5694
        45.800          35.1004
 109726567.245 8  85501281.98046  20880232.353    20880222.9534
        50.700          41.9004
 12 10 28  2 24 30.0000000  0 11G06G22G11G20G31G01G03G30G16G14G19
 108277598.824 8  84372160.50346  20604529.010    20604522.3074
        49.800          40.0004
 120165273.491 7  93635262.90745  22866681.366    22866672.5534
        43.900          31.1004
 120533505.667 7  93922279.44344  22936731.214    22936726.3864
        43.000          27.0004
 128072489.525 6  99796772.41243  24371383.158    24371389.9944
        41.300          20.6004
 129590396.958 5                  24660199.574
        32.800
 127264031.423 6  99166816.84443  24217525.892    24217528.8604
        37.200          22.8004
 106694261.630 8  83138422.18246  20303219.663    20303212.9594
        48.800          40.8004
 133934054.951 6                  25486802.451
        37.600
 124600337.507 7  97091136.83743  23710675.227    23710679.0734
        44.500          23.3004
 113980041.325 7  88815707.07845  21689636.203    21689628.3864
        45.300          35.6004
 109685120.587 8  85468985.95346  20872344.782    20872335.7934
        50.500          41.0004
