     2.11           OBSERVATION DATA    G (GPS)             RINEX VERSION / TYPE
teqc  2012Sep13     UNAVCO Archive Ops  20121029 06:28:30UTCPGM / RUN BY / DATE
Solaris x86 5.10|AMD64|cc SC5.8 -xarch=amd64|=+|=+          COMMENT
BIT 2 OF LLI FLAGS DATA COLLECTED UNDER A/S CONDITION       COMMENT
AHUP                                                        MARKER NAME
                                                            MARKER NUMBER
Miklius, Asta       Stanford/HVO                            OBSERVER / AGENCY
4542260456          TRIMBLE NETRS       1.1-2               REC # / TYPE / VERS
60121031            TRM41249.00     NONE                    ANT # / TYPE
 -5467762.7837 -2518810.5051  2103349.5793                  APPROX POSITION XYZ
        0.1110        0.0000        0.0000                  ANTENNA: DELTA H/E/N
     1     1                                                WAVELENGTH FACT L1/2
     7    L1    L2    C1    P2    P1    S1    S2            # / TYPES OF OBSERV
    30.0000                                                 INTERVAL
RINEX file created by UNAVCO GPS Archive.                   COMMENT
For more information contact archive@unavco.org             COMMENT
Monument ID: 13922                                          COMMENT
UNAVCO 4-char name:   AHUP                                  COMMENT
4-char name from Log or data file: AHUP                     COMMENT
Monument location: 19.379109962 -155.266099499 1104.8471    COMMENT
Visit ID: 88461                                             COMMENT
                                                            COMMENT
NOTICE: If using these data for scientific purposes,        COMMENT
please acknowledge the source as Stanford University        COMMENT
and the USGS Hawaii Volcano Observatory.                    COMMENT
                                                            COMMENT
End of DB comments                                          COMMENT
 SNR is mapped to RINEX snr flag value [0-9]                COMMENT
  L1 & L2: min(max(int(snr_dBHz/6), 0), 9)                  COMMENT
  2012    10    28     0     0    0.0000000     GPS         TIME OF FIRST OBS
                                                            END OF HEADER
 12 10 28  0  0  0.0000000  0 11G29G06G22G21G18G31G03G30G16G14G19
 127167538.998 6  99091592.39143  24199178.004    24199178.9784
        38.100          22.9004
 114169773.193 7  88963447.19445  21725785.423    21725782.4704
        47.500          33.8004
 106523494.520 8  83005289.99847  20270746.988    20270739.6404
        50.500          42.9004
 122784245.280 7  95676014.65344  23365064.964    23365060.0194
        44.000          25.6004
 113815877.949 8  88687670.81446  21658441.420    21658435.0104
        48.800          36.4004
 131269635.777 6 102288048.65842  24979781.078    24979786.2144
        36.900          17.4004
 118034606.815 7  91975015.64944  22461238.832    22461238.2824
        43.700          29.0004
 111064463.632 8  86543734.40046  21134864.662    21134863.8794
        50.500          38.6004
 112482993.728 8  87649075.83146  21404802.079    21404799.4784
        49.500          36.8004
 123456354.788 6  96199781.82243  23492963.150    23492969.2244
        38.700          21.1004
 131068207.356 6 102131074.43743  24941450.529    24941451.5624
        38.700          18.3004
 12 10 28  0  0 30.0000000  0 11G29G06G22G21G18G31G03G30G16G14G19
 127231386.151 6  99141343.26643  24211328.125    24211329.5104
        38.000          23.2004
 114105899.492 7  88913675.64745  21713630.459    21713627.1564
        47.000          34.0004
 106517311.863 8  83000472.43147  20269570.592    20269563.0684
        50.800          43.7004
 122825481.046 7  95708146.38844  23372912.453    23372906.9804
        43.700          25.5004
 113878693.737 7  88736618.16646  21670395.049    21670388.5804
        47.800          36.2004
 131310537.792 6 102319920.30842  24987563.366    24987568.9124
        37.100          16.9004
 117949712.128 7  91908864.20145  22445083.589    22445083.4504
        43.700          30.0004
 111115681.113 8  86583644.03946  21144611.174    21144610.3904
        50.000          38.9004
 112460506.971 8  87631553.74646  21400523.092    21400520.3164
        49.500          37.0004
 123387416.219 6  96146063.93543  23479844.488    23479850.0934
        40.300          19.9004
 130989905.622 6 102070060.15543  24926549.134    24926550.6364
        38.600          18.6004
 12 10 28  0  1  0.0000000  0 11G29G06G22G21G18G31G03G30G16G14G19
 127295476.546 6  99191283.69144  24223524.877    24223525.1484
        38.700          24.7004
 114042139.920 7  88863993.01945  21701497.889    21701494.4094
        46.200          34.3004
 106511640.505 8  82996053.27047  20268491.327    20268483.9794
        51.400          43.7004
 122866649.801 7  95740225.92944  23380745.627    23380740.6244
        43.600          24.9004
 113941827.390 7  88785813.19446  21682408.695    21682402.8124
        47.000          36.0004
 131351168.803 5 102351580.73442  24995295.583    24995301.7164
        35.600          16.9004
 117864919.585 7  91842792.32744  22428947.675    22428948.4164
        43.400          29.2004
 111167372.854 8  86623923.22446  21154447.604    21154447.2314
        50.000          39.1004
 112438568.602 8  87614458.96546  21396348.510    21396345.5584
        50.100          37.7004
 123318468.864 6  96092339.18343  23466723.929    23466728.0694
        39.100          19.3004
 130911491.701 6 102008958.48442  24911627.747    24911630.2464
        38.800          17.4004
 12 10 28  0  1 30.0000000  0 11G29G06G22G21G18G31G03G30G16G14G19
 127359810.459 6  99241413.83543  24235766.269    24235767.7124
        36.600          22.5004
 113978496.632 7  88814401.01545  21689386.108    21689383.0974
        46.300          34.7004
 106506480.564 8  82992032.60847  20267509.627    20267502.2204
        51.600          43.8004
 122907751.630 7  95772253.31744  23388566.890    23388562.1794
        43.100          25.9004
 114005276.731 7  88835254.21745  21694482.678    21694476.5614
        47.300          35.7004
 131391527.746 5 102383029.18443  25002975.231    25002981.4224
        34.200          19.0004
 117780231.933 7  91776802.21945  22412831.696    22412832.6124
        43.500          30.0004
 111219536.914 8  86664570.44646  21164374.513    21164373.9634
        50.800          39.0004
 112417179.879 8  87597792.48746  21392278.498    21392275.3114
        50.300          37.0004
 123249515.702 6  96038609.94243  23453602.375    23453606.1054
        39.600          20.1004
 130832966.351 6 101947769.86043  24896684.353    24896687.4384
        37.000          18.6004
 12 10 28  0  2  0.0000000  0 11G29G06G22G21G18G31G03G30G16G14G19
 127424388.168 6  99291733.96743  24248055.229    24248056.0284
        37.200          22.3004
 113914972.215 7  88764901.62245  21677298.137    21677294.5404
        46.700          34.3004
 106501832.421 8  82988410.76147  20266624.867    20266617.2254
        51.500          43.6004
 122948787.397 6  95804229.21944  23396375.995    23396371.5774
        41.100          26.3004
 114069040.061 7  88884939.92445  21706616.376    21706610.3184
        47.500          35.6004
 131431613.091 5 102414264.39443  25010605.149    25010609.8754
        35.900          19.0004
 117695651.529 7  91710895.65544  22396736.490    22396736.7034
        43.100          29.7004
 111272171.085 8  86705583.97846  21174390.318    21174389.6524
        50.700          38.6004
 112396341.669 8  87581554.97746  21388312.946    21388310.0524
        49.800          37.1004
 123180559.909 6  95984878.65243  23440479.724    23440484.3914
        39.200          19.9004
 130754331.150 6 101886495.73043  24881723.061    24881723.0984
        40.400          19.0004
 12 10 28  0  2 30.0000000  0 11G29G06G22G21G18G31G03G30G16G14G19
 127489208.479 6  99342243.11943  24260390.039    24260391.6004
        37.600          21.8004
 113851567.697 7  88715495.65145  21665232.536    21665228.9984
        46.300          34.5004
 106497694.613 8  82985186.57847  20265837.280    20265830.1074
        50.200          43.5004
 122989756.345 7  95836153.05244  23404171.686    23404167.7964
        42.600          25.1004
 114133114.193 8  88934867.80446  21718809.614    21718803.2634
        48.400          36.0004
 131471423.114 5 102445285.19242  25018178.785    25018185.7974
        34.600          16.9004
 117611179.513 7  91645073.55245  22380662.925    22380661.9074
        43.900          30.0004
 111325271.951 8  86746961.17346  21184495.572    21184494.3784
        51.100          38.2004
 112376053.393 8  87565745.97146  21384451.899    21384448.7714
        49.400          37.1004
 123111603.412 6  95931146.82043  23427356.561    23427362.2834
        39.900          20.4004
 130675585.825 6 101825135.73043  24866737.105    24866737.9624
        38.700          19.3004
 12 10 28  0  3  0.0000000  0 11G29G06G22G21G18G31G03G30G16G14G19
 127554272.250 6  99392941.99743  24272772.141    24272772.9404
        37.200          21.1004
 113788286.062 7  88666185.45345  21653190.336    21653186.7394
        47.400          35.1004
 106494067.288 8  82982360.17147  20265146.933    20265139.7024
        50.500          43.7004
 123030659.448 7  95868025.56244  23411955.280    23411951.1554
        42.400          26.0004
 114197498.432 8  88985037.33745  21731061.456    21731055.4564
        48.200          35.7004
 131510957.530 5 102476091.12143  25025702.990    25025709.0054
        35.400          18.3004
 117526819.288 7  91579338.56244  22364609.013    22364608.6984
        44.100          29.5004
 111378838.104 8  86788700.93446  21194688.443    21194688.0114
        50.500          38.8004
 112356316.711 8  87550366.77946  21380696.339    21380693.6214
        49.600          38.2004
 123042649.545 6  95877417.02243  23414235.130    23414240.7354
        40.400          20.6004
 130596732.358 6 101763691.53943  24851732.825    24851732.2764
        39.500          18.6004
 12 10 28  0  3 30.0000000  0 11G29G06G22G21G18G31G03G30G16G14G19
 127619579.061 6  99443830.26143  24285198.964    24285200.4674
        36.800          22.0004
 113725128.939 7  88616972.26845  21641171.501    21641168.0224
        46.700          35.5004
 106490949.721 8  82979930.98047  20264553.469    20264546.6494
        51.500          43.6004
 123071496.278 7  95899846.43844  23419727.255    23419721.8414
        42.800          26.4004
 114262190.088 8  89035446.38845  21743372.099    21743365.9824
        48.300          35.8004
 131550213.918 5 102506680.45043  25033173.890    25033179.6714
        34.800          19.0004
 117442572.420 7  91513691.92844  22348577.953    22348576.8764
        44.700          29.5004
 111432866.463 8  86830800.84246  21204970.010    21204969.1094
        50.500          38.6004
 112337132.007 8  87535417.70346  21377045.110    21377042.9204
        49.300          37.4004
 122973701.462 6  95823691.76243  23401114.467    23401119.7784
        39.600          20.4004
 130517770.790 6 101702163.03543  24836705.806    24836706.6044
        39.300          18.3004
 12 10 28  0  4  0.0000000  0 11G29G06G22G21G18G31G03G30G16G14G19
 127685128.746 6  99494907.79643  24297673.378    24297675.1154
        37.800          22.2004
 113662098.202 7  88567857.55245  21629177.235    21629173.5214
        46.100          35.1004
 106488341.293 8  82977898.52447  20264057.192    20264049.6684
        50.400          44.0004
 123112267.062 7  95931615.83944  23427485.305    23427480.3014
        42.200          26.5004
 114327186.595 8  89086093.00245  21755739.776    21755734.4794
        48.800          35.5004
 131589191.063 5 102537052.10342  25040590.076    25040597.2634
        34.400          16.3004
 117358441.151 7  91448135.35045  22332566.954    22332566.5804
        43.800          30.7004
 111487354.540 8  86873258.96346  21215338.926    21215338.4944
        51.100          38.9004
 112318499.143 8  87520898.62846  21373499.826    21373496.4634
        50.100          37.7004
 122904761.369 6  95769972.75843  23387996.334    23388000.4154
        40.200          19.3004
 130438702.113 6 101640551.16242  24821657.612    24821659.3484
        36.900          16.9004
 12 10 28  0  4 30.0000000  0 11G29G06G22G21G18G31G03G30G16G14G19
 127750921.271 6  99546174.55843  24310193.830    24310195.2744
        37.200          20.1004
 113599196.322 7  88518843.24445  21617206.953    21617203.9424
        45.900          34.9004
 106486242.325 8  82976263.04847  20263657.926    20263650.4024
        51.400          43.7004
 123152972.395 7  95963334.27744  23435231.325    23435226.4974
        42.300          26.5004
 114392486.419 7  89136975.96945  21768166.212    21768160.3294
        46.900          35.9004
 131627887.885 5 102567205.41342  25047954.449    25047960.6994
        33.700          16.9004
 117274428.472 7  91382671.19144  22316580.437    22316578.8924
        44.600          29.4004
 111542300.084 8  86916073.55646  21225794.915    21225794.0144
        50.500          38.9004
 112300419.168 8  87506810.36846  21370059.533    21370056.5224
        50.000          38.3004
 122835832.808 6  95716262.74343  23374878.451    23374883.0014
        39.200          20.1004
 130359527.684 6 101578856.86143  24806592.781    24806593.0524
        39.700          19.0004
 12 10 28  0  5  0.0000000  0 11G29G06G22G21G18G31G03G30G16G14G19
 127816956.443 6  99597630.39343  24322759.729    24322760.8804
        37.700          22.2004
 113536425.031 7  88469930.69745  21605262.459    21605258.8624
        46.300          35.3004
 106484651.538 8  82975023.54347  20263355.254    20263347.7304
        49.600          43.5004
 123193612.169 7  95995001.62644  23442964.456    23442960.3904
        42.800          26.5004
 114458087.077 7  89188093.34045  21780649.592    21780643.9434
        46.900          35.3004
 131666302.720 5 102597139.00142  25055264.752    25055270.1234
        34.600          16.9004
 117190536.207 7  91317300.83244  22300614.997    22300614.5654
        43.400          29.1004
 111597700.373 8  86959242.49846  21236337.384    21236336.8344
        50.200          39.0004
 112282892.120 8  87493152.95446  21366723.360    21366720.8774
        50.000          37.2004
 122766918.125 6  95662563.45843  23361764.164    23361768.5974
        40.800          20.4004
 130280248.208 6 101517080.72843  24791506.026    24791507.1184
        40.100          19.3004
 12 10 28  0  5 30.0000000  0 11G29G06G22G21G18G31G03G30G16G14G19
 127883233.241 6  99649274.50743  24335372.018    24335372.1724
        37.600          20.6004
 113473785.636 7  88421120.92145  21593341.965    21593338.4274
        46.200          35.4004
 106483567.607 8  82974179.00047  20263148.527    20263140.9444
        51.000          43.7004
 123234185.472 7  96026617.16444  23450685.113    23450681.2234
        42.600          25.4004
 114523985.759 8  89239442.94745  21793189.943    21793183.8854
        48.600          35.2004
 131704433.566 5 102626851.28842  25062520.640    25062525.9524
        32.800          15.6004
 117106765.333 7  91252025.07745  22284674.549    22284673.7074
        44.000          30.0004
 111653551.728 8  87002762.92246  21246965.396    21246965.0234
        49.500          38.2004
 112265917.868 8  87479926.28646  21363494.187    21363491.2354
        50.500          38.4004
 122698019.667 6  95608876.94143  23348652.585    23348656.7844
        39.900          20.4004
 130200863.645 6 101455222.68343  24776399.505    24776401.1244
        40.500          19.9004
 12 10 28  0  6  0.0000000  0 11G29G06G22G21G18G31G03G30G16G14G19
 127949752.285 6  99701107.38943  24348029.645    24348031.5584
        37.500          21.8004
 113411281.079 7  88372416.21845  21581448.158    21581443.9164
        46.600          35.5004
 106482990.963 8  82973729.73547  20263038.992    20263031.5864
        51.900          43.7004
 123274693.647 7  96058181.95944  23458394.790    23458389.7864
        42.300          25.2004
 114590180.783 8  89291023.47845  21805786.514    21805780.5734
        48.600          35.5004
 131742280.213 5 102656342.09042  25069723.358    25069728.6704
        34.200          16.9004
 117023119.697 7  91186846.91044  22268756.742    22268756.3684
        45.100          29.0004
 111709852.894 8  87046633.84046  21257679.240    21257678.8084
        48.700          38.1004
 112249497.611 8  87467131.31546  21360368.526    21360366.3944
        50.000          37.8004
 122629140.779 6  95555205.63043  23335544.434    23335549.3354
        41.000          21.5004
 130121375.906 6 101393284.21643  24761274.047    24761274.9634
        41.500          20.1004
 12 10 28  0  6 30.0000000  0 11G29G06G22G21G18G31G03G30G16G14G19
 128016513.060 6  99753128.58043  24360734.773    24360735.9244
        38.600          22.2004
 113348913.248 7  88323818.06745  21569579.483    21569575.9444
        46.200          34.9004
 106482920.811 8  82973675.13847  20263025.519    20263017.9364
        52.600          43.0004
 123315136.723 6  96089696.02944  23466090.034    23466085.3824
        41.300          25.4004
 114656669.911 7  89342833.17745  21818438.756    21818432.9914
        47.800          35.5004
 131779840.556 5 102685609.81742  25076870.428    25076876.2674
        34.600          17.4004
 116939601.016 7  91121767.66244  22252863.025    22252862.7694
        44.300          29.3004
 111766600.795 8  87090852.85546  21268478.373    21268477.7654
        48.300          38.3004
 112233631.740 8  87454768.33346  21357349.450    21357347.0254
        50.500          37.8004
 122560284.124 6  95501551.61443  23322441.609    23322445.1624
        40.900          21.5004
 130041785.314 6 101331265.70443  24746127.504    24746129.4164
        40.100          19.9004
 12 10 28  0  7  0.0000000  0 11G29G06G22G21G18G31G03G30G16G14G19
 128083514.742 6  99805337.52543  24373485.370    24373486.1694
        39.400          22.6004
 113286683.370 7  88275327.38145  21557737.619    21557733.6124
        47.800          34.9004
 106483355.593 8  82974014.00147  20263108.310    20263100.5514
        51.900          43.3004
 123355514.073 6  96121158.89044  23473773.418    23473769.4114
        41.300          25.1004
 114723450.035 7  89394869.62645  21831146.245    21831140.4214
        46.800          34.5004
 131817112.709 6 102714652.95943  25083962.942    25083968.7234
        36.300          19.9004
 116856210.739 7  91056788.47845  22236994.861    22236993.6674
        44.700          30.2004
 111823791.911 8  87135417.23746  21279361.586    21279360.6854
        50.000          38.0004
 112218319.568 8  87442836.79146  21354436.120    21354433.1684
        50.400          38.1004
 122491451.661 7  95447916.47743  23309343.289    23309346.5504
        42.700          21.5004
 129962092.205 6 101269167.24043  24730961.147    24730965.3454
        38.300          20.6004
 12 10 28  0  7 30.0000000  0 11G29G06G22G21G18G31G03G30G16G14G19
 128150757.876 6  99857734.64743  24386281.006    24386281.8644
        39.400          22.5004
 113224594.329 7  88226946.43945  21545921.765    21545917.9924
        46.900          35.1004
 106484295.642 8  82974746.56947  20263286.980    20263279.6324
        49.800          43.5004
 123395826.855 6  96152571.44444  23481444.019    23481439.6014
        41.400          24.0004
 114790520.217 8  89447132.09345  21843909.610    21843903.7274
        48.200          35.0004
 131854095.970 5 102743470.95242  25091001.105    25091006.8274
        35.400          17.8004
 116772951.954 7  90991911.74444  22221150.952    22221149.9934
        45.500          29.5004
 111881424.463 8  87180325.59346  21290328.370    21290328.1734
        49.400          37.6004
 112203562.426 8  87431337.74946  21351627.779    21351625.0614
        50.500          38.0004
 122422647.243 6  95394303.17143  23296249.227    23296253.0154
        41.400          22.3004
 129882298.503 6 101206990.48243  24715778.733    24715780.2364
        39.500          22.6004
 12 10 28  0  8  0.0000000  0 11G29G06G22G21G18G31G03G30G16G14G19
 128218241.980 6  99910319.52043  24399122.641    24399123.4994
        38.300          22.0004
 113162647.940 8  88178676.66245  21534134.142    21534130.4284
        48.000          35.3004
 106485740.128 8  82975872.21347  20263562.306    20263554.7824
        49.900          43.3004
 123436074.786 6  96183933.43744  23489103.703    23489098.3484
        41.600          24.7004
 114857877.867 8  89499618.56345  21856727.702    21856721.1754
        48.000          34.9004
 131890789.139 5 102772062.99442  25097983.650    25097989.4314
        33.900          16.9004
 116689826.747 7  90927139.08944  22205332.910    22205330.8954
        45.200          29.3004
 111939495.834 8  87225575.89046  21301379.126    21301378.9294
        48.900          37.9004
 112189359.770 8  87420270.77746  21348925.422    21348922.5284
        50.300          38.1004
 122353873.641 6  95340713.90443  23283161.955    23283165.2744
        41.800          21.1004
 129802404.990 6 101144735.92043  24700573.806    24700576.8914
        37.100          21.3004
 12 10 28  0  8 30.0000000  0 11G29G06G22G21G18G31G03G30G16G14G19
 128285966.542 6  99963091.76743  24412011.099    24412012.0154
        39.100          22.3004
 113100846.245 7  88130519.63445  21522373.339    21522369.5664
        47.000          34.7004
 106487688.190 8  82977390.24747  20263932.235    20263924.7114
        51.300          43.9004
 123476258.162 6  96215245.15744  23496750.338    23496744.8074
        41.400          25.3004
 114925520.519 7  89552327.11945  21869599.461    21869593.6954
        47.600          35.7004
 131927190.551 5 102800427.63142  25104909.882    25104916.3664
        32.000          15.6004
 116606837.191 7  90862472.14444  22189539.655    22189538.5784
        45.100          29.3004
 111998002.996 8  87271165.76446  21312513.250    21312512.6424
        48.800          38.5004
 112175712.015 8  87409636.19046  21346328.184    21346325.3494
        50.200          38.5004
 122285133.472 7  95287150.65343  23270081.102    23270084.4214
        42.500          22.0004
 129722412.476 6 101082404.14043  24685352.410    24685354.0884
        39.000          22.6004
 12 10 28  0  9  0.0000000  0 11G29G06G22G21G18G31G03G30G16G14G19
 128353931.417 6 100016051.24943  24424944.113    24424945.4984
        38.700          23.3004
 113039191.132 7  88082476.82345  21510640.894    21510636.8864
        46.200          35.9004
 106490139.019 8  82979300.05147  20264399.299    20264391.3064
        52.000          43.5004
 123516376.819 6  96246506.42544  23504384.369    23504379.0724
        40.300          24.5004
 114993445.952 7  89605256.01945  21882525.348    21882519.1724
        46.900          35.1004
 131963298.929 5 102828563.93442  25111781.508    25111786.6444
        32.600          15.6004
 116523985.499 7  90797912.61245  22173773.696    22173771.7404
        45.300          30.2004
 112056943.129 8  87317093.00946  21323729.085    21323728.8284
        48.300          38.5004
 112162619.511 8  87399434.26046  21343836.778    21343833.7674
        50.300          38.6004
 122216429.385 6  95233615.57643  23257005.384    23257010.3444
        41.400          22.9004
 129642321.436 6 101019995.65543  24670111.474    24670112.4494
        37.900          20.4004
 12 10 28  0  9 30.0000000  0 11G29G06G22G21G18G31G03G30G16G14G19
 128422127.314 6 100069190.79143  24437919.746    24437922.7134
        36.000          22.0004
 112977675.870 7  88034542.98145  21498934.892    21498930.4744
        46.600          35.2004
 106493083.053 8  82981594.16347  20264958.958    20264951.3764
        50.500          43.5004
 123556422.965 6  96277711.21544  23512005.760    23512000.0534
        41.200          24.7004
 115061642.876 7  89658396.47045  21895502.795    21895496.7364
        47.300          34.8004
                 102856710.79042  25118593.858
        29.600          15.6004
 116441265.438 7  90733455.66545  22158032.397    22158030.9104
        44.900          30.7004
 112116304.775 8  87363348.70746  21335025.495    21335024.7694
        48.900          38.5004
 112150073.454 8  87389658.13746  21341449.342    21341446.6834
        50.500          38.2004
 122147755.536 7  95180104.01543  23243937.818    23243941.3134
        42.600          22.9004
 129562124.431 6 100957504.55743  24654851.050    24654850.3844
        39.400          19.9004
 12 10 28  0 10  0.0000000  0 11G29G06G22G21G18G31G03G30G16G14G19
 128490580.322 6 100122530.63043  24450946.909    24450948.6454
        36.200          20.9004
 112916328.821 7  87986740.22245  21487260.387    21487256.5564
        46.300          35.2004
 106496545.779 8  82984292.45847  20265617.756    20265610.2324
        50.900          43.3004
 123596422.185 6  96308879.42843  23519616.348    23519611.5794
        39.800          23.8004
 115130135.274 7  89711767.18045  21908536.429    21908530.4874
        47.500          34.7004
 132034831.101 5 102884419.28542  25125357.264    25125360.4664
        34.200          16.3004
 116358705.544 7  90669123.52845  22142321.878    22142320.6254
        44.200          31.5004
 112176111.416 8  87409951.16746  21346406.052    21346406.0894
        48.400          38.2004
 112138100.124 8  87380328.29946  21339170.997    21339167.7524
        50.400          38.2004
 122079140.697 7  95126638.44443  23230880.615    23230883.0554
        43.000          23.0004
 129481848.488 6 100894951.96243  24639574.707    24639575.1554
        38.900          20.4004
 12 10 28  0 10 30.0000000  0 11G29G06G22G21G18G31G03G30G16G14G19
 128559263.675 6 100176050.01343  24464017.174    24464017.9144
        36.800          18.6004
 112855125.968 7  87939049.82745  21475613.714    21475609.5314
        47.200          35.6004
 106500500.256 8  82987373.94247  20266370.367    20266362.6094
        50.600          43.4004
 123636348.937 6  96339991.17443  23527214.664    23527209.6614
        40.100          22.9004
 115198895.482 7  89765346.55845  21921621.445    21921614.7424
        47.100          35.1004
 132070052.717 5 102911864.49842  25132057.945    25132064.1364
        33.600          16.9004
 116276281.811 7  90604897.48745  22126636.314    22126635.1204
        44.300          31.2004
 112236334.369 8  87456878.01846  21357866.224    21357866.0854
        49.100          38.2004
 112126673.880 8  87371424.75446  21336996.438    21336993.6034
        50.800          38.3004
 122010561.974 7  95073201.03043  23217829.511    23217832.7714
        42.500          22.8004
 129401468.297 6 100832318.16643  24624279.602    24624279.5804
        39.700          21.7004
 12 10 28  0 11  0.0000000  0 11G29G06G22G21G18G31G03G30G16G14G19
 128628178.110 5 100229749.39943  24477129.577    24477132.6034
        35.400          18.6004
 112794070.097 7  87891473.95645  21463995.284    21463990.9844
        47.500          35.2004
 106504946.337 8  82990838.49047  20267216.600    20267208.5484
        51.200          44.0004
 123676204.246 6  96371047.23343  23534799.002    23534793.8234
        40.400          22.9004
 115267921.850 7  89819133.34245  21934756.300    21934749.8314
        47.000          34.5004
                 102939057.44942  25138704.078
        33.900          14.8004
 116193997.048 7  90540779.72645  22110978.847    22110976.7154
        44.800          30.7004
 112296971.369 8  87504127.48946  21369405.274    21369405.6634
        48.200          37.6004
 112115795.467 8  87362948.09546  21334926.200    21334923.2484
        49.900          38.0004
 121942023.111 7  95019794.64444  23204786.583    23204789.7854
        42.000          25.5004
 129320985.843 6 100769604.62843  24608962.844    24608965.8114
        37.900          22.2004
 12 10 28  0 11 30.0000000  0 11G29G06G22G21G18G31G03G30G16G14G19
 128697347.323 5 100283647.35243  24490292.890    24490296.1504
        35.300          19.6004
 112733187.449 7  87844033.05045  21452410.074    21452405.4804
        46.800          35.4004
 106509907.845 8  82994704.67047  20268160.363    20268152.6634
        51.200          43.7004
 123716013.207 6  96402067.17943  23542374.948    23542369.5344
        41.100          22.9004
 115337235.517 7  89873143.99045  21947946.186    21947939.7174
        47.600          34.7004
 132139613.751 5 102966062.64842  25145294.792    25145299.1664
        33.400          14.8004
 116111878.160 7  90476791.22645  22095351.655    22095349.8754
        45.500          30.8004
 112358043.980 8  87551716.41646  21381026.593    21381027.1574
        48.400          38.6004
 112105489.117 8  87354917.19546  21332964.944    21332961.7584
        49.900          37.8004
 121873550.869 6  94966440.20444  23191756.162    23191760.2434
        40.800          24.9004
 129240426.468 6 100706831.18543  24593633.216    24593635.0124
        39.900          22.0004
 12 10 28  0 12  0.0000000  0 11G29G06G22G21G18G31G03G30G16G14G19
 128766738.609 6 100337718.35243  24503498.689    24503501.3644
        36.900          20.6004
 112672447.515 8  87796703.34946  21440851.112    21440846.9294
        48.400          36.0004
 106515351.224 8  82998946.34547  20269196.357    20269188.5404
        51.300          43.5004
 123755742.616 6  96433025.14743  23549935.087    23549929.6154
        41.100          23.4004
 115406802.436 7  89927351.98745  21961184.050    21961177.9914
        46.900          34.4004
                 102992772.32542  25151821.515
        28.000          14.8004
 116029895.209 7  90412908.64045  22079750.586    22079748.6884
        45.400          31.3004
 112419517.096 8  87599617.41446  21392724.925    21392725.0204
        48.600          37.7004
 112095722.527 8  87347306.88646  21331106.425    21331102.9464
        49.600          38.0004
 121805115.848 6  94913114.74543  23178732.594    23178736.2064
        41.500          22.8004
 129159758.425 6 100643973.07543  24578283.431    24578284.4644
        40.400          22.0004
 12 10 28  0 12 30.0000000  0 11G29G06G22G21G18G31G03G30G16G14G19
 128836383.004 6 100391986.54143  24516751.839    24516754.5724
        36.400          21.1004
 112611884.535 7  87749511.54945  21429325.999    21429322.1094
        47.400          34.9004
 106521307.087 8  83003587.35647  20270329.789    20270322.0314
        50.800          43.8004
 123795424.640 6  96463946.18344  23557485.709    23557480.4714
        40.700          24.7004
 115476651.995 7  89981780.22345  21974476.432    21974469.9634
        47.500          33.9004
 132207951.894 5 103019318.26542  25158299.057    25158304.9554
        30.500          13.9004
 115948081.689 7  90349158.09145  22064181.248    22064180.4064
        45.200          31.7004
 112481419.146 8  87647852.63746  21404504.750    21404505.0224
        48.000          37.6004
 112086527.104 8  87340141.64846  21329356.164    21329353.7394
        49.400          38.0004
 121736752.417 6  94859845.04143  23165723.979    23165726.4784
        41.100          22.6004
 129079014.599 6 100581055.91243  24562918.692    24562918.8464
        40.800          20.9004
 12 10 28  0 13  0.0000000  0 11G29G06G22G21G18G31G03G30G16G14G19
 128906256.836 6 100446433.55143  24530048.571    24530050.5424
        37.200          21.5004
 112551476.560 8  87702440.51545  21417830.691    21417826.6844
        48.000          35.6004
 106527751.047 8  83008608.70047  20271555.931    20271548.0564
        49.700          43.3004
 123835036.314 6  96494812.38943  23565023.933    23565019.1054
        40.500          23.8004
 115546758.393 7  90036408.57345  21987817.418    21987811.1254
        46.800          33.7004
 132241673.221 5                  25164717.332
        31.300
 115866416.395 7  90285523.04345  22048641.489    22048639.2404
        44.600          30.8004
 112543724.128 8  87696401.82846  21416361.145    21416361.4164
        49.200          37.5004
 112077879.527 8  87333403.29646  21327711.222    21327708.3874
        49.700          37.8004
 121668440.053 7  94806615.14843  23152723.990    23152725.7854
        42.400          22.6004
 128998172.320 6 100518062.00943  24547534.939    24547534.8004
        40.500          20.9004
 12 10 28  0 13 30.0000000  0 11G29G06G22G21G18G31G03G30G16G14G19
 128976360.088 6 100501059.30243  24543388.173    24543390.7894
        36.900          20.6004
 112491226.410 8  87655492.46145  21406365.996    21406361.4024
        49.300          35.7004
 106534682.565 8  83014009.97947  20272874.499    20272866.9754
        50.900          43.2004
 123874578.247 6  96525624.27843  23572548.693    23572543.5724
        40.300          22.9004
 115617119.738 8  90091235.60445  22001206.340    22001200.2814
        48.200          33.9004
                                  25171073.042
        30.800
 115784902.603 7  90222006.05245  22033129.073    22033127.5274
        45.200          31.4004
 112606429.493 8  87745263.01346  21428293.603    21428293.9914
        49.700          37.8004
 112069780.064 8  87327092.04846  21326169.679    21326166.6104
        49.900          37.6004
 121600181.981 7  94753427.53043  23139734.849    23139736.7034
        42.200          22.5004
 128917233.123 6 100454992.57843  24532130.888    24532132.3904
        38.100          21.3004
 12 10 28  0 14  0.0000000  0 11G29G06G22G21G18G31G03G30G16G14G19
 129046708.077 6 100555875.78043  24556776.582    24556776.8534
        38.000          20.9004
 112431152.334 8  87608681.61446  21394933.817    21394929.9274
        48.800          36.7004
 106542117.168 8  83019803.26947  20274289.429    20274281.3784
        50.500          43.5004
 123914066.994 6  96556394.68944  23580063.702    23580057.7604
        40.500          24.8004
 115687749.547 8  90146271.82145  22014646.787    22014640.5524
        48.000          34.2004
                                  25177372.375
        29.600
 115703558.397 7  90158621.18345  22017649.321    22017648.0684
        44.400          31.2004
 112669548.447 8  87794446.48446  21440304.979    21440304.7234
        50.200          37.7004
 112062244.692 8  87321220.35046  21324735.749    21324732.4454
        50.400          37.7004
 121531997.123 6  94700296.96143  23126758.511    23126760.5414
        41.300          21.8004
 128836214.132 6 100391861.05143  24516713.850    24516714.2974
        39.600          20.9004
 12 10 28  0 14 30.0000000  0 10G29G06G22G21G18G03G30G16G14G19
 129117291.123 6 100610875.37143  24570207.270    24570209.3584
        37.700          21.3004
 112371246.318 8  87562001.72046  21383534.147    21383530.2574
        48.900          36.2004
 106550043.287 8  83025979.55147  20275797.320    20275789.5624
        50.100          43.1004
 123953492.858 6  96587116.08844  23587566.089    23587560.7334
        39.700          24.4004
 115758636.347 8  90201508.28645  22028136.015    22028129.5474
        48.000          33.6004
 115622376.146 7  90095362.53345  22002201.423    22002199.9364
        44.900          31.9004
 112733068.460 8  87843942.46546  21452392.564    21452392.1324
        49.800          37.4004
 112055264.083 8  87315780.92746  21323407.312    21323404.3604
        49.700          37.5004
 121463878.690 7  94647218.15843  23113795.964    23113798.3454
        42.800          22.6004
 128755106.724 6 100328660.57543  24501278.979    24501281.1844
        39.200          22.3004
 12 10 28  0 15  0.0000000  0 10G29G06G22G21G18G03G30G16G14G19
 129188110.381 6 100666059.07843  24583683.877    24583686.1414
        37.300          21.3004
 112311512.726 8  87515456.17046  21372166.667    21372162.9534
        48.300          36.0004
 106558462.722 8  83032540.23747  20277399.538    20277391.8384
        50.300          42.8004
 123992858.101 6  96617790.30744  23595056.428    23595051.3074
        39.600          24.0004
 115829779.545 8  90256944.53645  22041674.562    22041668.3864
        49.100          34.4004
 115541360.127 7  90032233.41345  21986784.305    21986782.9354
        45.200          31.9004
 112796988.420 8  87893750.08646  21464556.130    21464556.6364
        49.600          37.7004
 112048839.271 8  87310774.59346  21322184.749    21322182.0314
        49.900          38.3004
 121395831.348 6  94594194.71043  23100846.742    23100848.2454
        41.400          21.8004
 128673913.740 7 100265393.48343  24485830.067    24485830.1624
        42.000          22.3004
 12 10 28  0 15 30.0000000  0 10G29G06G22G21G18G03G30G16G14G19
 129259164.490 6 100721425.73643  24597205.461    24597206.7874
        38.700          22.2004
 112251952.455 7  87469045.69146  21360832.797    21360828.9654
        47.900          36.6004
 106567373.262 8  83039483.59947  20279095.275    20279087.5764
        50.700          42.9004
 124032162.054 6  96648416.75144  23602536.275    23602530.9794
        40.200          25.7004
 115901175.373 8  90312577.63145  22055260.951    22055254.4244
        48.900          34.3004
 115460511.784 7  89969234.94345  21971399.152    21971397.3714
        45.600          31.9004
 112861304.671 8  87943866.50846  21476795.154    21476795.6014
        49.200          37.6004
 112042969.250 8  87306200.56846  21321067.841    21321064.8304
        49.300          37.7004
 121327856.886 6  94541228.08343  23087911.343    23087913.0804
        41.200          22.8004
 128592635.281 6 100202059.72043  24470362.819    24470362.7394
        41.200          21.7004
 12 10 28  0 16  0.0000000  0 10G29G06G22G21G18G03G30G16G14G19
 129330453.863 6 100776975.78043  24610770.636    24610772.8424
        40.100          21.3004
 112192568.514 7  87422772.59846  21349532.753    21349529.0974
        47.500          36.9004
 106576774.573 8  83046809.38247  20280884.135    20280876.5534
        50.500          43.2004
 124071405.951 6  96678996.36443  23610003.344    23609998.8684
        39.400          23.5004
 115972823.124 8  90368407.03345  22068894.699    22068888.3474
        49.100          33.8004
 115379834.365 7  89906369.66545  21956046.403    21956044.3884
        45.900          31.7004
 112926015.030 8  87994290.01546  21489109.490    21489109.5864
        50.000          36.7004
 112037655.031 8  87302059.63146  21320056.733    21320053.1364
        50.400          38.6004
 121259959.301 7  94488321.33243  23074990.006    23074992.3294
        42.400          22.9004
 128511273.159 6 100138660.85343  24454879.294    24454879.4484
        38.700          21.7004
 12 10 28  0 16 30.0000000  0 10G29G06G22G21G18G03G30G16G14G19
 129401977.059 6 100832708.03043  24624382.178    24624383.2704
        39.800          20.6004
 112133362.228 7  87376637.94646  21338265.909    21338261.9024
        47.900          37.2004
 106586664.999 8  83054516.27647  20282766.343    20282758.2924
        49.900          43.4004
 124110589.395 6  96709528.89043  23617460.744    23617454.8614
        39.900          22.0004
 116044719.484 7  90424430.14645  22082576.059    22082570.0004
        47.200          34.2004
 115299329.488 7  89843638.82245  21940726.771    21940724.7564
        45.800          32.2004
 112991115.910 8  88045017.82946  21501497.699    21501497.9714
        50.300          37.1004
 112032895.583 8  87298350.98946  21319150.684    21319147.9084
        49.100          38.1004
 121192140.634 7  94435476.07243  23062085.220    23062086.3124
        42.300          22.5004
 128429828.226 6 100075197.41143  24439380.384    24439381.5354
        39.900          22.6004
 12 10 28  0 17  0.0000000  0 10G29G06G22G21G18G03G30G16G14G19
 129473734.218 6 100888622.60343  24638035.925    24638038.6584
        38.300          20.6004
 112074336.369 7  87330643.88446  21327033.766    21327029.7004
        47.000          36.5004
 106597044.015 8  83062603.91147  20284741.596    20284733.4274
        49.600          43.2004
 124149713.267 6  96740014.97144  23624905.751    23624900.5714
        40.400          24.7004
 116116862.832 7  90480645.72645  22096304.699    22096298.3474
        47.500          34.6004
 115219000.124 7  89781044.74945  21925440.260    21925437.9534
        45.700          32.1004
 113056604.889 8  88096048.05246  21513959.688    21513959.9014
        50.200          37.1004
 112028691.228 8  87295074.88046  21318350.509    21318347.2054
        49.900          37.9004
 121124404.660 7  94382695.30044  23049194.610    23049196.3474
        43.000          24.3004
 128348301.772 6 100011670.45843  24423866.288    24423867.2624
        40.500          22.6004
 12 10 28  0 17 30.0000000  0 10G29G06G22G21G18G03G30G16G14G19
 129545724.336 6 100944718.64143  24651736.026    24651738.2904
        40.600          21.5004
 112015492.280 8  87284791.47346  21315836.040    21315831.2124
        48.200          36.5004
 106607909.653 8  83071070.71747  20286808.825    20286800.7734
        49.500          43.8004
 124188777.045 6  96770454.24944  23632338.991    23632334.1054
        40.900          25.0004
 116189250.145 7  90537051.40545  22110080.062    22110073.3594
        47.200          34.5004
 115138847.682 7  89718588.52845  21910187.631    21910185.1484
        44.600          31.5004
 113122478.291 8  88147377.83346  21526495.357    21526495.9804
        50.700          37.2004
 112025040.719 8  87292230.34546  21317656.129    21317652.7664
        50.000          38.0004
 121056753.432 7  94329980.51844  23036319.773    23036322.0964
        42.500          24.2004
 128266694.206 6  99948080.36543  24408337.971    24408338.2434
        40.800          22.8004
 12 10 28  0 18  0.0000000  0 10G29G06G22G21G18G03G30G16G14G19
 129617947.307 6 101000996.15843  24665479.997    24665481.5584
        41.000          20.9004
 111956832.680 8  87239082.80446  21304673.522    21304668.6954
        49.000          36.7004
 106619261.609 8  83079916.46647  20288968.984    20288960.8154
        49.800          43.7004
 124227781.654 6  96800847.40843  23639761.274    23639756.3884
        40.600          22.3004
 116261879.674 8  90593645.81145  22123900.750    22123894.9264
        48.100          33.7004
 115058875.323 7  89656272.63745  21894969.453    21894966.6764
        45.000          31.7004
 113188733.879 8  88199005.41646  21539103.641    21539103.7364
        50.000          36.8004
 112021944.902 8  87289818.01346  21317067.075    21317064.1234
        50.700          38.2004
 120989189.870 7  94277334.05344  23023463.350    23023464.9704
        43.100          26.8004
 128185007.118 6  99884428.25243  24392792.187    24392793.4554
        39.800          22.2004
 12 10 28  0 18 30.0000000  0 10G29G06G22G21G18G03G30G16G14G19
 129690401.884 6 101057454.13843  24679267.416    24679269.5634
        41.800          21.1004
 111898358.991 8  87193519.00746  21293546.439    21293541.6704
        49.100          37.5004
 106631098.060 8  83089139.73547  20291221.209    20291213.2754
        50.100          43.3004
 124266726.941 6  96831194.35243  23647171.032    23647167.0834
        40.400          22.9004
 116334748.122 7  90650426.39245  22137767.234    22137760.5894
        46.900          33.9004
 114979084.883 7  89594098.49445  21879785.462    21879782.9784
        46.000          32.3004
 113255367.771 8  88250927.78346  21551783.336    21551783.7254
        49.900          36.4004
 112019402.541 8  87287836.96446  21316582.715    21316580.1734
        50.600          37.2004
 120921716.172 7  94224757.61144  23010623.063    23010624.7414
        43.200          26.4004
 128103241.083 6  99820714.63443  24377233.060    24377233.5084
        41.500          23.0004
 12 10 28  0 19  0.0000000  0 10G29G06G22G21G18G03G30G16G14G19
 129763088.785 7 101114093.18543  24693099.813    24693100.7884
        42.000          21.7004
 111840074.524 8  87148102.64546  21282455.445    21282449.9144
        48.900          37.6004
 106643418.803 8  83098740.36447  20293566.346    20293558.0024
        50.400          43.0004
 124305614.400 6  96861496.21144  23654572.314    23654567.7204
        40.600          24.8004
 116407854.690 8  90707392.50545  22151677.961    22151672.4304
        48.200          32.9004
 114899479.719 7  89532068.72345  21864637.088    21864634.0774
        46.300          32.3004
 113322378.345 8  88303143.66546  21564535.277    21564535.6074
        49.100          36.9004
 112017414.467 8  87286287.82646  21316205.011    21316201.8834
        51.200          38.5004
 120854337.142 7  94172254.92044  22997800.857    22997802.7704
        42.900          25.6004
 128021398.360 6  99756941.26743  24361658.343    24361658.7324
        40.200          22.8004
 12 10 28  0 19 30.0000000  0 10G29G06G22G21G18G03G30G16G14G19
 129836007.015 6 101170912.46343  24706974.733    24706976.7044
        40.600          22.2004
 111781980.628 8  87102834.79246  21271399.896    21271395.3614
        49.600          37.9004
 106656222.159 8  83108717.05947  20296002.207    20295993.9804
        49.700          43.0004
 124344444.025 6  96891753.04043  23661961.221    23661956.2174
        39.200          23.4004
 116481196.708 7  90764542.09545  22165635.079    22165628.8444
        46.300          32.7004
 114820061.826 7  89470184.87145  21849524.092    21849521.1394
        46.800          32.7004
 113389762.044 8  88355650.29446  21577357.821    21577359.0304
        49.000          37.0004
 112015979.377 8  87285169.58546  21315931.346    21315928.7454
        50.300          37.7004
 120787054.942 7  94119827.69944  22984997.380    22984998.7064
        44.300          26.8004
 127939479.488 6  99693108.59044  24346068.953    24346070.6904
        38.900          24.4004
 12 10 28  0 20  0.0000000  0 10G29G06G22G21G18G03G30G16G14G19
 129909154.898 6 101227910.71743  24720895.623    24720897.1844
        39.900          21.7004
 111724079.396 8  87057717.05746  21260381.767    21260377.1154
        50.000          37.2004
 106669506.582 8  83119068.61247  20298529.810    20298522.2274
        51.100          43.2004
 124383215.435 6  96921964.47443  23669339.091    23669333.9124
        40.700          22.5004
 116554771.351 7  90821872.95745  22179635.340    22179629.6924
        46.800          32.7004
 114740832.960 7  89408448.32645  21834446.586    21834444.8064
        47.400          33.1004
 113457515.481 8  88408445.01846  21590250.933    21590251.5564
        49.900          37.4004
 112015096.961 8  87284481.98246  21315763.778    21315760.8844
        50.500          37.6004
 120719871.910 7  94067477.73444  22972212.170    22972213.7314
        43.700          27.1004
 127857485.191 6  99629217.12643  24330467.061    24330466.3944
        39.600          22.8004
 12 10 28  0 20 30.0000000  0 10G29G06G22G21G18G03G30G16G14G19
 129982532.223 6 101285087.67343  24734857.559    24734861.9334
        38.000          20.9004
 111666372.340 8  87012750.63046  21249400.180    21249395.8214
        49.900          37.3004
 106683270.445 8  83129793.75147  20301149.413    20301141.1864
        51.600          42.7004
 124421928.776 6  96952130.67443  23676706.273    23676701.4464
        39.200          21.5004
 116628575.666 7  90879382.77545  22193679.907    22193674.4934
        47.600          32.1004
 114661795.005 8  89346860.53345  21819406.801    21819403.9074
        48.000          33.2004
 113525635.209 8  88461525.16346  21603214.278    21603214.9014
        50.000          37.1004
 112014766.349 8  87284224.37046  21315701.112    21315697.5744
        50.800          38.0004
 120652790.614 7  94015207.06644  22959447.131    22959447.2854
        43.400          25.5004
 127775416.621 6  99565267.80343  24314850.918    24314850.1344
        41.100          22.8004
 12 10 28  0 21  0.0000000  0 11G29G06G22G21G18G31G03G30G16G14G19
 130056142.916 6 101342446.50543  24748865.592    24748869.0294
        37.100          20.1004
 111608866.438 8  86967940.94446  21238456.615    21238452.5494
        49.200          38.1004
 106697517.765 8  83140895.60747  20303860.178    20303852.0684
        50.400          43.4004
 124460589.612 6  96982255.94843  23684062.704    23684057.5254
        38.900          20.9004
 116702612.535 7  90937073.81045  22207769.250    22207762.8984
        46.600          32.3004
 132739012.033 5                  25259355.257
        32.400
 114582955.535 7  89285427.40345  21804403.868    21804401.6194
        47.900          33.1004
 113594123.218 8  88514892.29446  21616247.000    21616247.6824
        50.000          36.6004
 112014991.960 8  87284400.16646  21315743.527    21315740.4584
        49.800          37.7004
 120585818.612 7  93963021.53044  22946702.316    22946702.7634
        44.200          24.8004
 127693279.553 6  99501265.10143  24299218.882    24299219.3294
        39.800          22.5004
 12 10 28  0 21 30.0000000  0 11G29G06G22G21G18G31G03G30G16G14G19
 130129978.248 6 101399980.39243  24762916.482    24762919.4494
        39.000          19.9004
 111551555.793 8  86923283.41446  21227551.095    21227546.8534
        48.000          37.8004
 106712238.654 8  83152366.48147  20306661.747    20306653.7544
        51.800          43.3004
 124499190.003 6  97012334.12443  23691408.011    23691402.9484
        40.600          21.8004
 116776871.448 7  90994937.88845  22221899.975    22221894.1504
        47.900          32.4004
 132767402.988 5                  25264757.538
        33.800
 114504308.412 8  89224144.14445  21789437.266    21789434.7824
        48.600          33.8004
 113662968.073 8  88568537.46746  21629348.011    21629348.9284
        49.300          37.3004
 112015765.103 8  87285002.62546  21315890.701    21315888.0424
        48.000          37.8004
 120518950.649 7  93910917.06544  22933976.861    22933978.4814
        42.700          25.4004
 127611067.031 6  99437203.60343  24283573.810    24283574.5504
        39.900          22.8004
 12 10 28  0 22  0.0000000  0 11G29G06G22G21G18G31G03G30G16G14G19
 130204042.916 6 101457692.97643  24777010.732    24777012.8204
        38.500          20.1004
 111494447.707 7  86878783.71746  21216683.484    21216679.3014
        47.400          38.2004
 106727437.647 8  83164209.89447  20309553.754    20309545.8794
        50.300          43.5004
 124537735.230 6  97042369.31543  23698743.315    23698738.3114
        39.400          20.6004
 116851355.252 7  91052977.19345  22236073.882    22236067.8824
        46.300          32.6004
 132795472.433 6 103477117.45043  25270099.393    25270104.2364
        37.000          19.0004
 114425861.622 7  89163016.99145  21774509.512    21774506.8534
        47.600          34.0004
 113732172.253 8  88622462.64446  21642516.899    21642518.0494
        49.600          36.3004
 112017090.358 8  87286035.29446  21316142.887    21316140.5804
        48.800          39.0004
 120452195.291 7  93858900.37044  22921273.774    22921274.5154
        43.900          26.4004
 127528785.620 6  99373088.41543  24267916.977    24267916.4284
        41.600          22.0004
 12 10 28  0 22 30.0000000  0 11G29G06G22G21G18G31G03G30G16G14G19
 130278334.702 6 101515582.61243  24791149.443    24791151.4144
        39.500          20.6004
 111437542.819 7  86834442.34746  21205855.022    21205850.6054
        47.400          37.5004
 106743111.322 8  83176423.20047  20312536.433    20312528.0304
        50.200          43.0004
 124576224.736 6  97072361.09843  23706067.310    23706062.5414
        37.600          21.1004
 116926059.923 7  91111188.60345  22250289.903    22250283.7284
        46.900          32.4004
 132823217.360 6 103498736.75643  25275378.067    25275384.7274
        36.200          18.6004
 114347615.924 8  89102046.52145  21759620.052    21759617.3344
        48.300          34.4004
 113801730.997 8  88676664.09446  21655753.517    21655755.0194
        49.000          36.2004
 112018965.698 8  87287496.59446  21316500.400    21316497.3894
        48.600          38.0004
 120385553.539 7  93806972.17844  22908591.416    22908593.1534
        43.600          26.5004
 127446434.749 6  99308919.09844  24252246.100    24252245.7264
        41.700          24.7004
 12 10 28  0 23  0.0000000  0 11G29G06G22G21G18G31G03G30G16G14G19
 130352853.632 6 101573649.12743  24805328.256    24805331.4004
        39.600          21.8004
 111380844.049 8  86790261.58946  21195065.330    21195060.7374
        48.100          37.4004
 106759259.251 8  83189006.05047  20315609.135    20315600.8494
        50.900          42.4004
 124614659.533 6  97102310.23343  23713381.084    23713376.9014
        37.600          20.9004
 117000984.494 7  91169571.37045  22264547.350    22264541.4084
        45.900          32.2004
 132850637.790 6 103520103.30142  25280596.377    25280602.0414
        37.500          16.9004
 114269574.509 7  89041235.24145  21744768.616    21744766.1334
        47.200          34.2004
 113871642.215 8  88731140.20146  21669057.493    21669058.1744
        48.400          36.1004
 112021391.666 8  87289386.94246  21316961.508    21316958.3804
        49.800          37.9004
 120319029.507 7  93755135.70544  22895932.230    22895932.7944
        43.000          25.8004
 127364016.248 6  99244697.13243  24236561.187    24236562.0444
        39.600          22.3004
 12 10 28  0 23 30.0000000  0 11G29G06G22G21G18G31G03G30G16G14G19
 130427598.089 6 101631891.42543  24819551.774    24819555.2694
        37.900          20.6004
 111324352.356 8  86746242.18546  21184315.056    21184310.5214
        48.100          37.1004
 106775879.107 8  83201956.64547  20318771.785    20318763.8514
        49.900          43.3004
 124653038.903 6  97132216.17543  23720685.457    23720679.9264
        40.600          21.5004
 117076125.375 7  91228122.69145  22278846.928    22278839.9904
        45.600          31.9004
 132877731.830 6 103541215.43242  25285751.978    25285757.7584
        36.200          16.3004
 114191738.632 7  88980584.11545  21729957.341    21729953.6854
        47.900          34.5004
 113941901.797 8  88785887.76446  21682427.795    21682428.7704
        48.200          36.0004
 112024366.662 8  87291705.11246  21317527.540    21317524.7054
        48.700          38.7004
 120252624.392 7  93703391.89844  22883295.922    22883295.1384
        43.800          25.6004
 127281530.734 6  99180422.91543  24220865.732    24220865.6514
        40.600          22.8004
 12 10 28  0 24  0.0000000  0 11G29G06G22G21G18G31G03G30G16G14G19
 130502571.491 6 101690312.08043  24833819.893    24833820.8674
        39.400          21.8004
 111268073.919 8  86702388.95146  21173605.859    21173601.6174
        48.800          37.4004
 106792973.702 8  83215277.16647  20322024.609    20322016.4994
        50.800          42.8004
 124691367.385 6  97162082.50443  23727978.874    23727973.9884
        39.400          22.3004
 117151484.339 7  91286843.94045  22293186.706    22293180.4714
        46.700          31.5004
 132904502.479 5 103562075.55242  25290846.872    25290852.5364
        35.300          14.8004
 114114115.009 7  88920098.38345  21715185.602    21715182.6504
        47.300          34.4004
 114012510.509 8  88840907.37646  21695864.016    21695865.1674
        48.700          36.5004
 112027893.701 8  87294453.45646  21318198.712    21318196.1114
        49.800          37.8004
 120186345.778 7  93651746.66444  22870682.919    22870683.0734
        44.100          26.4004
 127198983.492 6  99116100.64743  24205156.433    24205157.1734
        40.100          22.3004
 12 10 28  0 24 30.0000000  0 11G29G06G22G21G18G31G03G30G16G14G19
 130577766.520 6 101748905.49643  24848128.964    24848130.9934
        38.900          22.2004
 111212004.455 8  86658698.55146  21162935.928    21162931.7454
        49.100          37.4004
 106810535.172 8  83228961.49447  20325367.048    20325358.2934
        51.000          42.4004
 124729638.599 6  97191904.19543  23735261.674    23735257.2564
        39.800          22.3004
 117227052.117 7  91345727.91345  22307566.741    22307560.9754
        46.800          31.4004
 132930942.248 5 103582677.99142  25295879.002    25295884.7824
        32.900          14.8004
 114036699.157 7  88859774.54345  21700453.035    21700450.7284
        47.000          34.7004
 114083458.757 8  88896191.56346  21709365.622    21709366.0704
        49.100          36.4004
 112031966.061 8  87297626.71046  21318974.121    21318971.1104
        49.900          38.3004
 120120189.596 7  93600196.80244  22858094.654    22858094.2224
        44.900          26.9004
 127116368.955 6  99051725.89743  24189435.822    24189435.3314
        41.800          22.8004
 12 10 28  0 25  0.0000000  0 11G29G06G22G21G18G31G03G30G16G14G19
 130653185.609 6 101807673.49243  24862480.198    24862483.3414
        36.800          22.2004
 111156149.250 7  86615175.11946  21152306.812    21152302.4534
        47.300          37.4004
 106828565.435 8  83243011.11647  20328797.454    20328789.2854
        51.400          43.1004
 124767857.145 6  97221684.84643  23742535.048    23742530.2794
        41.000          22.2004
 117302829.979 7  91404775.58145  22321986.558    22321980.5004
        47.300          31.6004
 132957053.443 5 103603024.19742  25300847.278    25300853.1184
        31.900          12.6004
 113959496.823 7  88799617.08545  21685762.163    21685759.3874
        46.700          34.6004
 114154746.772 8  88951740.49646  21722931.327    21722931.9504
        48.000          36.4004
 112036585.909 7  87301226.58746  21319852.996    21319850.3954
        47.700          38.0004
 120054162.209 7  93548747.30044  22845528.409    22845528.5044
        44.700          26.5004
 127033691.761 6  98987302.35144  24173702.702    24173701.8014
        41.800          24.4004
 12 10 28  0 25 30.0000000  0 11G29G06G22G21G18G31G03G30G16G14G19
 130728828.776 5 101866616.05443  24876873.461    24876878.1864
        35.700          20.9004
 111100511.096 8  86571820.81546  21141719.125    21141714.1804
        48.000          37.7004
 106847063.447 8  83257425.22547  20332317.750    20332309.6404
        50.800          42.6004
 124806022.909 6  97251424.33743  23749797.130    23749792.5374
        40.900          22.6004
 117378816.094 7  91463985.51745  22336446.050    22336440.8714
        46.100          31.2004
 132982835.412 4 103623114.02442  25305752.410    25305759.3634
        29.400          13.9004
 113882511.042 7  88739628.37245  21671111.944    21671110.1054
        46.000          34.2004
 114226372.055 8  89007552.24346  21736561.277    21736562.2524
        48.700          36.0004
 112041753.333 8  87305253.13846  21320835.859    21320833.7274
        48.100          38.2004
 119988266.922 7  93497400.71544  22832989.549    22832988.7074
        44.400          26.8004
 126950953.626 6  98922831.30044  24157956.289    24157957.4404
        39.400          25.0004
 12 10 28  0 26  0.0000000  0 10G29G06G22G21G18G03G30G16G14G19
 130804694.603 5 101925732.13143  24891311.623    24891314.6494
        35.300          18.6004
 111045091.111 7  86528636.49946  21131172.954    21131168.2444
        47.300          37.7004
 106866027.162 8  83272202.21647  20335926.212    20335918.2784
        51.100          42.7004
 124844136.129 6  97281122.91443  23757049.767    23757045.6434
        40.700          22.6004
 117455007.410 7  91523355.36345  22350944.989    22350939.2824
        47.200          31.2004
 113805743.169 7  88679809.45245  21656503.330    21656500.7884
        46.600          34.2004
 114298330.706 8  89063623.75146  21750254.563    21750255.7134
        48.500          36.9004
 112047466.640 7  87309705.04746  21321923.599    21321920.3544
        47.900          37.8004
 119922505.798 7  93446158.67744  22820474.281    22820474.1424
        44.100          26.6004
 126868154.876 6  98858313.05444  24142200.326    24142201.1844
        40.300          24.6004
 12 10 28  0 26 30.0000000  0 10G29G06G22G21G18G03G30G16G14G19
 130880782.735 6 101985021.41643  24905791.542    24905794.0994
        38.500          19.6004
 110989892.418 8  86485624.62146  21120669.137    21120664.3094
        48.600          37.7004
 106885455.809 8  83287341.49247  20339623.669    20339615.6174
        51.200          43.0004
 124882197.873 6  97310781.36143  23764292.429    23764288.4224
        40.000          21.7004
 117531402.326 7  91582883.85945  22365482.283    22365476.5764
        47.900          31.5004
 113729196.799 7  88620163.12245  21641937.342    21641933.7454
        46.600          34.0004
 114370620.282 7  89119953.11545  21764010.646    21764012.2074
        47.500          35.9004
 112053725.859 8  87314582.34346  21323114.692    21323111.7994
        48.600          38.0004
 119856882.747 7  93395024.21444  22807986.791    22807986.2424
        44.900          26.8004
 126785297.782 6  98793749.34543  24126434.786    24126433.8854
        39.900          23.9004
 12 10 28  0 27  0.0000000  0 10G29G06G22G21G18G03G30G16G14G19
 130957092.405 6 102044483.33643  24920313.328    24920315.2994
        39.800          19.3004
 110934916.724 8  86442786.51146  21110207.945    21110202.9414
        49.200          37.6004
 106905347.462 8  83302841.56347  20343408.490    20343400.2634
        50.600          42.8004
 124920208.281 6  97340399.81043  23771526.059    23771520.9974
        39.900          22.0004
 117607998.476 8  91642569.14645  22380058.294    22380052.2364
        48.500          32.3004
 113652873.518 7  88560690.63145  21627413.208    21627410.3734
        47.100          34.2004
 114443237.279 7  89176537.62246  21777829.934    21777831.1434
        47.900          36.4004
 112060530.064 8  87319884.30846  21324409.282    21324406.5054
        48.800          38.4004
 119791400.340 7  93343999.33544  22795525.829    22795525.0464
        44.900          27.4004
 126702383.451 6  98729141.03843  24110655.090    24110655.0684
        38.900          22.9004
 12 10 28  0 27 30.0000000  0 10G29G06G22G21G18G03G30G16G14G19
 131033622.596 6 102104117.06043  24934876.603    24934878.9854
        38.700          19.6004
 110880166.399 8  86400124.00246  21099789.095    21099784.4434
        50.000          37.9004
 106925700.658 8  83318701.27747  20347281.344    20347273.2934
        49.900          42.9004
 124958167.637 6  97369978.50243  23778748.843    23778744.6014
        39.000          22.3004
 117684792.948 8  91702408.97545  22394672.052    22394665.5834
        48.900          31.9004
 113576775.708 7  88501393.81445  21612931.722    21612928.5944
        46.200          34.5004
 114516178.507 8  89233374.78445  21791709.928    21791711.4894
        48.100          35.9004
 112067878.343 8  87325610.22446  21325807.752    21325804.8584
        49.800          39.3004
 119726061.170 7  93293086.07044  22783091.710    22783090.5754
        44.100          27.9004
 126619412.794 6  98664488.84044  24094865.861    24094866.6604
        38.200          25.3004
 12 10 28  0 28  0.0000000  0 10G29G06G22G21G18G03G30G16G14G19
 131110371.979 6 102163921.59843  24949480.332    24949483.8274
        39.100          18.6004
 110825642.875 8  86357638.22146  21089413.708    21089408.5294
        49.700          37.6004
 106946513.703 8  83334919.30747  20351242.305    20351233.7274
        50.700          42.4004
 124996076.405 6  97399517.76243  23785963.619    23785958.0294
        39.200          21.5004
 117761783.058 8  91762401.23945  22409322.841    22409316.8994
        48.700          32.4004
 113500905.925 7  88442274.69145  21598494.024    21598491.0144
        46.400          34.4004
 114589440.669 7  89290462.00246  21805651.934    21805652.9084
        47.200          36.2004
 112075769.517 8  87331759.17246  21327309.725    21327306.4794
        50.400          38.5004
 119660868.118 7  93242286.65744  22770685.631    22770685.0234
        44.500          27.0004
 126536386.967 6  98599793.62543  24079068.224    24079066.7374
        40.200          23.2004
 12 10 28  0 28 30.0000000  0 10G29G06G22G21G18G03G30G16G14G19
 131187340.479 6 102223896.85143  24964127.240    24964130.9694
        39.400          19.3004
 110771348.296 8  86315330.83146  21079081.399    21079076.9234
        50.000          38.2004
 106967785.322 8  83351494.66847  20355289.777    20355281.7844
        50.600          42.5004
 125033935.682 6  97429018.45443  23793167.264    23793162.7294
        38.100          20.6004
 117838967.561 8  91822544.99045  22424010.448    22424004.6244
        48.700          33.0004
 113425266.700 7  88383335.20945  21584100.406    21584096.9274
        47.200          34.7004
 114663020.789 8  89347796.98546  21819653.517    21819654.4334
        48.600          36.4004
 112084203.027 8  87338330.71146  21328914.680    21328911.2004
        50.200          38.0004
 119595824.174 7  93191603.43144  22758307.777    22758307.2874
        43.900          28.1004
 126453307.477 6  98535056.59144  24063256.919    24063257.2494
        38.900          25.1004
 12 10 28  0 29  0.0000000  0 10G29G06G22G21G18G03G30G16G14G19
 131264527.457 6 102284042.36643  24978816.409    24978818.9084
        38.700          19.0004
 110717285.660 8  86273204.18446  21068793.619    21068788.7914
        50.000          37.5004
 106989514.342 8  83368426.45047  20359424.457    20359416.2304
        50.800          42.4004
 125071745.877 6  97458480.88643  23800362.841    23800357.7794
        38.800          21.3004
 117916343.901 8  91882838.21245  22438735.195    22438728.9614
        48.400          32.9004
 113349860.785 8  88324577.53245  21569751.212    21569748.0254
        48.500          34.5004
 114736916.157 8  89405377.62045  21833715.614    21833716.2374
        48.800          35.9004
 112093178.440 8  87345324.51846  21330622.888    21330619.2914
        50.800          37.9004
 119530932.694 7  93141038.99844  22745959.760    22745958.7424
        43.800          28.4004
 126370176.018 6  98470279.10244  24047437.435    24047438.2344
        39.200          26.0004
 12 10 28  0 29 30.0000000  0 10G29G06G22G21G18G03G30G16G14G19
 131341931.839 6 102344357.26743  24993545.820    24993549.4914
        38.600          19.9004
 110663456.038 8  86231259.09446  21058550.056    21058545.4634
        49.800          37.7004
 107011698.609 8  83385712.96247  20363646.141    20363637.6214
        49.900          42.5004
 125109506.885 6  97487904.98543  23807547.914    23807544.6694
        37.600          22.0004
 117993909.900 8  91943279.21845  22453495.265    22453489.0314
        48.100          31.8004
 113274690.135 7  88266003.17445  21555446.711    21555443.4654
        47.600          34.7004
 114811122.914 8  89463200.90145  21847836.306    21847838.1604
        48.000          35.8004
 112102694.460 8  87352739.57746  21332433.594    21332430.2314
        50.800          38.2004
 119466195.905 7  93090595.07344  22733640.016    22733638.6464
        43.300          27.7004
 126286993.345 6  98405461.67544  24031609.173    24031608.5654
        39.900          25.9004
 12 10 28  0 30  0.0000000  0 10G29G06G22G21G18G03G30G16G14G19
 131419553.479 6 102404841.39743  25008315.928    25008319.6574
        36.500          18.3004
 110609863.189 8  86189498.51446  21048351.741    21048347.0894
        49.000          38.2004
 107034337.891 8  83403354.02147  20367954.404    20367945.8254
        50.500          42.5004
 125147220.273 6  97517292.04543  23814724.282    23814720.9194
        38.100          21.8004
 118071663.566 7  92003866.45645  22468290.976    22468285.1524
        47.900          31.7004
 113199758.027 8  88207614.69745  21541187.170    21541184.0424
        48.300          34.9004
 114885639.175 7  89521265.34145  21862016.685    21862018.0694
        47.900          35.7004
 112112750.861 8  87360575.71146  21334346.830    21334344.3474
        50.500          38.3004
 119401617.952 7  93040274.93544  22721350.852    22721349.3654
        43.100          25.6004
 126203761.867 6  98340606.23644  24015770.217    24015769.4924
        39.800          25.2004
 12 10 28  0 30 30.0000000  0 10G29G06G22G21G18G03G30G16G14G19
 131497390.973 6 102465493.70143  25023129.468    25023131.9674
        38.400          18.3004
 110556508.702 8  86147923.66446  21038198.550    21038193.4884
        49.500          38.0004
 107057429.759 8  83421347.75447  20372348.318    20372340.0324
        51.000          42.5004
 125184886.244 6  97546642.04543  23821892.197    23821888.6004
        38.500          22.9004
 118149601.946 7  92064597.61245  22483122.003    22483116.4134
        47.500          31.6004
 113125066.590 8  88149413.75845  21526974.305    21526970.7094
        48.300          35.1004
 114960461.171 8  89579568.02245  21876254.848    21876256.5264
        48.500          35.2004
 112123346.528 8  87368832.05446  21336363.217    21336360.4994
        50.500          37.7004
 119337201.033 7  92990080.28044  22709092.512    22709090.9674
        43.000          25.7004
 126120482.526 6  98275713.46444  23999922.273    23999922.0764
        40.500          25.9004
 12 10 28  0 31  0.0000000  0 10G29G06G22G21G18G03G30G16G14G19
 131575442.800 6 102526313.08742  25037982.250    25037984.5734
        38.100          17.4004
 110503394.150 8  86106535.77846  21028091.010    21028086.3004
        48.200          37.9004
 107080971.773 8  83439692.24547  20376828.343    20376819.8814
        51.100          42.4004
 125222504.446 6  97575954.88244  23829052.035    23829047.3244
        39.700          24.7004
 118227722.488 7  92125470.71745  22497988.402    22497981.9924
        47.600          31.3004
 113050617.282 8  88091401.49445  21512806.985    21512803.5064
        49.000          34.9004
 115035584.876 8  89638105.80445  21890550.991    21890552.3174
        49.000          35.3004
 112134479.263 8  87377506.89646  21338481.973    21338478.8454
        50.700          37.7004
 119272947.310 7  92940012.76644  22696865.414    22696864.3964
        42.000          27.4004
 126037156.031 6  98210783.98244  23984066.369    23984065.2924
        39.200          25.0004
 12 10 28  0 31 30.0000000  0 10G29G06G22G21G18G03G30G16G14G19
 131653709.902 6 102587300.18042  25052876.748    25052878.3674
        37.900          17.8004
 110450522.544 8  86065337.19646  21018030.060    21018025.0564
        49.000          38.3004
 107104963.858 8  83458387.43347  20381393.542    20381385.7254
        50.600          42.1004
 125260076.809 6  97605232.02143  23836201.736    23836197.0844
        39.900          23.3004
 118306024.164 7  92186484.96945  22512888.285    22512882.1684
        47.500          31.8004
 112976413.863 8  88033580.81645  21498685.497    21498682.2524
        48.700          35.3004
 115111008.515 8  89696877.29245  21904903.036    21904905.3004
        48.200          35.2004
 112146149.942 8  87386600.90846  21340702.521    21340699.6284
        50.500          38.2004
 119208861.391 6  92890076.02244  22684669.568    22684668.4924
        41.300          27.2004
 125953784.878 6  98145819.70744  23968200.803    23968200.4294
        39.000          25.0004
 12 10 28  0 32  0.0000000  0 10G29G06G22G21G18G03G30G16G14G19
 131732190.772 6 102648453.85542  25067809.685    25067813.3554
        36.800          16.9004
 110397895.932 8  86024329.52446  21008014.935    21008010.5764
        49.200          38.0004
 107129404.721 8  83477432.33147  20386044.618    20386036.5084
        50.900          42.5004
 125297603.872 6  97634473.83943  23843342.093    23843338.2034
        39.600          22.6004
 118384504.303 7  92247638.28845  22527823.086    22527816.9694
        47.900          31.6004
 112902458.594 8  87975953.50545  21484612.368    21484609.0644
        48.800          35.1004
 115186728.886 8  89755880.00245  21919312.064    21919314.1524
        48.600          35.3004
 112158356.993 8  87396112.87246  21343025.437    21343022.3094
        50.400          38.0004
 119144945.633 6  92840271.87844  22672506.576    22672505.6754
        41.400          26.6004
 125870370.505 6  98080821.75744  23952325.802    23952327.3634
        40.200          26.2004
 12 10 28  0 32 30.0000000  0 10G29G06G22G21G18G03G30G16G14G19
 131810884.699 6 102709773.51642  25082785.695    25082789.6594
        37.100          15.6004
 110345516.262 8  85983514.27646  20998048.125    20998043.3564
        49.600          37.7004
 107154292.188 8  83496825.22047  20390780.465    20390772.0034
        51.100          42.9004
 125335085.884 6  97663680.54743  23850474.945    23850470.7034
        40.100          22.6004
 118463161.180 7  92308929.30945  22542790.721    22542785.0154
        47.400          32.2004
 112828753.942 8  87918521.47745  21470586.902    21470583.2474
        49.000          35.3004
 115262742.562 8  89815111.26945  21933777.916    21933779.0664
        49.200          35.3004
 112171099.524 8  87406042.08046  21345450.034    21345447.5504
        49.800          38.1004
 119081203.027 6  92790602.62544  22660376.987    22660375.5004
        41.800          27.4004
 125786914.102 6  98015791.03744  23936446.511    23936445.5524
        41.700          27.1004
 12 10 28  0 33  0.0000000  0 10G29G06G22G21G18G03G30G16G14G19
 131889790.881 5 102771258.54042  25097800.922    25097805.2964
        35.300          16.3004
 110293386.543 8  85942893.78946  20988128.019    20988123.1334
        50.400          38.0004
 107179625.005 8  83516565.13047  20395601.630    20395592.2314
        51.000          42.1004
 125372523.697 6  97692852.81443  23857598.812    23857594.8644
        39.400          22.3004
 118541992.060 8  92370355.92745  22557792.406    22557785.9374
        48.300          31.4004
 112755302.824 8  87861286.99245  21456609.601    21456605.5354
        49.200          35.2004
 115339046.713 8  89874568.87545  21948298.337    21948299.4874
        49.500          35.1004
 112184376.692 8  87416387.91146  21347977.012    21347973.8254
        50.800          38.0004
 119017636.945 6  92741070.92144  22648279.825    22648278.3974
        41.300          25.6004
 125703417.438 6  97950728.91944  23920555.978    23920557.0114
        40.400          26.9004
 12 10 28  0 33 30.0000000  0 10G29G06G22G21G18G03G30G16G14G19
 131968908.097 6 102832907.98642  25112856.804    25112860.3584
        36.300          16.3004
 110241507.712 8  85902468.80646  20978255.784    20978250.3714
        50.700          38.0004
 107205400.818 8  83536650.23947  20400506.136    20400497.6164
        50.200          42.1004
 125409917.645 6  97721990.90343  23864714.705    23864710.8734
        38.800          21.3004
 118620994.351 7  92431916.11145  22572825.371    22572819.8404
        46.700          31.0004
 112682107.120 8  87804251.53345  21442681.029    21442677.1984
        49.100          35.9004
 115415637.665 8  89934249.95445  21962872.855    21962874.7674
        48.100          34.6004
 112198186.938 8  87427149.11646  21350604.711    21350601.8184
        50.000          37.6004
 118954249.397 6  92691678.35044  22636218.219    22636216.2044
        41.500          25.9004
 125619881.333 6  97885636.14444  23904659.884    23904659.4524
        40.100          24.8004
 12 10 28  0 34  0.0000000  0 10G29G06G22G21G18G03G30G16G14G19
 132048235.769 6 102894721.49442  25127952.924    25127955.8924
        36.700          15.6004
 110189882.414 8  85862241.38146  20968431.716    20968427.2404
        50.500          38.6004
 107231618.183 8  83557079.40147  20405495.352    20405486.3044
        49.200          42.0004
 125447268.369 6  97751095.33943  23871821.929    23871817.4534
        37.900          20.1004
 118700166.141 7  92493608.37345  22587891.392    22587885.5684
        45.800          32.1004
 112609169.333 8  87747417.05545  21428800.657    21428797.5294
        48.900          35.1004
 115492512.267 7  89994152.06345  21977501.540    21977503.5694
        45.800          34.5004
 112212529.119 8  87438324.81946  21353333.700    21353331.0414
        50.700          37.8004
 118891043.642 7  92642427.41544  22624189.685    22624188.0224
        42.200          27.0004
 125536307.415 6  97820513.88644  23888754.838    23888755.6954
        40.700          25.9004
 12 10 28  0 34 30.0000000  0 10G29G06G22G21G18G03G30G16G14G19
 132127772.273 6 102956697.68542  25143087.417    25143091.6154
        36.400          16.9004
 110138512.588 8  85822213.02646  20958656.368    20958651.1884
        51.300          39.2004
 107258275.070 8  83577851.05947  20410567.329    20410558.8684
        50.300          42.0004
 125484575.898 6  97780166.08443  23878922.160    23878917.0984
        38.100          19.0004
 118779504.548 7  92555430.46345  22602989.319    22602983.4364
        47.500          31.9004
 112536491.568 7  87690785.17745  21414970.710    21414967.1714
        47.900          35.8004
 115569666.959 7  90054272.42545  21992183.779    21992185.9264
        47.900          34.8004
 112227401.759 8  87449913.86546  21356164.374    21356161.3054
        49.900          38.0004
 118828022.066 7  92593320.00044  22612196.904    22612195.2414
        42.000          26.7004
 125452696.858 6  97755363.07444  23872845.523    23872845.1504
        40.600          24.9004
 12 10 28  0 35  0.0000000  0 10G29G06G22G21G18G03G30G16G14G19
 132207516.699 6 103018835.90443  25158263.352    25158267.4914
        36.800          19.0004
 110087399.629 8  85782384.83646  20948929.934    20948924.9304
        50.800          39.0004
 107285369.578 8  83598963.71347  20415723.500    20415715.2734
        49.500          42.4004
 125521840.550 6  97809203.43743  23886013.981    23886008.5094
        39.100          19.6004
 118859007.135 7  92617380.48845  22618118.575    22618112.2824
        47.300          31.6004
 112464076.030 8  87634357.64145  21401190.408    21401187.2224
        48.100          35.7004
 115647098.447 7  90114608.46445  22006918.929    22006920.6074
        47.200          34.5004
 112242803.614 8  87461915.29546  21359095.051    21359092.2754
        49.000          38.0004
 118765187.404 7  92544358.21544  22600240.466    22600238.2174
        42.600          27.6004
 125369050.915 7  97690184.69344  23856928.185    23856927.3434
        42.000          25.5004
 12 10 28  0 35 30.0000000  0 11G29G06G22G21G18G31G03G30G16G14G19
 132287468.799 5 103081135.92542  25173477.534    25173482.3774
        34.600          16.9004
 110036547.107 8  85742759.58346  20939252.227    20939247.7514
        50.200          38.8004
 107312900.899 8  83620416.74946  20420962.805    20420954.0504
        50.600          41.9004
 125559064.292 6  97838208.92343  23893098.046    23893092.2224
        37.700          19.9004
 118938672.490 7  92679457.34645  22633278.710    22633272.5344
        46.900          31.5004
 133428021.915 5                  25390470.104
        35.500
 112391926.107 7  87578137.07746  21387460.778    21387456.7704
        47.100          36.0004
 115724804.516 7  90175158.46445  22021705.829    22021707.6834
        47.000          35.2004
 112258734.563 8  87474328.99646  21362126.823    21362123.6374
        48.600          37.9004
 118702543.745 7  92495545.26244  22588319.227    22588316.7434
        42.300          27.7004
 125285371.932 7  97624980.53244  23841003.628    23841004.4274
        42.000          27.2004
 12 10 28  0 36  0.0000000  0 11G29G06G22G21G18G31G03G30G16G14G19
 132367627.998 6 103143597.35443  25188732.704    25188735.6714
        36.400          18.6004
 109985957.159 8  85703338.91846  20929625.168    20929620.6924
        50.200          38.6004
 107340867.780 8  83642209.16946  20426284.638    20426276.0594
        49.200          41.6004
 125596247.785 6  97867183.02143  23900173.112    23900167.2884
        37.700          19.3004
 119018498.581 7  92741659.45545  22648468.774    22648462.5394
        46.600          31.2004
 133446700.464 5                  25394022.975
        34.400
 112320044.603 8  87522125.66346  21373782.208    21373777.8494
        48.300          36.3004
 115802782.062 7  90235920.01345  22036544.707    22036547.0894
        46.700          34.7004
 112275193.656 7  87487154.23846  21365258.709    21365255.6984
        47.900          38.0004
 118640094.193 7  92446883.56144  22576435.414    22576432.8724
        42.200          26.6004
 125201661.674 7  97559752.03744  23825074.106    23825073.5574
        42.200          26.0004
 12 10 28  0 36 30.0000000  0 11G29G06G22G21G18G31G03G30G16G14G19
 132447992.953 6 103206219.10442  25204025.505    25204029.1184
        36.400          16.3004
 109935631.537 8  85664124.22246  20920048.436    20920043.6084
        50.300          37.3004
 107369267.865 8  83664339.16046  20431688.926    20431680.1714
        49.300          41.9004
 125633391.090 6  97896125.83243  23907240.573    23907236.0974
        38.300          19.3004
 119098483.174 7  92803985.07745  22663688.393    22663682.8624
        45.300          31.2004
 133465032.756 5                  25397511.456
        35.200
 112248433.441 7  87466324.90645  21360154.893    21360150.5344
        47.300          35.6004
 115881027.524 7  90296890.31645  22051434.811    22051437.2514
        45.700          34.2004
 112292178.844 8  87500389.42946  21368491.353    21368488.3424
        48.300          38.0004
 118577841.099 7  92398374.90444  22564588.712    22564586.1114
        42.300          27.9004
 125117921.254 7  97494500.04144  23809139.850    23809138.1284
        43.800          26.4004
 12 10 28  0 37  0.0000000  0 11G29G06G22G21G18G31G03G30G16G14G19
 132528563.185 5 103269000.75642  25219357.251    25219360.5114
        33.100          16.9004
 109885572.909 8  85625117.57946  20910522.807    20910517.9214
        50.400          37.8004
 107398099.723 8  83686805.59047  20437175.546    20437167.0264
        48.900          42.1004
 125670495.286 6  97925038.14842  23914301.865    23914296.0994
        39.400          17.4004
 119178623.783 7  92866432.26245  22678938.975    22678933.2684
        44.200          31.3004
 133483018.808 5                  25400933.582
        35.500
 112177095.516 7  87410737.06345  21346579.588    21346575.3464
        47.500          35.9004
 115959538.027 7  90358067.14845  22066374.582    22066377.1394
        45.800          34.3004
 112309689.616 7  87514034.16046  21371823.229    21371820.7454
        47.800          38.1004
 118515787.731 7  92350021.90144  22552779.954    22552778.0574
        42.700          28.2004
 125034152.393 7  97429225.87444  23793196.796    23793197.0094
        42.200          26.8004
 12 10 28  0 37 30.0000000  0 11G29G06G22G21G18G31G03G30G16G14G19
 132609337.576 5 103331941.54042  25234726.708    25234732.0794
        31.500          14.8004
 109835782.960 8  85586320.29446  20901047.929    20901043.1014
        50.000          38.0004
 107427361.153 8  83709606.75346  20442743.572    20442735.3444
        49.000          41.9004
 125707560.861 6  97953920.37943  23921354.944    23921348.9444
        41.000          18.3004
 119258918.179 7  92928999.28545  22694218.836    22694212.8954
        46.000          31.1004
 133500657.851 5                  25404291.327
        33.400
 112106032.683 8  87355363.56546  21333056.638    21333052.6904
        48.100          36.3004
 116038310.033 7  90419447.74945  22081364.290    22081366.7894
        46.000          34.2004
 112327724.503 8  87528087.29846  21375255.210    21375252.7854
        48.100          38.1004
 118453936.481 7  92301826.37644  22541010.233    22541008.2194
        42.800          28.2004
 124950356.494 6  97363930.65844  23777251.280    23777250.3794
        41.700          25.6004
 12 10 28  0 38  0.0000000  0 11G29G06G22G21G18G31G03G30G16G14G19
 132690314.482 5 103395040.15142  25250137.763    25250141.7274
        34.300          17.4004
 109786264.078 8  85547734.23846  20891625.234    20891619.7034
        50.800          38.9004
 107457050.314 8  83732741.21447  20448392.669    20448384.4424
        50.000          42.0004
 125744588.103 6  97982772.72743  23928400.125    23928395.4734
        39.200          18.3004
 119339363.783 7  92991684.13445  22709527.013    22709521.0134
        44.400          30.2004
 133517949.116 5                  25407581.602
        33.900
 112035247.407 8  87300206.34945  21319586.964    21319582.7804
        48.100          35.9004
 116117340.290 7  90481029.57845  22096403.346    22096405.9034
        47.000          34.2004
 112346281.531 8  87542547.28546  21378786.839    21378783.7704
        48.800          38.0004
 118392290.333 7  92253790.66244  22529279.189    22529276.8234
        42.900          28.2004
 124866534.672 7  97298615.24844  23761300.451    23761299.8434
        42.800          27.4004
 12 10 28  0 38 30.0000000  0 11G29G06G22G21G18G31G03G30G16G14G19
 132771493.349 5 103458296.10742  25265586.153    25265590.0584
        35.100          16.3004
 109737017.831 8  85509360.62146  20882253.954    20882248.1294
        51.100          38.5004
 107487165.784 8  83756207.86047  20454124.013    20454115.2584
        50.300          42.4004
 125781577.742 6  98011595.72943  23935439.014    23935434.0114
        38.500          19.3004
 119419958.495 7  93054485.16145  22724863.897    22724858.0144
        44.300          30.5004
 133534892.169 5                  25410804.318
        35.600
 111964742.400 7  87245267.53045  21306169.836    21306165.7704
        47.800          35.6004
 116196625.592 7  90542810.15945  22111490.870    22111493.6024
        47.500          34.3004
 112365359.566 8  87557413.26146  21382416.953    21382414.0014
        49.100          37.8004
 118330852.383 7  92205917.17644  22517587.132    22517585.1764
        42.700          28.1004
 124782688.915 7  97233281.18944  23745345.297    23745344.0444
        42.800          25.8004
 12 10 28  0 39  0.0000000  0 11G29G06G22G21G18G31G03G30G16G14G19
 132852873.474 5 103521708.84243  25281072.973    25281076.8784
        35.800          18.3004
 109688047.076 8  85471201.67646  20872934.718    20872929.3044
        51.300          38.3004
 107517705.983 8  83780005.47047  20459935.255    20459926.8524
        48.900          42.0004
 125818530.940 6  98040390.45943  23942471.927    23942467.4504
        39.200          19.9004
 119500700.644 7  93117401.07944  22740228.586    22740222.9384
        44.800          29.1004
 133551486.526 5                  25413961.860
        31.300
 111894520.347 8  87190549.18445  21292806.257    21292803.0124
        48.600          35.9004
 116276163.151 7  90604787.28745  22126627.094    22126629.2994
        47.700          34.2004
 112384958.132 8  87572684.83046  21386146.464    21386143.4534
        49.000          37.8004
 118269625.834 6  92158208.41044  22505935.780    22505933.6484
        41.900          28.2004
 124698821.007 7  97167929.86944  23729385.549    23729384.5314
        43.100          25.9004
 12 10 28  0 39 30.0000000  0 11G29G06G22G21G18G31G03G30G16G14G19
 132934454.207 5 103585277.89842  25296594.550    25296602.3824
        32.000          16.9004
 109639353.905 8  85433259.01846  20863668.673    20863663.3764
        51.000          38.6004
 107548669.063 8  83804132.58946  20465827.456    20465818.9364
        48.800          41.8004
 125855448.431 6  98069157.27843  23949496.548    23949492.6584
        39.800          19.9004
 119581588.082 7  93180430.20745  22755620.667    22755615.3114
        43.900          31.2004
 133567731.590 5                  25417054.302
        33.900
 111824583.788 8  87136053.30945  21279498.200    21279494.4854
        48.700          35.9004
 116355949.712 7  90666958.46045  22141810.356    22141812.3274
        47.200          34.2004
 112405075.473 8  87588360.63946  21389974.864    21389972.3224
        48.600          38.1004
 118208613.632 6  92110666.66844  22494325.398    22494323.6184
        41.800          28.4004
 124614932.473 7  97102562.48644  23713422.041    23713420.7884
        43.100          26.4004
 12 10 28  0 40  0.0000000  0 11G29G06G22G21G18G31G03G30G16G14G19
 133016233.292 5 103649001.55542  25312157.678    25312163.6344
        31.600          15.6004
 109590939.616 8  85395533.67846  20854455.432    20854450.4874
        50.900          38.9004
 107580052.416 8  83828587.19946  20471799.642    20471790.7114
        49.700          41.8004
 125892329.923 6  98097896.07643  23956515.521    23956510.8114
        40.300          19.6004
 119662617.312 7  93243569.84145  22771039.876    22771034.6374
        45.600          30.4004
 133583626.121 5                  25420079.470
        35.000
 111754934.337 8  87081781.15045  21266243.924    21266240.4454
        48.200          35.9004
 116435981.237 7  90729320.49145  22157039.234    22157041.7334
        46.500          33.9004
 112425709.374 8  87604438.97646  21393901.419    21393898.5844
        49.000          38.6004
 118147817.660 7  92063293.43444  22482756.170    22482754.2144
        42.400          28.1004
 124531023.807 7  97037179.41544  23697454.366    23697453.2894
        43.500          26.9004
 12 10 28  0 40 30.0000000  0 11G29G06G22G21G18G31G03G30G16G14G19
 133098210.269 5 103712879.38742  25327759.229    25327763.3684
        34.200          15.6004
 109542806.681 8  85358027.58046  20845296.599    20845291.2444
        51.400          39.1004
 107611854.434 8  83853368.03847  20477851.159    20477842.8154
        49.000          42.3004
 125929176.429 6  98126607.64143  23963527.631    23963522.6864
        40.200          19.9004
 119743786.748 7  93306818.70244  22786486.101    22786480.9214
        44.900          29.4004
 133599169.989 5                  25423036.174
        33.900
 111685574.651 7  87027734.76846  21253045.314    21253041.3654
        47.800          36.1004
 116516254.855 7  90791871.18845  22172315.366    22172317.4544
        46.500          33.4004
 112446858.655 7  87620918.90546  21397925.396    21397923.1474
        47.800          37.8004
 118087241.168 7  92016091.21444  22471229.137    22471226.6534
        42.300          28.0004
 124447097.363 7  96971782.51544  23681484.010    23681482.4054
        44.500          27.5004
 12 10 28  0 41  0.0000000  0 11G29G06G22G21G18G31G03G30G16G14G19
 133180384.300 6 103776910.71843  25343397.990    25343401.7194
        36.500          18.3004
 109494957.678 8  85320742.71946  20836191.047    20836185.8684
        51.500          38.6004
 107644073.809 8  83878474.08646  20483982.187    20483973.5504
        50.500          41.5004
 125965989.158 6  98155292.84543  23970532.618    23970527.4974
        41.100          19.9004
 119825094.194 7  93370175.10444  22801958.695    22801952.9884
        44.900          29.8004
 133614363.170 5                  25425927.202
        32.900
 111616507.881 7  86973916.63546  21239902.386    21239898.6144
        47.500          36.8004
 116596767.827 7  90854608.38145  22187636.297    22187639.0304
        45.600          33.2004
 112468522.688 7  87637799.92746  21402048.459    21402045.9174
        47.700          37.9004
 118026887.614 7  91969062.70444  22459743.861    22459740.9084
        42.600          28.5004
 124363154.781 7  96906373.02944  23665509.349    23665507.5694
        43.900          26.7004
 12 10 28  0 41 30.0000000  0 11G29G06G22G21G18G31G03G30G16G14G19
 133262754.477 5 103841094.98542  25359072.554    25359077.2214
        34.800          17.8004
 109447394.957 8  85283680.93946  20827140.072    20827134.7174
        51.300          39.0004
 107676708.677 8  83903903.90246  20490192.987    20490183.6464
        50.800          41.6004
 126002769.026 6  98183952.43643  23977532.807    23977525.4594
        40.000          19.0004
 119906537.947 7  93433637.73244  22817457.210    22817451.5614
        45.100          29.6004
 133629205.385 5                  25428751.608
        32.800
 111547736.678 8  86920328.82146  21226815.851    21226811.7264
        48.400          36.9004
 116677517.089 7  90917529.70245  22203002.589    22203004.9124
        45.900          34.0004
 112490700.084 7  87655080.97746  21406268.646    21406265.8114
        47.800          37.7004
 117966759.942 7  91922210.20944  22448301.085    22448298.7184
        43.700          27.5004
 124279198.136 7  96840952.60544  23649533.592    23649531.2264
        44.400          27.9004
 12 10 28  0 42  0.0000000  0 11G29G06G22G21G18G31G03G30G16G14G19
 133345319.976 5 103905431.38342  25374782.954    25374788.5594
        32.500          17.4004
 109400120.504 8  85246843.78146  20818143.799    20818138.3854
        51.400          39.2004
 107709757.281 8  83929656.09446  20496481.500    20496472.8044
        51.200          41.6004
 126039516.714 6  98212586.98243  23984524.116    23984519.7574
        39.300          19.0004
 119988115.820 7  93497204.86244  22832980.671    22832975.0224
        44.400          29.3004
 133643695.828 4                  25431509.349
        28.000
 111479263.176 8  86866972.97646  21213785.568    21213781.1504
        48.000          37.0004
 116758499.228 7  90980632.48545  22218413.563    22218415.8274
        46.700          34.0004
 112513389.263 8  87672760.81046  21410586.345    21410583.6864
        48.700          38.4004
 117906860.880 7  91875535.84744  22436903.291    22436900.9844
        43.400          29.8004
 124195228.849 7  96775522.31644  23633554.728    23633552.7134
        44.500          27.2004
 12 10 28  0 42 30.0000000  0 10G29G06G22G21G18G03G30G16G14G19
 133428078.440 6 103969918.22843  25390532.227    25390536.5424
        37.000          18.3004
 109353135.311 8  85210232.01146  20809202.807    20809197.3344
        51.400          39.4004
 107743216.555 8  83955728.28646  20502848.561    20502840.0404
        51.000          41.9004
 126076231.466 6  98241195.78543  23991510.342    23991506.2774
        39.700          19.6004
 120069824.172 7  93560873.67844  22848529.346    22848523.3464
        45.000          28.3004
 111411088.791 7  86813850.20046  21200812.105    21200807.8644
        47.500          37.1004
 116839709.909 7  91043913.34745  22233867.609    22233870.1084
        46.900          33.2004
 112536587.459 7  87690837.28346  21415000.681    21414998.1984
        47.900          37.5004
 117847192.506 7  91829041.26144  22425548.909    22425545.4294
        43.800          29.1004
 124111247.465 7  96710082.58544  23617572.854    23617571.0744
        43.400          28.6004
 12 10 28  0 43  0.0000000  0 11G29G06G22G21G18G31G03G30G16G14G19
 133511034.077 5 104034558.61442  25406317.387    25406323.2854
        32.300          14.8004
 109306446.850 8  85173851.46246  20800318.149    20800312.9114
        51.300          38.2004
 107777089.787 8  83982123.04346  20509294.302    20509285.1954
        50.200          41.7004
 126112919.310 7  98269783.74343  23998493.071    23998488.1844
        42.000          19.9004
 120151666.461 7  93624646.85944  22864103.704    22864098.0554
        44.100          28.5004
 133671609.424 5                  25436823.824
        35.500
 111343221.176 7  86760966.47246  21187897.314    21187893.0144
        47.200          36.8004
 116921151.221 7  91107373.91545  22249365.604    22249367.8684
        47.200          33.2004
 112560298.499 8  87709313.36446  21419513.014    21419510.5894
        48.300          37.3004
 117787762.887 7  91782732.69244  22414239.802    22414236.0294
        44.000          29.7004
 124027260.864 7  96644638.80544  23601591.137    23601588.5364
        44.500          27.8004
 12 10 28  0 43 30.0000000  0 11G29G06G22G21G18G31G03G30G16G14G19
 133594428.689 5 104099671.32442  25422140.684    25422145.6444
        34.600          16.3004
 109260049.778 8  85137697.96346  20791489.086    20791483.8484
        51.200          39.3004
 107811367.993 8  84008833.36246  20515817.233    20515808.5374
        50.500          41.8004
 126149573.711 6  98298345.55743  24005467.763    24005463.8154
        41.000          19.6004
 120233633.224 7  93688517.02144  22879700.457    22879695.5124
        44.200          28.2004
 133685041.787 5                  25439379.593
        35.800
 111275655.559 7  86708318.07646  21175039.889    21175035.5884
        47.800          36.2004
 117002812.730 7  91171006.06245  22264905.104    22264907.7204
        46.800          33.6004
 112584513.728 8  87728182.33046  21424121.158    21424117.9724
        48.800          37.7004
 117728567.398 7  91736606.57744  22402974.347    22402971.3954
        43.500          29.6004
 123943263.473 6  96579186.61644  23585605.511    23585604.4344
        41.400          27.5004
 12 10 28  0 44  0.0000000  0 11G29G06G22G21G18G31G03G30G16G14G19
 133677765.018 5 104164608.38843  25437998.934    25438004.0704
        34.100          18.3004
 109213950.179 8  85101776.26646  20782716.721    20782711.0724
        50.900          39.3004
 107846052.848 8  84035860.54546  20522417.494    20522409.2084
        50.300          41.7004
 126186199.403 6  98326885.04543  24012437.524    24012432.2274
        41.800          20.9004
 120315725.560 7  93752485.03244  22895322.652    22895316.8284
        44.500          29.2004
 133698121.474 6                  25441869.806
        40.700
 111208398.678 7  86655910.25546  21162240.584    21162236.7524
        47.800          36.4004
 117084695.050 7  91234810.28345  22280487.098    22280489.1864
        46.400          33.3004
 112609235.024 8  87747445.63346  21428825.156    21428822.0284
        49.400          37.7004
 117669612.764 7  91690668.14644  22391755.524    22391752.3964
        43.100          29.4004
 123859260.656 7  96513730.20244  23569620.653    23569618.1694
        42.900          27.6004
 12 10 28  0 44 30.0000000  0 11G29G06G22G21G18G31G03G30G16G14G19
                                  25453894.450
        30.300
 109168150.417 8  85066088.21646  20774001.352    20773996.1144
        51.300          38.9004
 107881142.649 8  84063203.26046  20529094.893    20529086.5494
        49.700          41.7004
 126222797.284 6  98355402.88743  24019401.255    24019396.8374
        40.500          20.9004
 120397941.459 7  93816549.33044  22910968.806    22910963.0994
        45.100          28.1004
 133710847.695 6                  25444291.004
        36.900
 111141452.469 8  86603744.51446  21149500.915    21149497.0834
        48.100          36.9004
 117166794.987 7  91298784.08145  22296110.179    22296112.9704
        46.100          33.4004
 112634461.135 8  87767102.29246  21433625.487    21433622.9454
        50.500          38.3004
 117610902.105 7  91644919.82344  22380583.441    22380580.1964
        44.000          29.6004
 123775254.187 7  96448270.93144  23553634.469    23553632.2784
        43.100          28.6004
 12 10 28  0 45  0.0000000  0 11G29G06G22G21G18G31G03G30G16G14G19
 133845012.764 5                  25469825.160
        32.200
 109122649.140 8  85030632.73446  20765342.352    20765336.9384
        51.000          39.2004
 107916632.043 8  84090857.35347  20535848.218    20535839.5814
        48.800          42.1004
 126259364.706 6  98383896.94143  24026360.092    24026355.6744
        40.100          21.1004
 120480276.012 7  93880706.07344  22926635.903    22926630.1374
        44.300          27.2004
 133723217.063 6                  25446645.868
        41.300
 111074816.311 8  86551820.36546  21136820.912    21136816.3774
        48.800          37.3004
 117249106.105 7  91362922.42145  22311773.299    22311776.3254
        46.800          32.8004
 112660187.149 8  87787148.46946  21438521.828    21438518.5244
        50.300          38.2004
 117552434.764 7  91599361.08844  22369456.880    22369454.6904
        43.000          29.7004
 123691242.591 7  96382807.65344  23537647.101    23537644.7934
        42.500          27.1004
 12 10 28  0 45 30.0000000  0 11G29G06G22G21G18G31G03G30G16G14G19
 133928915.284 5                  25485791.411
        32.200
 109077452.059 8  84995414.29846  20756741.457    20756736.3364
        50.700          39.2004
 107952522.678 8  84118824.10346  20542677.899    20542669.7894
        49.100          41.8004
 126295906.041 6  98412370.69443  24033314.107    24033309.9244
        39.800          21.7004
 120562730.135 7  93944955.99344  22942326.865    22942320.8654
        44.900          27.8004
 133735233.074 5 104209423.94042  25448931.150    25448938.7474
        34.800          15.6004
 111008495.977 8  86500142.32346  21124200.465    21124196.2234
        48.800          36.3004
 117331628.742 7  91427225.57645  22327477.433    22327480.1074
        45.800          33.2004
 112686414.903 8  87807585.62746  21443512.244    21443509.4674
        50.200          38.2004
 117494217.486 7  91553997.19444  22358378.320    22358375.3684
        43.200          29.1004
 123607230.890 7  96317344.28744  23521659.355    23521657.5174
        42.300          28.4004
 12 10 28  0 46  0.0000000  0 11G29G06G22G21G18G31G03G30G16G14G19
                                  25501791.776
        33.800
 109032562.075 8  84960435.15746  20748199.190    20748194.2454
        51.200          38.9004
 107988813.685 8  84147102.82746  20549583.827    20549575.7174
        49.800          41.3004
 126332422.865 6  98440825.30043  24040261.548    24040257.9514
        40.400          22.6004
 120645302.742 7  94009298.24144  22958039.455    22958033.9244
        45.000          27.7004
 133746895.957 5 104218511.95542  25451151.088    25451157.5724
        30.500          15.6004
 110942494.969 8  86448713.10546  21111640.821    21111636.9314
        48.500          37.3004
 117414360.479 7  91491691.67245  22343220.821    22343223.4954
        45.800          33.8004
 112713144.012 8  87828413.44946  21448598.427    21448595.8854
        50.400          37.3004
 117436253.859 7  91508830.95544  22347348.300    22347344.8794
        44.100          29.3004
 123523222.103 7  96251883.19544  23505673.892    23505670.2954
        42.700          26.8004
 12 10 28  0 46 30.0000000  0 11G29G06G22G21G18G31G03G30G16G14G19
 134097291.485 5                  25517829.191
        34.400
 108987973.534 8  84925690.89546  20739713.997    20739708.9944
        50.700          38.7004
 108025495.022 8  84175685.70846  20556564.024    20556555.8564
        49.600          41.0004
 126368907.899 6  98469255.18843  24047206.106    24047201.0444
        40.000          22.8004
 120727983.414 7  94073724.70044  22973772.780    22973767.0734
        44.700          28.3004
 133758204.275 5 104227310.05442  25453299.021    25453308.8464
        30.500          13.9004
 110876807.884 8  86397528.49346  21099140.590    21099136.5244
        48.800          37.6004
 117497290.105 7  91556311.96545  22359001.567    22359004.8274
        46.400          33.1004
 112740364.505 8  87849624.16646  21453778.697    21453775.8614
        50.200          37.3004
 117378538.656 7  91463858.28744  22336365.002    22336361.1704
        44.000          28.7004
 123439209.425 7  96186419.06844  23489686.211    23489683.7284
        42.500          27.6004
 12 10 28  0 47  0.0000000  0 11G29G06G22G21G18G31G03G30G16G14G19
                                  25533903.414
        32.000
 108943703.445 8  84891194.79046  20731289.983    20731284.5694
        50.700          39.3004
 108062579.488 8  84204582.72146  20563620.658    20563612.1964
        48.200          41.4004
 126405377.109 6  98497672.73443  24054145.456    24054141.3314
        39.500          22.5004
 120810785.257 7  94138245.55144  22989529.711    22989524.1804
        45.100          28.2004
 133769158.730 5 104235846.07342  25455386.949    25455392.4374
        34.300          15.6004
 110811452.308 8  86346602.20546  21086703.962    21086699.3694
        48.900          36.9004
 117580429.566 7  91621095.77745  22374822.749    22374825.8344
        46.400          32.7004
 112768089.663 8  87871228.12846  21459054.681    21459052.0224
        50.700          37.7004
 117321089.580 7  91419092.98644  22325432.743    22325429.2054
        45.300          29.8004
 123355209.851 7  96120965.14244  23473701.129    23473698.6454
        43.000          28.0004
 12 10 28  0 47 30.0000000  0 11G29G06G22G21G18G31G03G30G16G14G19
 134266398.080 5                  25550011.161
        31.500
 108899739.828 8  84856937.49746  20722924.160    20722918.6874
        50.600          39.4004
 108100051.255 8  84233781.52346  20570751.453    20570743.2264
        49.500          41.2004
 126441817.183 6  98526067.55443  24061080.628    24061076.0354
        41.600          22.8004
 120893691.924 7  94202848.12544  23005306.102    23005300.8644
        44.600          27.3004
                 104243807.41152  25457402.514
        29.600          13.9004
 110746416.205 8  86295924.86246  21074327.996    21074322.9344
        48.800          37.2004
 117663761.538 7  91686029.59745  22390680.463    22390683.4314
        46.100          34.0004
 112796303.801 8  87893213.10446  21464423.545    21464420.5934
        49.600          37.9004
 117263895.938 7  91374526.73244  22314549.145    22314546.0174
        45.000          29.9004
 123271211.009 7  96055511.79044  23457716.283    23457713.9754
        42.800          28.9004
 12 10 28  0 48  0.0000000  0 10G29G06G22G21G18G03G30G16G14G19
 134351222.993 5                  25566150.948
        33.200
 108856088.686 8  84822923.69646  20714617.298    20714611.8254
        50.700          38.9004
 108137912.431 8  84263283.76646  20577956.263    20577947.6844
        48.700          41.1004
 126478232.752 6  98554443.30143  24068009.464    24068005.3394
        41.200          22.9004
 120976705.361 7  94267533.87644  23021103.472    23021097.4724
        45.900          27.8004
 110681706.159 8  86245501.57846  21062014.325    21062009.3804
        49.600          37.4004
 117747286.813 7  91751114.02745  22406575.391    22406578.2994
        45.900          32.6004
 112825009.108 7  87915580.81546  21469886.164    21469883.2704
        47.700          37.8004
 117206964.274 7  91330164.61244  22303715.150    22303711.5534
        44.500          29.5004
 123187218.807 7  95990063.62844  23441733.794    23441730.6074
        44.300          29.1004
 12 10 28  0 48 30.0000000  0 10G29G06G22G21G18G03G30G16G14G19
                                  25582328.030
        29.100
 108812755.674 8  84789157.78846  20706371.469    20706366.0554
        50.600          39.4004
 108176164.122 8  84293090.30846  20585235.307    20585226.4354
        49.900          40.6004
 126514628.016 6  98582803.19243  24074935.214    24074931.0904
        41.000          20.9004
 121059826.775 7  94332303.76244  23036921.151    23036914.7994
        47.000          28.6004
 110617328.064 8  86195336.95646  21049763.357    21049758.5884
        49.400          38.0004
 117831005.555 7  91816349.20645  22422506.227    22422509.7224
        46.300          32.6004
 112854207.416 8  87938332.67246  21475442.442    21475439.5484
        49.200          37.5004
 117150300.597 7  91286011.28745  22292932.214    22292928.4424
        45.800          30.1004
 123103238.412 7  95924624.64044  23425752.563    23425750.0794
        44.600          29.6004
 12 10 28  0 49  0.0000000  0  9G06G22G21G18G03G30G16G14G19
 108769740.572 8  84755639.61246  20698186.041    20698180.0414
        51.700          39.2004
 108214802.342 8  84323198.03546  20592588.014    20592579.0844
        50.700          40.0004
 126551001.715 6  98611146.28443  24081857.232    24081852.8144
        39.200          20.1004
 121143051.621 7  94397154.26444  23052758.730    23052752.3794
        46.900          28.1004
 110553282.144 8  86145431.16046  21037575.353    21037570.7014
        49.400          37.4004
 117914912.197 7  91881730.81645  22438473.358    22438476.6774
        46.300          31.9004
 112883894.954 8  87961465.74546  21481092.397    21481088.7414
        49.700          37.3004
 117093905.807 7  91242067.49445  22282201.262    22282197.1374
        45.700          30.2004
 123019269.090 7  95859194.30344  23409772.136    23409769.8874
        43.900          28.5004
 12 10 28  0 49 30.0000000  0 10G29G06G22G21G18G03G30G16G14G19
                                  25614785.338
        31.500
 108727045.777 8  84722371.01346  20690061.465    20690055.5824
        51.000          39.2004
 108253825.382 8  84353605.63146  20600013.679    20600004.9254
        51.000          41.0004
 126587355.018 6  98639473.47443  24088774.528    24088770.9314
        41.300          22.0004
 121226378.407 7  94462084.17944  23068615.036    23068608.8604
        46.700          28.4004
 110489571.367 8  86095786.52746  21025451.680    21025447.0284
        49.900          38.0004
 117999004.192 7  91947256.85545  22454476.184    22454478.6824
        47.000          32.0004
 112914069.855 8  87984978.59046  21486833.991    21486831.6254
        48.800          37.3004
 117037783.159 7  91198335.74445  22271520.906    22271517.6614
        45.900          30.8004
 122935313.179 7  95793774.39644  23393796.309    23393794.0024
        44.000          28.7004
 12 10 28  0 50  0.0000000  0  9G06G22G21G18G03G30G16G14G19
 108684677.089 8  84689356.52946  20681999.207    20681993.3244
        50.600          38.8004
 108293234.764 8  84384314.27546  20607513.032    20607504.6884
        50.600          40.4004
 126623692.164 6  98667788.12343  24095689.202    24095686.1914
        38.500          21.1004
 121309808.765 7  94527094.80744  23084491.027    23084485.0274
        46.000          28.1004
 110426201.658 8  86046407.65246  21013392.904    21013388.4284
        50.300          37.7004
 118083281.862 7  92012927.57245  22470513.553    22470516.4034
        46.400          32.9004
 112944734.016 8  88008872.66546  21492668.666    21492666.8274
        48.100          37.3004
 116981939.079 7  91154821.06144  22260893.720    22260889.7134
        44.200          29.8004
 122851376.136 7  95728369.20144  23377823.253    23377819.9494
        43.400          27.8004
 12 10 28  0 50 30.0000000  0  9G06G22G21G18G03G30G16G14G19
 108642625.881 8  84656589.43646  20673996.416    20673991.0604
        51.100          39.7004
 108333017.485 8  84415313.82446  20615083.898    20615074.8504
        51.900          41.0004
 126660003.311 6  98696082.45143  24102598.296    24102595.4614
        37.700          21.1004
 121393329.432 7  94592175.81744  23100384.605    23100378.7224
        46.600          28.5004
 110363164.412 8  85997287.83046  21001396.870    21001392.2774
        49.700          38.0004
 118167730.999 7  92078731.90045  22486584.130    22486586.6284
        46.900          31.0004
 112975874.781 8  88033138.12546  21498595.267    21498592.7254
        48.700          37.4004
 116926365.151 7  91111516.89644  22250317.955    22250314.7104
        45.300          29.9004
 122767448.666 7  95662971.45144  23361851.471    23361849.4574
        42.900          28.4004
 12 10 28  0 51  0.0000000  0  9G06G22G21G18G03G30G16G14G19
 108600904.218 8  84624079.12046  20666056.832    20666051.4774
        50.700          39.4004
 108373181.900 8  84446610.81246  20622726.683    20622717.5774
        51.000          41.3004
 126696299.391 6  98724365.07543  24109506.198    24109502.1914
        38.000          20.1004
 121476948.611 7  94657333.59144  23116296.038    23116291.0344
        45.800          28.5004
 110300472.521 8  85948437.12446  20989467.185    20989462.8264
        50.200          38.5004
 118252358.785 7  92144675.43845  22502688.416    22502691.3254
        46.400          31.3004
 113007500.658 8  88057781.57946  21504613.334    21504611.2024
        48.300          37.3004
 116871074.805 7  91068433.69844  22239796.910    22239793.1374
        44.500          29.1004
 122683543.236 7  95597590.90744  23345885.748    23345882.9134
        43.900          29.7004
 12 10 28  0 51 30.0000000  0  9G06G22G21G18G03G30G16G14G19
 108559510.409 8  84591824.28146  20658179.956    20658174.6014
        51.000          39.7004
 108413722.036 8  84478200.55846  20630440.944    20630432.1894
        50.900          40.9004
 126732577.440 6  98752633.63543  24116410.429    24116405.7774
        39.300          21.7004
 121560660.379 7  94722563.50744  23132226.596    23132220.3614
        46.100          29.1004
 110238124.351 8  85899854.25046  20977602.987    20977597.9254
        50.100          38.4004
 118337158.163 7  92210752.67645  22518825.129    22518827.7454
        47.000          32.1004
 113039605.942 8  88082798.61146  21510722.922    21510720.8484
        48.800          37.1004
 116816066.925 7  91025570.59144  22229329.029    22229325.3154
        44.900          29.7004
 122599657.556 7  95532225.74045  23329922.270    23329920.3724
        44.500          30.4004
 12 10 28  0 52  0.0000000  0  9G06G22G21G18G03G30G16G14G19
 108518446.951 8  84559826.85946  20650365.683    20650360.3864
        50.300          39.2004
 108454636.397 8  84510081.92146  20638226.769    20638218.0734
        51.500          40.5004
 126768838.763 6  98780889.14043  24123310.711    24123305.7074
        38.800          20.9004
 121644463.423 7  94787864.54944  23148173.335    23148167.8044
        46.100          28.8004
 110176122.624 8  85851541.32946  20965804.047    20965799.2774
        49.700          38.8004
 118422126.346 7  92276961.45845  22534994.062    22534997.2644
        46.800          31.5004
 113072189.045 8  88108187.95146  21516923.236    21516920.6364
        48.800          37.3004
 116761344.787 7  90982930.14744  22218915.219    22218912.0324
        44.900          29.7004
 122515793.762 7  95466877.64444  23313963.806    23313961.1474
        44.000          29.7004
 12 10 28  0 52 30.0000000  0  9G06G22G21G18G03G30G16G14G19
 108477716.336 8  84528088.78846  20642615.367    20642609.5434
        50.700          39.8004
 108495923.156 8  84542253.45146  20646083.977    20646074.4614
        51.000          40.5004
 126805084.743 6  98809132.72843  24130207.520    24130202.8684
        38.700          20.9004
 121728355.489 7  94853234.97744  23164137.783    23164131.7834
        46.300          28.4004
 110114470.277 8  85803500.64946  20954071.856    20954067.4974
        49.400          38.8004
 118507260.541 7  92343299.59045  22551194.926    22551197.6014
        46.700          30.3004
 113105248.886 8  88133948.79346  21523214.930    21523211.9194
        50.200          37.1004
 116706911.496 7  90940514.75344  22208556.777    22208552.6534
        44.700          29.3004
 122431954.407 7  95401548.57444  23298008.720    23298006.0024
        43.900          29.6004
 12 10 28  0 53  0.0000000  0  9G06G22G21G18G03G30G16G14G19
 108437320.180 8  84496611.33546  20634927.664    20634922.0164
        51.000          39.8004
 108537580.073 8  84574713.41546  20654010.699    20654001.5924
        50.900          40.3004
 126841315.922 6  98837364.76743  24137102.568    24137097.4474
        40.800          20.1004
 121812334.530 7  94918673.16044  23180118.797    23180113.2664
        45.800          28.4004
 110053169.998 8  85755734.31446  20942406.786    20942401.9004
        48.600          38.5004
 118592557.371 7  92409764.45145  22567425.998    22567429.6104
        46.100          31.0004
 113138782.513 8  88160078.79646  21529595.881    21529592.9884
        48.800          38.0004
 116652769.508 7  90898326.34944  22198254.087    22198249.9044
        45.400          29.3004
 122348141.156 7  95336239.82745  23282058.922    23282057.3764
        43.400          30.5004
 12 10 28  0 53 30.0000000  0  9G06G22G21G18G03G30G16G14G19
 108397261.401 8  84465396.79146  20627304.805    20627299.4504
        51.100          40.2004
 108579605.504 8  84607460.54246  20662007.197    20661999.0284
        51.300          40.3004
 126877533.412 6  98865586.17243  24143994.550    24143990.8364
        39.900          20.6004
 121896398.734 7  94984177.71544  23196115.494    23196110.5494
        43.400          28.9004
 109992223.959 8  85708244.00546  20930808.834    20930804.3584
        48.500          38.8004
 118678014.013 7  92476353.86245  22583688.509    22583691.8284
        44.300          30.3004
 113172788.853 8  88186577.16546  21536067.062    21536064.4034
        48.000          37.1004
 116598921.886 7  90856367.31144  22188007.448    22188002.9724
        45.500          29.9004
 122264355.835 7  95270952.88544  23266115.574    23266112.4464
        42.800          29.4004
 12 10 28  0 54  0.0000000  0 10G06G22G21G18G31G03G30G16G14G19
 108357546.734 8  84434450.36146  20619747.721    20619741.4284
        51.400          40.7004
 108622002.370 8  84640497.08546  20670075.567    20670066.6954
        51.000          40.1004
 126913743.459 6  98893801.78643  24150885.341    24150880.6304
        39.800          20.6004
 121980551.085 7  95049750.95044  23212129.680    23212123.9734
        46.000          27.8004
 133884955.693 5                  25477421.628
        33.000
 109931639.731 8  85661035.61646  20919280.342    20919275.3974
        49.500          38.1004
 118763632.453 7  92543069.33645  22599981.270    22599984.4134
        46.200          31.5004
 113207270.888 8  88213446.19846  21542628.987    21542625.8004
        48.100          37.8004
 116545376.859 7  90814644.06745  22177817.450    22177814.0294
        44.100          30.5004
 122180605.582 7  95205693.26544  23250178.282    23250175.5644
        43.700          29.6004
 12 10 28  0 54 30.0000000  0 10G06G22G21G18G31G03G30G16G14G19
 108318166.793 8  84403764.76846  20612253.722    20612248.0744
        50.900          39.8004
 108664757.030 8  84673812.44046  20678210.951    20678202.1384
        50.100          41.0004
 126949934.997 6  98922002.96443  24157772.064    24157767.9404
        38.400          20.4004
 122064778.351 7  95115382.57044  23228157.201    23228151.4944
        45.900          27.0004
 133890538.981 5                  25478483.191
        35.000
 109871408.433 8  85614102.23446  20907818.867    20907813.2184
        50.000          38.1004
 118849398.049 7  92609899.47845  22616301.619    22616305.5244
        45.800          31.2004
 113242215.675 8  88240675.81246  21549278.730    21549276.0704
        48.200          37.5004
 116492125.550 7  90773149.68545  22167684.245    22167680.3554
        44.500          31.9004
 122096880.978 7  95140453.59944  23234245.880    23234241.4634
        43.000          28.1004
 12 10 28  0 55  0.0000000  0 10G06G22G21G18G31G03G30G16G14G19
 108279131.089 8  84373347.40246  20604825.054    20604819.4064
        51.500          40.1004
 108707874.822 8  84707410.75046  20686416.098    20686407.2844
        50.900          40.2004
 126986116.509 6  98950196.31143  24164657.274    24164652.0364
        39.500          19.6004
 122149085.375 7  95181076.34544  23244199.790    23244194.6104
        45.300          26.8004
 133895764.545 5                  25479478.017
        31.300
 109811539.528 8  85567451.24446  20896425.806    20896420.9784
        49.900          38.6004
 118935314.688 7  92676847.32245  22632651.235    22632655.4334
        46.100          31.2004
 113277627.987 8  88268269.73646  21556017.407    21556015.5104
        48.600          36.6004
 116439178.158 7  90731892.12145  22157608.156    22157605.1454
        45.200          31.5004
 122013191.139 7  95075241.04444  23218319.489    23218316.7124
        42.800          29.5004
 12 10 28  0 55 30.0000000  0 10G06G22G21G18G31G03G30G16G14G19
 108240439.265 8  84343197.97446  20597462.363    20597456.7744
        51.300          39.8004
 108751351.606 8  84741288.80346  20694689.446    20694680.6914
        50.900          40.4004
 127022287.115 6  98978381.14243  24171540.707    24171535.7044
        38.700          19.0004
 122233468.412 7  95246829.33744  23260257.912    23260252.4984
        46.000          27.9004
 133900630.349 5                  25480403.881
        34.000
 109752033.768 8  85521083.21246  20885102.044    20885097.0404
        49.300          38.0004
 119021377.734 7  92743909.24945  22649029.019    22649032.6904
        46.900          31.4004
 113313503.994 8  88296224.96946  21562844.317    21562841.8924
        48.700          37.1004
 116386535.525 7  90690872.02445  22147590.931    22147586.9244
        45.100          31.9004
 121929536.114 7  95010055.62444  23202400.021    23202397.1284
        42.300          29.7004
 12 10 28  0 56  0.0000000  0 10G06G22G21G18G31G03G30G16G14G19
 108202095.105 8  84313319.45546  20590165.492    20590160.3134
        50.300          39.8004
 108795186.386 8  84775445.79846  20703031.008    20703022.0774
        50.900          39.4004
 127058448.435 6  99006558.81842  24178419.663    24178416.4764
        37.100          17.4004
 122317926.489 7  95312640.79944  23276329.647    23276323.7644
        45.500          27.3004
 133905136.903 6                  25481261.258
        36.700
 109692894.133 8  85475000.47046  20873847.510    20873842.3894
        48.300          37.4004
 119107584.605 7  92811083.23745  22665433.070    22665437.1514
        45.600          31.2004
 113349842.751 8  88324540.80146  21569759.567    21569757.2594
        48.900          37.4004
 116334201.243 7  90650092.19745  22137631.687    22137627.7974
        45.600          30.9004
 121845918.657 7  94944899.46844  23186489.194    23186484.8944
        43.900          29.3004
 12 10 28  0 56 30.0000000  0 10G06G22G21G18G31G03G30G16G14G19
 108164099.214 8  84283712.32446  20582935.166    20582929.4594
        50.100          39.4004
 108839376.240 8  84809879.49546  20711439.755    20711431.0594
        51.200          40.2004
 127094600.705 6  99034729.40042  24185299.582    24185296.3954
        37.200          16.9004
 122402457.180 7  95378508.84744  23292414.994    23292409.5804
        43.700          28.3004
 133909283.632 6 104344752.21243  25482050.638    25482056.1844
        37.400          18.6004
 109634122.799 7  85429204.72346  20862663.596    20862659.3544
        47.800          37.7004
 119193931.504 7  92878366.35344  22681864.959    22681868.8644
        45.600          29.6004
 113386641.534 8  88353215.07646  21576762.191    21576759.9424
        49.200          37.5004
 116282177.411 7  90609554.29945  22127732.021    22127727.5444
        45.300          31.5004
 121762340.060 7  94879773.62045  23170583.559    23170580.8414
        42.700          30.8004
 12 10 28  0 57  0.0000000  0 10G06G22G21G18G31G03G30G16G14G19
 108126454.744 8  84254379.03046  20575771.491    20575765.7844
        50.000          39.5004
 108883919.793 8  84844588.79446  20719916.460    20719907.8814
        51.300          40.3004
 127130745.530 6  99062894.20743  24192177.985    24192174.3884
        38.400          19.9004
 122487058.403 7  95444431.87744  23308514.234    23308508.8784
        42.400          27.0004
 133913071.050 5 104347703.46943  25482770.521    25482777.8264
        33.100          18.3004
 109575722.835 8  85383698.36346  20851550.610    20851545.5474
        48.800          38.6004
 119280416.216 7  92945756.85245  22698322.732    22698326.2854
        45.000          30.4004
 113423898.805 7  88382246.61746  21583852.106    21583849.9754
        47.300          37.2004
 116230467.187 7  90569260.78445  22117892.047    22117887.4544
        44.600          31.3004
 121678802.776 7  94814679.93045  23154686.717    23154683.5894
        42.700          31.2004
 12 10 28  0 57 30.0000000  0 10G06G22G21G18G31G03G30G16G14G19
 108089162.464 8  84225320.16046  20568675.197    20568669.2564
        50.300          39.3004
 108928814.020 8  84879571.34146  20728459.745    20728450.8734
        51.600          40.3004
 127166883.042 6  99091053.28643  24199056.515    24199051.6874
        38.700          19.6004
 122571727.672 7  95510407.90244  23324627.079    23324620.9624
        44.300          26.9004
 133916498.582 5 104350374.33542  25483424.325    25483430.9854
        35.400          16.9004
 109517695.217 8  85338482.13046  20840509.192    20840504.1304
        49.700          38.8004
 119367034.540 7  93013251.45645  22714805.905    22714809.5174
        46.300          30.6004
 113461611.875 8  88411633.32446  21591028.177    21591026.7484
        48.300          36.7004
 116179072.814 7  90529213.38045  22108111.340    22108107.5084
        44.100          30.9004
 121595308.438 7  94749619.70844  23138798.144    23138794.3714
        42.800          29.9004
 12 10 28  0 58  0.0000000  0 10G06G22G21G18G31G03G30G16G14G19
 108052225.300 8  84196538.01246  20561646.710    20561640.4754
        49.900          39.2004
 108974057.296 8  84914825.86846  20737069.100    20737060.4044
        51.200          40.3004
 127203014.632 6  99119207.77243  24205931.637    24205926.8674
        39.300          19.9004
 122656463.467 7  95576435.77544  23340752.270    23340745.2744
        44.600          27.9004
 133919566.698 6 104352765.09443  25484006.770    25484014.6024
        38.200          20.6004
 109460043.166 8  85293558.54146  20829538.283    20829532.6354
        49.900          39.3004
 119453783.991 7  93080848.23644  22731313.630    22731317.1834
        45.800          29.6004
 113499779.086 8  88441373.90546  21598292.208    21598289.8424
        49.300          36.4004
 116127997.634 7  90489414.71845  22098391.587    22098388.4004
        45.500          30.6004
 121511858.981 7  94684594.46644  23122917.029    23122913.7254
        42.700          29.6004
 12 10 28  0 58 30.0000000  0 10G06G22G21G18G31G03G30G16G14G19
 108015644.835 8  84168033.80646  20554685.219    20554679.3374
        50.000          39.9004
 109019647.432 8  84950350.69046  20745744.457    20745735.9374
        51.100          40.1004
 127239141.197 6  99147358.31143  24212806.102    24212801.6854
        39.900          19.3004
 122741263.784 7  95642513.91544  23356889.003    23356882.7104
        43.700          27.6004
 133922274.879 5 104354875.42742  25484524.088    25484529.4004
        34.300          15.6004
 109402769.223 8  85248929.58246  20818638.817    20818633.3454
        50.200          38.9004
 119540661.238 7  93148544.59645  22747846.054    22747850.3704
        46.400          30.5004
 113538398.259 8  88471466.66746  21605640.624    21605638.5514
        48.300          36.4004
 116077243.904 7  90449866.55045  22088733.590    22088729.7584
        43.900          30.4004
 121428456.460 7  94619605.80245  23107046.513    23107042.9744
        44.200          30.6004
 12 10 28  0 59  0.0000000  0 10G06G22G21G18G31G03G30G16G14G19
 107979423.623 8  84139809.54246  20547792.369    20547786.3694
        50.000          39.5004
 109065582.278 8  84986144.11246  20754485.645    20754476.6564
        51.100          40.1004
 127275263.657 6  99175505.70643  24219679.901    24219675.7774
        38.800          19.6004
 122826126.594 7  95708640.76344  23373037.420    23373031.5964
        42.600          26.8004
 133924623.781 6 104356705.71842  25484969.334    25484976.4044
        36.100          16.9004
 109345875.567 8  85204596.95446  20807812.232    20807807.4634
        50.600          38.7004
 119627663.367 7  93216338.26544  22764402.125    22764405.9134
        44.900          29.7004
 113577467.267 8  88501909.94746  21613075.650    21613073.6354
        48.900          36.8004
 116026814.849 7  90410571.37045  22079137.761    22079133.2264
        46.300          30.9004
 121345103.130 7  94554655.46145  23091184.934    23091180.8104
        44.100          31.0004
 12 10 28  0 59 30.0000000  0 10G06G22G21G18G31G03G30G16G14G19
 107943563.302 8  84111866.48246  20540968.728    20540962.5524
        49.200          39.7004
 109111860.397 8  85022205.01346  20763292.089    20763283.0414
        50.700          40.1004
 127311383.196 6  99203650.78843  24226552.999    24226548.6984
        36.900          18.3004
 122911050.513 7  95774815.22744  23389197.620    23389192.2064
        43.000          27.7004
 133926613.107 5 104358255.87642  25485348.710    25485354.9014
        35.200          17.8004
 109289364.673 8  85160562.58646  20797058.394    20797053.3314
        50.100          38.9004
 119714787.450 7  93284226.97944  22780981.392    22780985.8254
        45.500          29.6004
 113616984.289 8  88532702.32746  21620595.399    21620593.6784
        49.800          36.4004
 115976713.232 7  90371531.33645  22069603.276    22069598.5654
        46.200          30.2004
 121261801.200 7  94489745.16645  23075333.349    23075329.2834
        44.700          31.6004
 12 10 28  1  0  0.0000000  0 10G06G22G21G18G31G03G30G16G14G19
 107908065.502 8  84084205.91446  20534213.311    20534207.4874
        49.600          39.5004
 109158478.100 8  85058530.54246  20772163.009    20772154.1374
        51.200          39.7004
 127347499.942 6  99231793.72943  24233426.076    24233421.1314
        37.800          19.0004
 122996032.593 7  95841035.02744  23405369.520    23405364.0474
        42.700          28.2004
 133928242.384 5 104359525.46242  25485658.381    25485664.8074
        35.900          16.3004
 109233238.077 8  85116827.67046  20786377.829    20786373.4704
        50.200          39.3004
 119802029.329 7  93352207.48244  22797583.399    22797587.7144
        45.700          29.6004
 113656946.224 8  88563841.40146  21628200.102    21628197.9114
        50.900          36.9004
 115926940.690 7  90332747.75144  22060131.787    22060127.3114
        46.300          29.9004
 121178551.613 7  94424875.66145  23059491.144    23059487.6064
        44.100          30.8004
 12 10 28  1  0 30.0000000  0 10G06G22G21G18G31G03G30G16G14G19
 107872932.356 8  84056829.49646  20527527.836    20527521.7774
        49.800          39.8004
 109205433.970 8  85095119.56146  20781098.575    20781089.5274
        51.200          39.8004
 127383615.491 6  99259935.68943  24240299.581    24240294.1084
        37.300          19.0004
 123081071.163 7  95907298.83044  23421551.867    23421545.8674
        42.500          26.5004
 133929512.189 6 104360514.86843  25485900.921    25485906.9364
        41.000          21.7004
 109177498.640 8  85073394.43646  20775770.638    20775765.8694
        49.600          39.4004
 119889386.727 7  93420277.98145  22814206.851    22814210.9324
        46.000          30.0004
 113697351.609 8  88595326.02745  21635889.266    21635886.7834
        49.800          35.8004
 115877500.690 7  90294223.26545  22050723.516    22050719.0404
        47.000          31.1004
 121095356.935 7  94360048.94745  23043659.329    23043655.6154
        43.900          30.4004
 12 10 28  1  1  0.0000000  0 10G06G22G21G18G31G03G30G16G14G19
 107838165.897 8  84029738.79646  20520911.548    20520905.6654
        49.100          39.0004
 109252725.725 8  85131970.31446  20790097.582    20790088.6524
        51.300          40.6004
 127419730.592 6  99288077.36843  24247171.560    24247166.6154
        36.900          19.0004
 123166164.273 7  95973605.14044  23437744.585    23437738.5264
        42.500          28.0004
 133930422.327 6 104361224.01843  25486074.302    25486081.2544
        41.500          21.5004
 109122148.885 8  85030264.85346  20765237.871    20765232.3994
        50.000          39.2004
 119976856.300 7  93488435.92044  22830852.239    22830855.7334
        45.300          29.3004
 113738198.052 8  88627154.31246  21643661.390    21643659.9614
        50.000          36.5004
 115828395.611 7  90255959.77445  22041379.024    22041374.2554
        47.900          31.3004
 121012219.156 7  94295266.55445  23027838.843    23027834.1914
        44.800          31.6004
 12 10 28  1  1 30.0000000  0 10G06G22G21G18G31G03G30G16G14G19
 107803768.422 8  84002935.61546  20514366.370    20514360.3124
        48.700          40.0004
 109300351.715 8  85169081.50446  20799160.829    20799151.7224
        51.500          40.2004
 127455846.797 5  99316219.86443  24254043.689    24254039.6234
        35.700          18.3004
 123251310.349 7  96039952.72544  23453947.289    23453941.3474
        42.700          28.8004
 133930973.418 7 104361653.44343  25486179.195    25486184.8594
        42.800          21.3004
 109067191.388 8  84987440.92646  20754780.132    20754774.7184
        49.600          39.2004
 120064435.273 7  93556679.09844  22847517.650    22847521.6724
        45.000          29.6004
 113779483.635 8  88659324.80046  21651518.333    21651516.3774
        49.700          36.4004
 115779628.673 7  90217959.76845  22032098.819    22032093.9914
        47.900          31.0004
 120929140.703 7  94230530.40745  23012028.974    23012025.0264
        42.600          31.0004
 12 10 28  1  2  0.0000000  0 10G06G22G21G18G31G03G30G16G14G19
 107769742.359 8  83976421.83946  20507891.208    20507885.1504
        49.200          39.7004
 109348310.249 8  85206451.82746  20808287.036    20808277.6954
        51.100          40.4004
 127491965.242 5  99344364.13442  24260915.798    24260912.7284
        35.500          17.8004
 123336507.818 7  96106340.36544  23470159.396    23470154.2174
        42.600          27.4004
 133931165.903 6 104361803.42843  25486214.589    25486221.3084
        37.900          18.6004
 109012628.548 8  84944924.52946  20744396.965    20744391.9024
        50.200          39.6004
 120152120.979 7  93625005.45644  22864203.577    22864207.8344
        44.300          27.8004
 113821207.031 8  88691836.42446  21659458.288    21659456.2154
        50.500          36.7004
 115731202.794 7  90180225.51545  22022883.231    22022878.5794
        47.500          31.9004
 120846123.951 7  94165842.32045  22996231.254    22996226.4854
        43.500          31.6004
 12 10 28  1  2 30.0000000  0 10G06G22G21G18G31G03G30G16G14G19
 107736088.733 8  83950198.28946  20501487.053    20501481.4054
        48.600          39.4004
 109396598.120 8  85244078.75646  20817475.619    20817466.8644
        51.000          40.2004
 127528086.102 5  99372510.21942  24267789.979    24267785.8554
        35.800          17.8004
 123421753.978 7  96172765.94044  23486380.886    23486374.9454
        42.400          26.0004
 133930998.442 6 104361672.96942  25486184.504    25486190.6954
        39.200          16.9004
 108958462.060 8  84902716.96946  20734089.499    20734083.9684
        50.900          39.6004
 120239909.355 7  93693411.79244  22880909.248    22880914.3264
        43.900          29.6004
 113863364.417 8  88724686.22346  21667480.164    21667478.3844
        50.000          36.0004
 115683119.661 8  90142758.33445  22013733.744    22013728.6814
        48.000          32.4004
 120763170.044 7  94101203.21645  22980444.990    22980440.3964
        44.500          31.6004
 12 10 28  1  3  0.0000000  0 10G06G22G21G18G31G03G30G16G14G19
 107702808.942 8  83924266.03246  20495153.988    20495148.1054
        48.500          39.7004
 109445212.589 8  85281960.20246  20826726.736    20826717.8644
        50.900          39.8004
 127564209.422 5  99400658.28142  24274663.908    24274659.0804
        35.800          17.8004
 123507046.109 7  96239227.34644  23502611.643    23502606.0534
        43.000          26.2004
 133930471.735 6 104361262.64642  25486082.922    25486089.6994
        37.300          16.9004
 108904693.731 8  84860819.67846  20723857.895    20723851.8374
        50.700          39.6004
 120327796.939 7  93761895.44944  22897634.375    22897638.6914
        43.500          29.1004
 113905953.419 8  88757872.34346  21675584.881    21675582.7494
        49.300          36.1004
 115635381.519 7  90105559.97445  22004649.017    22004644.4244
        47.100          32.3004
 120680280.673 7  94036614.37145  22964671.636    22964666.9854
        45.700          31.2004
 12 10 28  1  3 30.0000000  0 10G06G22G21G18G31G03G30G16G14G19
 107669905.810 8  83898627.26846  20488892.628    20488886.8624
        49.500          40.5004
 109494152.824 8  85320095.47246  20836039.861    20836030.3454
        51.200          39.6004
 127600337.463 5  99428810.02542  24281539.264    24281535.0814
        35.700          17.4004
 123592383.815 7  96305724.27244  23518850.493    23518845.2554
        43.800          25.6004
 133929586.593 5 104360572.91942  25485915.336    25485921.1174
        35.800          16.9004
 108851326.890 8  84819235.22346  20713701.673    20713696.2594
        50.000          39.6004
 120415781.703 7  93830454.83745  22914376.980    22914381.6474
        44.100          30.4004
 113948972.448 8  88791393.55346  21683770.917    21683769.0794
        49.300          36.0004
 115587991.978 7  90068633.25245  21995630.518    21995626.2764
        46.600          31.5004
 120597459.136 7  93972078.39545  22948911.063    22948906.7624
        44.200          31.4004
 12 10 28  1  4  0.0000000  0 10G06G22G21G18G31G03G30G16G14G19
 107637381.112 8  83873283.38346  20482703.338    20482697.8664
        48.600          39.8004
 109543415.581 8  85358482.05946  20845414.087    20845405.2154
        50.900          40.1004
 127636471.262 6  99456966.25843  24288414.686    24288410.3854
        36.300          18.3004
 123677764.460 7  96372254.64644  23535098.166    23535092.4004
        43.400          26.1004
 133928342.548 6 104359603.48443  25485678.469    25485684.1914
        38.600          18.3004
 108798363.208 8  84777964.91646  20703623.461    20703618.2234
        49.900          39.5004
 120503860.109 7  93899087.19844  22931138.282    22931142.4804
        43.800          29.6004
 113992419.320 8  88825248.14246  21692039.105    21692037.1494
        49.600          36.4004
 115540953.280 7  90031979.89645  21986679.703    21986674.8764
        47.800          32.7004
 120514706.696 7  93907596.25245  22933163.769    22933158.9414
        44.500          32.1004
 12 10 28  1  4 30.0000000  0 10G06G22G21G18G31G03G30G16G14G19
 107605235.713 8  83848235.06346  20476586.385    20476580.8544
        49.100          39.7004
 109592998.206 8  85397117.90746  20854849.286    20854840.5324
        50.500          40.1004
 127672610.766 6  99485126.88343  24295292.479    24295288.2374
        37.200          18.3004
 123763185.246 7  96438816.29243  23551353.121    23551347.7074
        43.000          23.6004
 133926738.434 5 104358353.54243  25485371.810    25485379.4084
        35.300          19.6004
 108745804.366 8  84737010.08146  20693621.414    20693616.5274
        50.500          39.7004
 120592028.276 7  93967789.48244  22947916.281    22947920.5964
        43.900          29.4004
 114036290.878 8  88859433.65246  21700387.763    21700385.7484
        49.600          36.3004
 115494267.308 8  89995601.38845  21977795.551    21977790.3124
        48.000          32.4004
 120432024.796 7  93843169.05145  22917429.787    22917425.1944
        45.300          31.6004
 12 10 28  1  5  0.0000000  0 10G06G22G21G18G31G03G30G16G14G19
 107573472.566 8  83823484.60246  20470542.022    20470536.3154
        48.500          40.3004
 109642899.781 8  85436002.27846  20864345.117    20864336.3044
        51.000          40.0004
 127708757.420 6  99513293.07742  24302170.707    24302166.1134
        37.800          17.8004
 123848645.608 7  96505408.79544  23567616.375    23567610.0814
        44.300          25.0004
 133924776.001 5 104356824.39043  25484998.157    25485005.1684
        33.200          18.3004
 108693653.450 8  84696373.08846  20683697.325    20683692.1454
        51.300          39.6004
 120680284.067 7  94036560.05145  22964711.004    22964715.6714
        43.200          30.0004
 114080585.516 8  88893948.82145  21708816.589    21708814.9264
        49.100          35.8004
 115447937.424 7  89959500.35145  21968978.892    21968973.7124
        46.100          31.8004
 120349416.356 7  93778799.12245  22901710.064    22901704.5334
        46.600          32.7004
 12 10 28  1  5 30.0000000  0 10G06G22G21G18G31G03G30G16G14G19
 107542092.237 8  83799032.43946  20464570.546    20464564.7224
        48.300          39.6004
 109693116.991 8  85475132.59246  20873901.133    20873892.0264
        51.000          40.1004
 127744912.043 6  99541465.54042  24309050.813    24309046.5714
        37.000          17.4004
 123934142.759 7  96572029.95243  23583885.226    23583879.8124
        42.000          23.8004
 133922459.700 5 104355027.64142  25484557.679    25484563.4604
        31.600          15.6004
 108641912.302 8  84656055.41046  20673851.474    20673846.4124
        50.500          39.4004
 120768623.799 7  94105396.03644  22981521.035    22981526.3464
        43.100          28.5004
 114125300.444 8  88928791.49946  21717325.638    21717324.0344
        48.800          36.0004
 115401965.604 7  89923678.32045  21960230.579    21960225.6344
        45.900          32.7004
 120266882.829 7  93714487.52945  22886003.049    22885998.2804
        44.000          31.9004
 12 10 28  1  6  0.0000000  0 10G06G22G21G18G31G03G30G16G14G19
 107511098.905 8  83774881.82846  20458672.937    20458666.8204
        49.000          40.5004
 109743648.690 8  85514507.96546  20883516.975    20883507.7514
        50.600          39.5004
 127781076.621 6  99569645.73942  24315932.497    24315927.8454
        37.900          17.4004
 124019675.905 7  96638679.18943  23600161.437    23600156.1414
        42.700          22.9004
 133919780.908 5 104352940.30542  25484048.236    25484054.1924
        30.800          13.9004
 108590584.014 8  84616059.42446  20664083.964    20664078.5504
        50.200          39.8004
 120857045.431 7  94174295.83144  22998347.416    22998352.4934
        43.000          29.4004
 114170434.158 8  88963960.49546  21725914.524    21725912.9204
        49.100          36.0004
 115356355.703 7  89888138.29745  21951551.329    21951546.6194
        46.000          31.6004
 120184427.636 7  93650236.97245  22870312.836    22870307.9504
        43.800          31.8004
 12 10 28  1  6 30.0000000  0 10G06G22G21G18G31G03G30G16G14G19
 107480486.846 8  83751028.31246  20452847.596    20452841.4784
        49.800          40.1004
 109794486.096 8  85554121.56346  20893190.845    20893182.0904
        50.900          39.8004
 127817245.184 6  99597829.05842  24322816.281    24322810.5744
        38.800          16.9004
 124105236.258 7  96705349.60043  23616443.510    23616437.5694
        42.600          22.9004
                                  25483468.498
        29.100
 108539663.948 8  84576381.54846  20654394.169    20654388.8724
        51.200          39.7004
 120945539.119 7  94243251.77344  23015187.591    23015192.0824
        42.800          28.7004
 114215977.524 8  88999448.71046  21734581.463    21734579.3904
        49.000          36.0004
 115311103.247 7  89852876.79945  21942940.030    21942935.0854
        44.700          31.8004
 120102045.709 7  93586043.51145  22854635.559    22854630.7894
        44.200          31.9004
 12 10 28  1  7  0.0000000  0  9G06G22G21G18G03G30G16G14G19
 107450270.697 8  83727483.30546  20447097.273    20447091.7424
        49.300          40.4004
 109845639.444 8  85593981.33446  20902925.499    20902915.9234
        49.900          39.3004
 127853431.737 6  99626026.38842  24329701.370    24329696.5424
        38.100          15.6004
 124190834.503 7  96772049.54643  23632732.026    23632726.2024
        43.300          22.9004
 108489167.315 8  84537033.61546  20644784.799    20644779.3854
        51.100          39.6004
 121034114.651 7  94312271.51144  23032042.718    23032047.5614
        42.300          27.5004
 114261941.066 8  89035264.32946  21743328.355    21743326.2824
        48.100          36.8004
 115266223.357 7  89817905.60445  21934399.857    21934394.6774
        45.000          32.1004
 120019752.280 7  93521919.00645  22838975.326    22838970.8504
        44.300          32.4004
 12 10 28  1  7 30.0000000  0 10G06G22G21G18G31G03G30G16G14G19
 107420451.674 8  83704247.75146  20441422.627    20441416.9784
        49.300          40.2004
 109897105.793 8  85634085.01946  20912718.760    20912709.6544
        50.600          39.7004
 127889636.101 6  99654237.62842  24336591.489    24336586.0164
        38.100          14.8004
 124276468.000 7  96838776.94544  23649028.054    23649021.7024
        43.900          24.7004
 133909608.493 5                  25482110.255
        33.200
 108439095.058 8  84498016.35746  20635256.278    20635250.9234
        51.100          39.6004
 121122767.771 7  94381351.68744  23048913.217    23048918.1774
        42.800          29.1004
 114308321.170 8  89071404.54146  21752153.676    21752151.9554
        48.600          36.5004
 115221717.718 7  89783226.03045  21925930.374    21925925.5464
        45.500          32.5004
 119937548.160 7  93457864.07945  22823332.316    22823328.1334
        44.700          32.4004
 12 10 28  1  8  0.0000000  0 10G06G22G21G18G31G03G30G16G14G19
 107391018.781 8  83681313.07046  20435822.308    20435816.2504
        48.400          39.5004
 109948870.553 8  85674421.22246  20922569.544    20922560.0864
        50.500          39.0004
 127925847.093 6  99682454.02442  24343481.321    24343476.2004
        36.800          15.6004
 124362122.747 7  96905520.92544  23665326.896    23665321.1304
        43.000          25.8004
 133905498.077 5                  25481328.588
        31.200
 108389437.114 8  84459321.94946  20625806.706    20625801.4684
        51.600          40.1004
 121211483.296 7  94450480.51044  23065795.760    23065799.9004
        43.000          28.9004
 114355103.256 8  89107857.97846  21761056.449    21761054.3174
        48.700          36.0004
 115177576.791 7  89748830.64445  21917530.300    21917525.1204
        45.600          32.3004
 119855423.470 7  93393871.05845  22807704.896    22807699.8924
        45.300          32.3004
 12 10 28  1  8 30.0000000  0 11G11G06G22G21G18G31G03G30G16G14G19
 131704752.166 6                  25062581.041
        37.000
 107361981.569 8  83658686.71746  20430296.640    20430290.5234
        48.200          39.5004
 110000938.504 8  85714993.68346  20932477.386    20932468.4564
        50.800          39.4004
 127962072.748 6  99710681.81142  24350375.666    24350369.1394
        37.700          14.8004
 124447804.047 7  96972285.59844  23681630.915    23681626.2054
        43.600          24.3004
 133901031.279 5                  25480477.577
        35.300
 108340203.079 8  84420957.85746  20616437.829    20616432.2394
        52.100          39.9004
 121300265.567 7  94519661.31844  23082690.628    23082694.8264
        43.600          28.9004
 114402292.137 8  89144628.41046  21770035.893    21770034.2304
        49.300          36.0004
 115133810.280 7  89714727.00545  21909201.529    21909197.4054
        45.800          32.9004
 119773387.903 7  93329947.48245  22792092.972    22792088.9064
        45.800          32.4004
 12 10 28  1  9  0.0000000  0 11G11G06G22G21G18G31G03G30G16G14G19
 131635605.780 6 102573235.53843  25049423.669    25049431.8524
        38.200          19.3004
 107333333.771 8  83636363.81346  20424845.205    20424839.1474
        50.200          39.8004
 110053299.594 8  85755794.55946  20942441.442    20942432.3364
        50.400          39.8004
 127998306.638 6  99738915.96742  24357270.616    24357264.9094
        36.600          15.6004
 124533502.079 7  97039063.30744  23697938.497    23697933.7274
        43.500          24.6004
 133896200.214 5                  25479559.978
        33.000
 108291387.129 8  84382919.53546  20607148.038    20607142.6834
        51.800          39.6004
 121389103.424 7  94588885.45644  23099595.628    23099600.5884
        43.100          28.7004
 114449877.420 8  89181707.71446  21779091.361    21779089.5814
        49.100          36.2004
 115090412.543 7  89680910.71445  21900943.157    21900938.4464
        45.700          32.4004
 119691434.970 7  93266088.29145  22776498.289    22776493.6374
        46.500          32.6004
 12 10 28  1  9 30.0000000  0 11G11G06G22G21G18G31G03G30G16G14G19
 131566401.687 6 102519310.85742  25036252.140    25036261.1444
        38.500          16.3004
 107305088.550 8  83614354.58646  20419470.527    20419463.8234
        49.600          39.7004
 110105963.571 8  85796831.45546  20952462.969    20952453.8044
        50.900          39.7004
 128034560.881 6                  24364170.041
        36.900
 124619226.767 7  97105861.76543  23714251.768    23714246.5304
        43.300          22.2004
 133890999.386 5                  25478571.655
        31.000
 108243003.404 8  84345218.02246  20597941.193    20597935.4864
        51.900          40.1004
 121478005.700 7  94658159.79144  23116513.451    23116518.7634
        42.100          28.3004
 114497868.733 8  89219103.41046  21788223.722    21788222.4114
        48.300          36.2004
 115047397.992 7  89647393.02245  21892758.081    21892753.5464
        45.800          32.6004
 119609578.928 7  93202304.60245  22760921.211    22760916.7934
        46.500          31.4004
 12 10 28  1 10  0.0000000  0 11G11G06G22G21G18G31G03G30G16G14G19
 131497138.419 6 102465339.93342  25023071.209    25023079.3934
        38.000          16.3004
 107277246.910 8  83592659.85246  20414171.732    20414165.9664
        50.700          40.1004
 110158926.579 8  85838101.36446  20962541.391    20962532.2264
        49.500          39.2004
 128070835.850 6                  24371072.008
        36.200
 124704975.081 7  97172678.63843  23730569.437    23730564.1414
        43.800          22.5004
 133885465.098 5                  25477519.758
        34.800
 108195052.154 8  84307853.49846  20588816.526    20588811.1124
        51.900          39.1004
 121566967.881 7  94727480.80344  23133442.294    23133447.4884
        42.200          28.7004
 114546262.240 8  89256812.50446  21797432.714    21797431.5204
        48.600          36.8004
 115004767.291 7  89614174.42045  21884644.752    21884640.1594
        45.500          32.3004
 119527820.424 7  93138596.93745  22745362.682    22745358.1474
        46.200          32.3004
 12 10 28  1 10 30.0000000  0 11G11G06G22G21G18G31G03G30G16G14G19
 131427812.016 6 102411319.91242  25009877.852    25009885.9774
        37.400          15.6004
 107249806.309 8  83571277.61346  20408950.325    20408944.3254
        50.400          40.2004
 110212182.825 8  85879599.77646  20972675.971    20972666.8654
        50.400          39.0004
 128107128.368 6                  24377978.518
        36.100
 124790741.381 7  97239509.55043  23746890.460    23746884.5194
        43.600          22.8004
 133879572.337 5                  25476397.876
        33.400
 108147532.374 8  84270825.19246  20579773.499    20579768.3784
        52.300          40.3004
 121655983.378 7  94796843.36744  23150381.460    23150386.4794
        44.300          28.7004
 114595051.292 8  89294829.80545  21806717.460    21806715.6224
        49.500          35.6004
 114962519.649 7  89581254.31345  21876605.776    21876601.0074
        46.600          32.1004
 119446157.942 7  93074964.08145  22729823.084    22729818.3734
        46.000          32.3004
 12 10 28  1 11  0.0000000  0 11G11G06G22G21G18G31G03G30G16G14G19
 131358423.847 5 102357251.62442  24996673.812    24996681.6444
        33.800          15.6004
 107222770.121 8  83550210.50146  20403805.301    20403799.3014
        50.500          40.2004
 110265730.825 8  85921325.51046  20982865.622    20982856.6324
        50.100          39.7004
 128143440.382 5                  24384888.424
        35.500
 124876524.935 7  97306353.90843  23763214.889    23763208.1864
        43.000          21.8004
 133873324.375 5                  25475209.244
        33.100
 108100446.658 8  84234135.10246  20570813.447    20570807.9744
        52.000          40.2004
 121745050.144 7  94866245.88344  23167330.636    23167335.8894
        44.100          27.0004
 114644234.354 8  89333154.12846  21816076.690    21816075.3204
        48.600          36.0004
 114920658.359 7  89548635.24145  21868640.025    21868634.8454
        46.200          31.6004
 119364594.766 7  93011408.60645  22714301.507    22714297.0894
        46.200          33.2004
 12 10 28  1 11 30.0000000  0 11G11G06G22G21G18G31G03G30G16G14G19
 131288973.703 6 102303135.08542  24983457.887    24983466.1304
        37.300          17.8004
 107196139.315 8  83529459.26546  20398737.737    20398731.9134
        49.800          40.2004
 110319568.188 8  85963276.73546  20993110.768    20993101.7794
        50.200          39.0004
 128179773.025 5                  24391801.051
        34.000
 124962323.871 7  97373210.22243  23779541.884    23779535.6504
        42.600          21.7004
 133866721.158 6                  25473951.682
        36.500
 108053797.450 8  84197785.15946  20561936.459    20561930.3424
        51.900          40.4004
 121834165.098 7  94935685.94244  23184288.648    23184293.3744
        43.300          28.2004
 114693808.984 8  89371783.57246  21825510.462    21825509.5614
        48.300          36.2004
 114879185.765 7  89516319.05145  21860747.373    21860742.1944
        45.300          32.7004
 119283133.078 7  92947932.21245  22698800.156    22698794.5074
        45.800          32.4004
 12 10 28  1 12  0.0000000  0 11G11G06G22G21G18G31G03G30G16G14G19
 131219460.463 6 102248969.42343  24970229.293    24970238.3564
        37.300          18.3004
 107169915.738 8  83509025.35946  20393747.126    20393741.3024
        50.100          40.4004
 110373692.292 8  86005451.39646  21003410.012    21003401.0824
        49.800          39.0004
 128216126.648 5                  24398720.307
        34.200
 125048135.444 7  97440076.39843  23795870.698    23795864.8164
        42.600          22.6004
 133859762.600 5                  25472628.317
        35.300
 108007586.218 8  84161776.49846  20553142.478    20553136.7124
        51.500          40.1004
 121923324.606 7  95005160.74244  23201254.927    23201259.5944
        43.800          27.9004
 114743772.343 8  89410715.92846  21835018.429    21835017.1184
        48.400          36.5004
 114838103.585 7  89484307.10145  21852929.729    21852925.0194
        45.500          31.9004
 119201774.309 7  92884536.01945  22683317.235    22683312.2314
        45.800          32.4004
 12 10 28  1 12 30.0000000  0 11G11G06G22G21G18G31G03G30G16G14G19
 131149883.756 6 102194754.25443  24956989.975    24956998.1004
        39.100          20.6004
 107144100.013 8  83488909.24446  20388834.778    20388828.6614
        50.100          40.7004
 110428100.287 8  86047847.26346  21013762.959    21013754.6144
        50.300          39.8004
 128252501.828 5                  24405640.826
        32.800
 125133957.386 7  97506950.67943  23812202.307    23812196.4244
        43.400          22.6004
 133852448.686 5                  25471234.055
        33.200
 107961814.368 8  84126110.20746  20544432.200    20544426.4354
        52.300          40.0004
 122012524.999 7  95074667.38244  23218229.460    23218234.4784
        43.700          28.2004
 114794121.054 8  89449948.54845  21844599.592    21844598.2224
        49.200          35.5004
 114797413.697 7  89452600.80945  21845185.953    21845181.4184
        44.900          32.5004
 119120520.044 7  92821221.24845  22667855.416    22667849.2984
        45.800          31.7004
 12 10 28  1 13  0.0000000  0 11G11G06G22G21G18G31G03G30G16G14G19
 131080244.520 6 102140490.41043  24943736.431    24943745.2594
        38.400          19.0004
 107118695.190 8  83469113.32846  20384000.408    20383994.3494
        49.700          40.3004
 110482791.052 8  86090463.46646  21024171.162    21024161.7624
        50.200          39.3004
 128288900.693 5                  24412569.937
        33.100
 125219788.952 7  97573832.43843  23828536.193    23828529.2564
        43.300          22.6004
 133844782.704 5                  25469776.576
        32.200
 107916484.894 8  84090788.62246  20535806.129    20535800.7154
        51.800          39.6004
 122101764.605 7  95144204.59744  23235211.051    23235216.4214
        43.400          28.9004
 114844853.606 7  89489480.26146  21854254.119    21854252.5154
        47.600          36.0004
 114757119.841 7  89421203.13545  21837519.076    21837513.7214
        45.000          32.4004
 119039373.781 7  92757990.63845  22652413.781    22652408.5434
        46.000          33.0004
 12 10 28  1 13 30.0000000  0 11G11G06G22G21G18G31G03G30G16G14G19
 131010542.943 6 102086177.96243  24930472.184    24930481.4224
        36.700          18.6004
 107093702.697 8  83449638.70146  20379244.343    20379238.3434
        49.800          40.2004
 110537762.011 8  86133298.01346  21034631.626    21034622.2854
        49.800          38.9004
 128325324.015 5                  24419500.582
        32.200
 125305628.340 7  97640720.28043  23844870.556    23844863.9114
        42.400          22.6004
 133836760.868 5                  25468251.688
        31.200
 107871600.018 8  84055813.47546  20527265.185    20527259.3614
        52.400          40.1004
 122191040.245 7  95213769.85944  23252200.188    23252205.7354
        43.300          27.7004
 114895967.616 8  89529309.22845  21863980.385    21863979.0744
        48.100          35.9004
 114717223.866 7  89390115.47945  21829927.141    21829921.8444
        45.300          32.9004
 118958337.283 7  92694845.56745  22636992.705    22636987.1154
        46.400          32.7004
 12 10 28  1 14  0.0000000  0 11G11G06G22G21G18G31G03G30G16G14G19
 130940778.889 6 102031816.82043  24917197.241    24917203.9014
        39.300          19.3004
 107069123.952 8  83430486.47246  20374567.180    20374561.3564
        50.300          40.4004
 110593010.651 8  86176348.93246  21045145.040    21045135.8764
        50.800          39.2004
 128361772.467 5                  24426436.115
        31.200
 125391473.801 7  97707612.88543  23861205.927    23861200.1024
        43.500          22.6004
 133828388.731 5                  25466656.293
        34.300
 107827161.386 8  84021186.05046  20518808.682    20518802.9174
        52.100          40.1004
 122280348.570 7  95283360.61644  23269195.238    23269201.1364
        42.800          28.6004
 114947460.014 7  89569433.02845  21873779.203    21873778.0094
        47.200          35.1004
 114677727.864 7  89359339.48945  21822411.111    21822405.8144
        45.100          33.0004
 118877412.759 7  92631787.74045  22621592.534    22621587.1794
        46.800          32.5004
 12 10 28  1 14 30.0000000  0 11G11G06G22G21G18G31G03G30G16G14G19
 130870951.325 6 101977406.29143  24903908.938    24903918.0594
        38.800          19.3004
 107044960.507 8  83411657.85946  20369969.373    20369962.9624
        50.400          40.6004
 110648534.546 8  86219614.33746  21055710.263    21055701.3324
        49.500          39.4004
 128398256.196 5                  24433377.777
        32.000
 125477323.300 7  97774508.63443  23877542.485    23877536.8374
        43.000          23.8004
 133819660.519 5                  25464994.297
        32.000
 107783171.309 8  83986908.14346  20510437.468    20510431.3514
        52.500          40.6004
 122369686.668 7  95352974.55544  23286195.914    23286201.6374
        43.400          28.1004
 114999327.955 7  89609849.45545  21883649.767    21883648.3394
        47.400          35.6004
 114638634.090 7  89328876.92645  21814972.171    21814966.1714
        45.700          33.5004
 118796602.382 7  92568818.85345  22606214.845    22606209.4314
        46.300          32.1004
 12 10 28  1 15  0.0000000  0 11G11G06G22G21G18G31G03G30G16G14G19
 130801052.818 6 101922940.31443  24890606.909    24890614.7414
        40.200          18.3004
 107021206.114 8  83393147.99246  20365448.623    20365442.9164
        50.100          40.2004
 110704323.762 8  86263086.48546  21066327.013    21066318.0824
        50.000          39.6004
                                  24440322.264
        31.200
 125563167.082 7  97841399.89644  23893878.326    23893872.3854
        43.500          24.7004
                                  25463266.464
        25.300
 107739623.610 8  83952974.94446  20502150.469    20502145.0564
        52.600          40.1004
 122459043.599 7  95422603.19044  23303200.067    23303205.2034
        42.700          27.6004
 115051561.436 8  89650550.73045  21893589.698    21893588.1534
        48.400          35.5004
 114599936.991 7  89298723.45345  21807607.907    21807602.8454
        45.800          34.0004
 118715900.307 7  92505934.36645  22590857.599    22590851.8924
        45.900          33.1004
 12 10 28  1 15 30.0000000  0 10G11G06G22G21G18G03G30G16G14G19
 130731103.588 6 101868434.95342  24877296.465    24877302.5394
        41.000          16.9004
 106997882.581 8  83374973.86446  20361010.686    20361004.1594
        50.900          40.6004
 110760395.882 8  86306779.07946  21076997.123    21076988.1924
        49.100          39.7004
 128471285.331 5                  24447273.967
        33.000
 125649023.550 6  97908301.06643  23910215.810    23910210.7484
        40.900          22.3004
 107696540.186 8  83919403.51746  20493951.628    20493946.1564
        52.100          40.4004
 122548436.622 7  95492259.94544  23320210.660    23320216.2064
        43.700          27.9004
 115104177.360 8  89691550.00545  21903602.117    21903601.0404
        48.100          35.8004
 114561659.222 7  89268896.71845  21800323.656    21800318.6524
        45.700          32.9004
 118635328.898 7  92443151.68945  22575525.450    22575519.9194
        46.900          33.1004
 12 10 28  1 16  0.0000000  0 10G11G06G22G21G18G03G30G16G14G19
 130661088.579 6 101813878.25742  24863972.186    24863978.3774
        39.200          17.8004
 106974976.853 8  83357125.29946  20356651.483    20356645.1904
        50.500          40.4004
 110816733.597 8  86350678.62046  21087717.861    21087708.6964
        49.600          39.6004
 128507846.440 5                  24454231.795
        33.000
 125734876.129 6  97975199.20344  23926553.241    23926547.7104
        41.800          24.0004
 107653908.333 8  83886183.95946  20485839.217    20485833.4514
        51.700          40.2004
 122637847.777 7  95561930.80644  23337225.757    23337231.2454
        43.600          27.1004
 115157158.569 8  89732833.91445  21913684.235    21913682.5724
        48.100          35.0004
 114523787.765 7  89239386.59845  21793117.141    21793111.6104
        45.700          34.0004
 118554875.456 7  92380460.93445  22560215.260    22560209.4954
        46.400          32.8004
 12 10 28  1 16 30.0000000  0 10G11G06G22G21G18G03G30G16G14G19
 130591006.635 6 101759269.42042  24850636.389    24850642.8144
        37.500          17.8004
 106952488.747 8  83339602.15346  20352372.028    20352365.6774
        50.000          40.6004
 110873333.660 8  86394782.60746  21098488.472    21098479.3074
        49.100          39.3004
                                  24461192.417
        29.600
 125820721.563 6  98042091.77944  23942889.185    23942883.3024
        41.400          24.7004
 107611728.617 8  83853316.72546  20477812.655    20477806.8314
        51.800          40.3004
 122727272.703 7  95631612.42444  23354242.749    23354247.7684
        43.100          26.9004
 115210500.936 7  89774399.25045  21923835.018    21923833.8834
        47.900          35.5004
 114486323.841 7  89210194.03045  21785987.531    21785981.8824
        46.300          33.2004
 118474541.367 7  92317863.17945  22544928.521    22544922.3454
        46.200          32.6004
 12 10 28  1 17  0.0000000  0 10G11G06G22G21G18G03G30G16G14G19
 130520869.170 6 101704617.41143  24837288.290    24837295.2434
        37.900          18.3004
 106930431.817 8  83322414.98646  20348174.659    20348168.1904
        50.500          41.2004
 110930205.507 8  86439098.35946  21109310.965    21109302.0354
        50.200          39.6004
 128581059.151 5                  24468162.446
        30.300
 125906570.444 6  98108987.05144  23959225.767    23959219.8264
        41.600          24.5004
 107570014.534 8  83820812.31546  20469875.078    20469868.7854
        52.500          40.2004
 122816720.476 7  95701311.83144  23371263.937    23371269.4254
        42.900          26.2004
 115264213.674 8  89816253.17545  21934056.282    21934054.9124
        48.400          35.1004
 114449281.335 7  89181329.83145  21778938.367    21778932.9534
        46.000          33.2004
 118394339.690 7  92255368.58645  22529665.804    22529660.2154
        45.400          33.4004
 12 10 28  1 17 30.0000000  0 10G11G06G22G21G18G03G30G16G14G19
 130450666.055 6 101649914.10042  24823929.393    24823936.0534
        36.700          17.4004
 106908796.830 8  83305556.60146  20344057.867    20344051.8084
        50.000          40.7004
 110987335.749 8  86483615.45346  21120182.321    21120173.2744
        49.000          39.1004
 128617715.158 5                  24475138.159
        31.300
 125992409.300 6  98175874.48243  23975560.390    23975554.5664
        41.300          23.8004
 107528757.378 8  83788663.94446  20462023.804    20462017.9214
        51.200          40.4004
 122906176.926 7  95771017.99844  23388287.873    23388292.3064
        43.200          27.2004
 115318283.148 8  89858385.08145  21944345.792    21944344.4224
        48.900          35.7004
 114412651.545 7  89152787.23845  21771968.223    21771963.1024
        46.300          33.0004
 118314262.425 7  92192970.94545  22514427.598    22514421.8914
        45.600          32.7004
 12 10 28  1 18  0.0000000  0 10G11G06G22G21G18G03G30G16G14G19
 130380399.063 6 101595161.10142  24810556.085    24810563.9174
        36.100          17.4004
 106887587.717 8  83289030.07446  20340021.602    20340015.5434
        49.400          40.5004
 111044724.854 8  86528334.26446  21131102.800    21131094.2804
        49.900          39.6004
 128654403.931 5                  24482119.739
        31.900
 126078239.145 6  98242754.90443  23991893.340    23991887.1064
        40.900          23.6004
 107487961.721 8  83756875.20146  20454260.440    20454254.3234
        51.800          40.2004
 122995641.791 7  95840730.72344  23405312.147    23405316.7564
        42.800          26.1004
 115372709.040 8  89900794.71245  21954702.531    21954701.4544
        48.800          35.9004
 114376439.637 7  89124570.26645  21765077.209    21765071.6194
        45.400          33.0004
 118234314.570 7  92130674.12745  22499214.232    22499207.9394
        44.500          33.6004
 12 10 28  1 18 30.0000000  0 10G11G06G22G21G18G03G30G16G14G19
 130310069.394 6 101540359.20442  24797172.652    24797179.5464
        38.100          16.9004
 106866806.905 8  83272837.28046  20336067.333    20336061.0404
        49.600          40.0004
 111102371.048 8  86573253.41146  21142072.451    21142063.9314
        49.700          39.4004
 128691127.516 5                  24489107.610
        33.600
 126164059.346 6  98309627.81143  24008224.042    24008218.4524
        40.700          22.5004
 107447630.377 8  83725448.26146  20446585.729    20446579.8464
        51.900          40.5004
 123085113.055 7  95910448.45344  23422337.235    23422343.2504
        42.900          27.3004
 115427489.695 8  89943480.78445  21965126.703    21965125.7444
        48.500          34.8004
 114340648.164 7  89096680.90145  21758266.301    21758260.4194
        46.400          33.1004
 118154498.719 7  92068480.18145  22484025.574    22484019.2234
        45.000          33.4004
 12 10 28  1 19  0.0000000  0 10G11G06G22G21G18G03G30G16G14G19
 130239677.306 6 101485508.66842  24783776.952    24783784.1984
        36.400          15.6004
 106846456.649 8  83256979.98646  20332194.403    20332188.4034
        49.900          39.6004
 111160272.824 8  86618371.71846  21153091.141    21153082.2104
        49.100          38.8004
 128727887.646 5                  24496104.654
        33.300
 126249868.970 6  98376492.47343  24024552.779    24024547.2484
        41.200          22.6004
 107407765.760 8  83694385.01246  20438999.234    20438993.5284
        51.500          40.3004
 123174588.589 7  95980169.52344  23439364.427    23439370.0904
        42.300          27.2004
 115482623.214 8  89986441.81345  21975618.443    21975617.3674
        49.100          35.1004
 114305279.950 7  89069121.35745  21751535.442    21751530.2624
        46.000          32.9004
 118074817.954 7  92006391.48045  22468862.149    22468856.3254
        45.800          33.3004
 12 10 28  1 19 30.0000000  0 10G11G06G22G21G18G03G30G16G14G19
 130169222.354 6 101430609.14842  24770370.359    24770376.3154
        36.200          16.9004
 106826537.607 8  83241458.69846  20328403.958    20328398.1924
        50.400          39.7004
 111218427.329 8  86663686.94846  21164157.284    21164148.0604
        48.400          38.8004
 128764684.320 5                  24503107.278
        33.500
 126335665.486 6  98443346.93743  24040879.444    24040874.0304
        40.400          21.3004
 107368368.721 8  83663686.08746  20431502.380    20431496.4384
        51.600          40.5004
 123264064.589 7  96049890.92844  23456391.355    23456396.8434
        42.100          26.4004
 115538105.916 8  90029674.93145  21986176.949    21986175.8134
        49.500          35.3004
 114270336.483 7  89041892.77545  21744886.148    21744880.5004
        46.400          32.6004
 117995273.323 7  91944408.86345  22453725.703    22453719.7034
        46.000          33.6004
 12 10 28  1 20  0.0000000  0 10G11G06G22G21G18G03G30G16G14G19
 130098705.274 6 101375661.22142  24756952.670    24756957.3374
        40.200          16.3004
 106807051.728 8  83226274.93746  20324696.127    20324689.8334
        50.100          39.8004
 111276832.244 8  86709197.30846  21175271.289    21175262.0664
        48.800          39.0004
 128801519.079 5                  24510114.416
        32.400
 126421447.394 6  98510190.01043  24057203.649    24057197.4734
        40.600          22.3004
 107329441.993 8  83633353.64546  20424094.642    20424089.1114
        51.300          40.5004
 123353538.387 7  96119610.62944  23473417.852    23473423.2224
        42.900          27.1004
 115593935.564 8  90073178.38245  21996800.656    21996800.1664
        48.200          34.6004
 114235820.297 7  89014997.15545  21738317.866    21738312.5694
        46.300          32.8004
 117915868.150 7  91882534.93345  22438615.471    22438609.2374
        46.400          34.0004
 12 10 28  1 20 30.0000000  0 10G11G06G22G21G18G03G30G16G14G19
 130028125.228 6 101320664.26742  24743520.307    24743525.5024
        40.400          17.8004
 106788000.103 8  83211429.55846  20321070.055    20321064.1144
        50.400          40.1004
 111335484.999 8  86754900.80046  21186432.443    21186423.5124
        49.300          39.0004
 128838392.495 5                  24517131.594
        31.800
 126507212.741 6  98577020.16543  24073523.751    24073518.1024
        39.800          22.0004
 107290987.137 8  83603388.89846  20416777.493    20416771.6104
        51.600          40.5004
 123443006.891 7  96189326.21644  23490442.930    23490449.0034
        43.000          27.3004
 115650108.954 8  90116949.68345  22007490.535    22007489.9274
        49.000          34.9004
 114201733.354 7  88988436.00145  21731831.492    21731825.8434
        47.400          34.0004
 117836604.471 7  91820771.22445  22423532.085    22423524.9714
        46.700          34.0004
 12 10 28  1 21  0.0000000  0 10G11G06G22G21G18G03G30G16G14G19
 129957483.136 6 101265618.98642  24730078.222    24730081.5414
        40.600          15.6004
 106769385.055 8  83196924.36646  20317528.047    20317521.8724
        50.100          40.2004
 111394384.243 8  86800796.35146  21197640.718    21197631.7874
        49.400          39.1004
 128875306.498 5                  24524156.891
        33.100
 126592960.538 6  98643836.65343  24089840.730    24089834.9064
        38.200          22.3004
 107253006.604 8  83573793.75946  20409549.655    20409543.8314
        51.800          40.7004
 123532468.092 7  96259036.10144  23507467.373    23507473.0954
        43.200          26.5004
 115706624.137 8  90160987.32545  22018245.332    22018244.3724
        48.500          35.1004
 114168078.289 7  88962211.37545  21725426.862    21725421.2734
        47.500          33.8004
 117757484.801 7  91759119.73645  22408475.602    22408468.7234
        46.200          33.6004
 12 10 28  1 21 30.0000000  0 10G11G06G22G21G18G03G30G16G14G19
 129886777.952 6 101210524.39842  24716621.819    24716626.3694
        39.600          16.3004
 106751206.910 8  83182759.62346  20314068.778    20314062.7784
        50.300          40.4004
 111453526.631 8  86846881.36846  21208895.177    21208886.3054
        48.600          39.2004
 128912261.253 5                  24531188.238
        33.700
 126678688.540 6  98710637.71343  24106153.644    24106148.9344
        38.900          21.8004
 107215501.122 8  83544568.77746  20402412.365    20402406.7754
        51.300          41.2004
 123621917.868 6  96328737.09344  23524489.294    23524495.1924
        41.700          26.9004
 115763477.335 8  90205288.35845  22029063.912    22029063.6554
        48.900          35.7004
 114134856.118 7  88936324.08945  21719104.907    21719099.4344
        46.800          34.6004
 117678510.335 7  91697581.40045  22393447.211    22393440.3904
        46.100          34.4004
 12 10 28  1 22  0.0000000  0 10G11G06G22G21G18G03G30G16G14G19
 129816010.731 6 101155381.48642  24703153.889    24703161.4874
        37.800          17.4004
 106733467.760 8  83168936.95746  20310693.393    20310687.1004
        50.200          40.2004
 111512910.418 8  86893154.48946  21220195.624    21220186.4594
        48.200          39.5004
 128949258.336 5                  24538228.998
        35.000
 126764395.231 6  98777422.15243  24122463.581    24122458.2254
        39.000          20.4004
 107178472.803 8  83515715.62146  20395366.214    20395360.0384
        51.700          40.6004
 123711354.141 6  96398427.58544  23541508.316    23541514.9174
        41.300          25.4004
 115820666.295 7  90249851.01445  22039947.311    22039945.8824
        47.300          35.4004
 114102069.716 7  88910776.35645  21712865.781    21712860.0154
        47.000          34.0004
 117599684.493 7  91636158.85345  22378446.973    22378440.1534
        46.400          33.9004
 12 10 28  1 22 30.0000000  0 10G11G06G22G21G18G03G30G16G14G19
 129745180.848 5 101100189.79142  24689674.963    24689681.0954
        35.200          15.6004
 106716168.486 8  83155457.04246  20307401.730    20307395.1444
        50.200          40.0004
 111572532.907 8  86939613.61246  21231541.236    21231532.1884
        48.000          39.6004
 128986298.332 5                  24545277.282
        34.600
 126850078.975 6  98844188.75843  24138768.748    24138762.5724
        38.500          20.4004
 107141923.079 8  83487235.38046  20388410.746    20388404.5704
        51.900          40.9004
 123800773.464 6  96468104.84144  23558523.902    23558530.3864
        41.400          25.8004
 115878187.902 7  90294672.87145  22050893.334    22050892.0824
        47.000          34.9004
 114069720.589 7  88885569.35945  21706709.605    21706704.1334
        46.500          33.5004
 117521008.639 7  91574853.18745  22363475.411    22363468.0044
        46.400          34.0004
 12 10 28  1 23  0.0000000  0 10G11G06G22G21G18G03G30G16G14G19
 129674289.877 6 101044950.59342  24676186.239    24676189.9684
        40.300          16.9004
 106699312.160 8  83142322.28646  20304193.640    20304187.6404
        50.600          39.8004
 111632393.164 8  86986258.01246  21242932.183    21242923.1354
        49.400          38.0004
 129023383.731 5                  24552335.140
        32.500
 126935738.876 6  98910936.73843  24155069.447    24155063.2134
        38.100          20.6004
 107105855.412 8  83459130.76346  20381547.290    20381541.4664
        50.600          40.4004
 123890174.471 6  96537767.83144  23575537.304    23575542.7914
        41.700          25.7004
 115936040.987 7  90339753.02845  22061901.956    22061901.5824
        47.200          34.9004
 114037812.293 7  88860705.87245  21700637.933    21700631.7574
        46.400          33.6004
 117442487.039 7  91513667.71645  22348532.470    22348525.9424
        47.000          33.6004
 12 10 28  1 23 30.0000000  0 10G11G06G22G21G18G03G30G16G14G19
 129603335.903 6 100989662.22842  24662685.554    24662687.7604
        41.900          16.9004
 106682898.068 8  83129532.11646  20301069.986    20301063.9274
        50.200          40.0004
 111692487.238 8  87033084.60346  21254367.951    21254358.6104
        48.000          38.4004
 129060513.714 5                  24559401.708
        32.200
 127021371.740 6  98977663.63443  24171364.599    24171358.7754
        38.300          20.9004
 107070269.698 8  83431401.70446  20374775.609    20374769.1994
        51.200          40.0004
 123979552.409 6  96607412.85844  23592545.002    23592550.7244
        41.100          25.4004
 115994220.483 7  90385087.53245  22072973.887    22072972.5764
        47.200          34.9004
 114006345.023 7  88836186.05245  21694650.038    21694643.6864
        45.600          33.3004
 117364119.810 7  91452602.53845  22333619.878    22333613.1754
        47.200          34.6004
 12 10 28  1 24  0.0000000  0 10G11G06G22G21G18G03G30G16G14G19
 129532319.338 6 100934325.06042  24649168.592    24649173.4354
        39.200          16.9004
 106666927.750 8  83117087.74646  20298030.942    20298024.9424
        50.800          39.7004
 111752812.693 8  87080091.47646  21265847.580    21265838.2394
        48.100          38.2004
 129097689.479 5                  24566474.229
        32.800
 127106976.294 6  99044368.52743  24187654.673    24187648.5554
        38.300          20.6004
 107035167.671 8  83404049.53946  20368095.838    20368089.6044
        51.300          40.6004
 124068904.604 6  96677037.84744  23609547.592    23609554.0174
        40.800          24.7004
 116052724.020 7  90430674.54145  22084106.524    22084105.6814
        46.700          34.5004
 113975320.837 7  88812011.48345  21688745.926    21688740.2194
        45.300          33.3004
 117285909.556 8  91391659.68245  22318736.956    22318730.3114
        48.300          34.8004
 12 10 28  1 24 30.0000000  0 10G11G06G22G21G18G03G30G16G14G19
 129461241.794 6 100878940.50142  24635643.584    24635647.6654
        39.200          16.3004
 106651404.249 8  83104991.55046  20295076.950    20295070.8334
        50.500          39.8004
 111813368.823 8  87127278.10246  21277370.865    21277361.2904
        48.000          38.5004
 129134913.598 5                  24573556.693
        31.900
 127192552.399 6  99111051.26443  24203938.037    24203933.0344
        37.900          20.4004
 107000552.875 8  83377077.04046  20361508.792    20361502.6754
        51.000          40.1004
 124158229.874 6  96746641.82443  23626546.600    23626552.3224
        41.000          22.8004
 116111550.411 7  90476513.12345  22095301.025    22095300.8864
        46.800          34.9004
 113944743.181 7  88788184.86545  21682926.668    21682920.9614
        45.200          33.3004
 117207859.951 7  91330842.00845  22303884.526    22303877.5884
        47.800          34.8004
 12 10 28  1 25  0.0000000  0 10G11G06G22G21G18G03G30G16G14G19
 129390099.317 6 100823505.13642  24622104.516    24622109.5944
        38.600          16.3004
 106636324.761 8  83093241.32146  20292207.543    20292201.1334
        50.900          40.0004
 111874149.567 8  87174639.76646  21288937.029    21288927.5124
        48.100          38.8004
                                  24580648.833
        30.700
 127278094.217 6  99177707.21143  24220217.397    24220211.1624
        38.100          21.7004
 106966422.366 8  83350481.89846  20355014.068    20355008.1264
        51.400          40.8004
 124247521.169 6  96816219.33944  23643538.034    23643543.7564
        40.700          24.6004
 116170692.439 7  90522597.64045  22106555.150    22106555.2464
        46.100          34.6004
 113914610.227 7  88764704.76845  21677192.653    21677186.6534
        46.000          33.6004
 117129969.369 8  91270148.22745  22289062.428    22289055.3144
        48.100          34.6004
 12 10 28  1 25 30.0000000  0 10G11G06G22G21G18G03G30G16G14G19
 129318903.365 6 100768028.21842  24608556.631    24608560.4194
        40.600          16.3004
 106621701.777 8  83081846.82146  20289424.554    20289418.3784
        51.200          40.6004
 111935163.511 7  87222183.13246  21300547.427    21300537.9104
        47.800          38.6004
 129209501.938 4                  24587752.140
        29.600
 127363611.212 6  99244343.87343  24236491.031    24236484.8554
        39.900          21.8004
 106932789.360 8  83324274.42446  20348613.893    20348607.7764
        51.200          40.7004
 124336787.035 6  96885777.02343  23660524.999    23660530.8384
        40.300          23.6004
 116230158.756 7  90568934.85945  22117871.235    22117871.1554
        46.200          34.9004
 113884935.050 7  88741581.39345  21671545.646    21671540.4674
        45.700          33.8004
 117052251.312 8  91209588.90345  22274272.610    22274265.7904
        48.200          34.8004
 12 10 28  1 26  0.0000000  0 10G11G06G22G21G18G03G30G16G14G19
 129247641.803 6 100712500.17942  24594995.871    24595000.2454
        36.900          17.4004
 106607524.622 8  83070799.72346  20286727.183    20286720.5974
        51.100          40.1004
 111996396.042 7  87269896.82246  21312199.692    21312190.4694
        47.900          38.6004
 129246875.502 5                  24594864.103
        30.300
 127449090.267 6  99310950.94643  24252756.373    24252750.6074
        38.400          22.0004
 106899643.683 8  83298446.68246  20342306.203    20342300.3794
        51.200          40.8004
 124426012.302 6  96955303.09444  23677503.116    23677509.9514
        40.600          24.1004
 116289934.281 7  90615513.01245  22129246.162    22129246.2574
        46.400          35.0004
 113855706.776 7  88718806.25545  21665983.358    21665978.1204
        45.400          34.4004
 116974695.936 8  91149156.34145  22259514.379    22259507.2074
        48.600          35.7004
 12 10 28  1 26 30.0000000  0 10G11G06G22G21G18G03G30G16G14G19
 129176317.681 6 100656923.38243  24581421.967    24581427.1614
        37.200          18.3004
 106593797.456 8  83060103.25946  20284114.849    20284108.4974
        50.800          40.1004
 112057848.113 8  87317781.58246  21323893.612    21323884.2124
        48.800          38.2004
 129284299.563 5                  24601986.576
        32.000
 127534532.580 6  99377529.37843  24269015.890    24269009.8314
        39.600          22.0004
 106866989.823 8  83273002.18146  20336092.322    20336086.7324
        50.800          40.8004
 124515197.412 6  97024797.86044  23694475.499    23694480.9284
        40.400          24.5004
 116350019.069 7  90662332.15645  22140680.798    22140680.1314
        47.200          34.9004
 113826931.201 7  88696383.86545  21660507.742    21660502.0354
        46.300          35.2004
 116897308.643 8  91088854.74345  22244788.209    22244781.2714
        48.400          34.9004
 12 10 28  1 27  0.0000000  0 10G11G06G22G21G18G03G30G16G14G19
 129104933.037 5 100601299.31542  24567836.551    24567844.0904
        35.700          17.8004
 106580523.305 8  83049759.79446  20281588.690    20281582.2214
        51.000          39.5004
 112119519.381 8  87365837.14546  21335628.956    21335619.6154
        48.300          37.8004
 129321777.131 5                  24609119.459
        31.900
 127619937.769 6  99444078.89643  24285267.797    24285262.7354
        39.700          22.3004
 106834831.006 8  83247943.42046  20329972.683    20329966.8004
        49.700          40.5004
 124604341.192 6  97094260.43943  23711438.937    23711444.7774
        40.200          23.0004
 116410412.222 7  90709391.59245  22152173.593    22152172.7514
        47.500          35.1004
 113798611.674 7  88674316.84145  21655118.629    21655112.6294
        46.400          33.7004
 116820093.438 8  91028687.24245  22230094.404    22230087.5844
        48.700          34.9004
 12 10 28  1 27 30.0000000  0 10G11G06G22G21G18G03G30G16G14G19
 129033487.723 5 100545628.06743  24554241.823    24554248.7174
        35.900          18.6004
 106567703.447 8  83039770.32646  20279148.917    20279142.6244
        50.000          40.2004
 112181407.270 7  87414061.49946  21347405.901    21347396.0334
        47.900          38.1004
 129359308.874 4                  24616261.373
        29.600
 127705304.573 6  99510598.52143  24301512.361    24301506.7134
        39.900          21.8004
 106803168.649 8  83223271.51146  20323947.429    20323941.7224
        49.100          40.9004
 124693440.841 6  97163688.57444  23728394.257    23728400.3304
        39.900          24.7004
 116471110.741 7  90756688.97345  22163723.594    22163723.6894
        46.600          34.3004
 113770749.923 7  88652606.52145  21649816.720    21649810.4854
        46.500          35.4004
 116743052.682 7  90968655.67546  22215433.172    22215426.9374
        47.800          36.4004
 12 10 28  1 28  0.0000000  0 10G11G06G22G21G18G03G30G16G14G19
 128961981.434 6 100489909.31743  24540635.525    24540640.1344
        39.700          18.6004
 106555338.568 8  83030135.39746  20276796.252    20276789.7244
        51.300          39.6004
 112243509.032 8  87462452.50746  21359223.548    21359214.2654
        49.600          38.1004
 129396906.485 4                  24623413.784
        29.400
 127790631.087 6  99577086.71043  24317750.176    24317744.2354
        40.600          22.2004
 106772004.294 8  83198987.66146  20318017.284    20318011.3424
        49.400          40.8004
 124782492.960 6  97233079.75743  23745340.141    23745346.0974
        40.200          23.8004
 116532111.090 7  90804221.54545  22175331.725    22175331.7034
        46.400          34.5004
 113743347.171 7  88631253.87645  21644602.006    21644595.7724
        46.500          34.7004
 116666188.143 8  90908761.41946  22200806.696    22200800.2284
        48.300          36.6004
 12 10 28  1 28 30.0000000  0 10G11G06G22G21G18G03G30G16G14G19
 128890411.533 6 100434141.01443  24527015.195    24527019.3934
        38.100          19.0004
 106543426.882 8  83020853.60646  20274529.307    20274522.6624
        50.600          39.8004
 112305819.373 8  87511006.06546  21371080.940    21371071.3064
        48.600          38.0004
 129434537.313 4                  24630576.358
        29.900
 127875912.750 6  99643539.95743  24333978.132    24333971.4294
        40.200          22.0004
 106741336.505 8  83175090.74446  20312181.298    20312175.7084
        49.200          40.2004
 124871492.006 6  97302429.54443  23762276.101    23762282.2344
        40.200          22.5004
 116593407.676 7  90851984.95745  22186996.535    22186995.8694
        46.700          34.8004
 113716402.530 7  88610258.19145  21639474.536    21639468.2434
        46.600          34.4004
 116589499.197 8  90849003.99046  22186213.148    22186206.6214
        48.400          36.3004
 12 10 28  1 29  0.0000000  0 10G11G06G22G21G18G03G30G16G14G19
 128818784.239 6 100378327.88842  24513384.202    24513388.5184
        36.400          17.4004
 106531975.817 8  83011930.74546  20272350.627    20272343.6314
        51.000          39.4004
 112368342.221 8  87559725.19446  21382978.603    21382969.2624
        48.200          38.1004
                                  24637750.299
        26.400
 127961154.152 6  99709961.85743  24350200.015    24350193.1364
        40.200          20.4004
 106711172.676 8  83151586.53346  20306441.092    20306435.0924
        49.200          40.5004
 124960441.349 6  97371740.61543  23779201.857    23779208.7514
        40.100          23.3004
 116655003.512 7  90899981.54545  22198717.781    22198717.1154
        46.600          33.5004
 113689923.876 7  88589625.61945  21634435.469    21634429.2934
        45.600          33.8004
 116512994.580 8  90789390.18745  22171654.372    22171648.1374
        48.300          35.9004
 12 10 28  1 29 30.0000000  0  9G11G06G22G18G03G30G16G14G19
 128747097.015 6 100322468.15642  24499743.513    24499747.1834
        38.800          17.4004
 106520983.878 8  83003365.65146  20270258.559    20270252.3834
        50.400          39.8004
 112431072.577 8  87608606.02146  21394915.436    21394906.5644
        48.400          38.0004
 128046350.957 6  99776348.97943  24366411.594    24366405.4774
        40.200          19.9004
 106681511.586 8  83128474.06646  20300796.574    20300790.3404
        49.400          40.8004
 125049335.416 6  97441008.61444  23796118.517    23796125.0604
        40.500          24.4004
 116716893.057 7  90948207.00245  22210494.895    22210494.8154
        46.000          33.9004
 113663910.334 7  88569355.44245  21629484.975    21629479.2094
        45.400          34.4004
 116436673.824 8  90729919.64045  22157131.311    22157124.3734
        48.200          35.6004
 12 10 28  1 30  0.0000000  0  9G11G06G22G18G03G30G16G14G19
 128675349.659 6 100266561.51342  24486090.582    24486093.3734
        38.900          17.8004
 106510451.660 8  82995158.77446  20268254.297    20268248.0044
        51.300          40.4004
 112494007.783 7  87657646.46746  21406891.519    21406882.1784
        47.700          38.3004
 128131501.324 6  99842699.92543  24382615.336    24382609.1024
        39.800          21.1004
 106652354.480 8  83105754.30746  20295248.201    20295241.9674
        50.300          40.6004
 125138171.124 7  97510231.12443  23813023.925    23813030.3504
        42.100          22.9004
 116779073.008 7  90996658.75545  22222327.374    22222327.2354
        46.000          33.9004
 113638363.201 7  88549448.71745  21624623.853    21624617.3854
        46.200          34.0004
 116360538.616 8  90670593.68946  22142642.986    22142636.1074
        49.300          36.6004
 12 10 28  1 30 30.0000000  0  9G11G06G22G18G03G30G16G14G19
 128603542.686 6 100210608.36643  24472424.544    24472429.5044
        39.200          19.3004
 106500381.195 8  82987311.71246  20266338.237    20266331.7104
        51.200          40.5004
 112557145.844 7  87706844.99446  21418906.510    21418897.5214
        47.500          37.7004
 128216604.407 6  99909013.99143  24398809.609    24398803.7854
        38.700          20.1004
 106623703.302 8  83083428.77346  20289796.078    20289789.7854
        50.100          40.9004
 125226946.243 6  97579406.42343  23829917.700    23829923.1884
        41.800          22.5004
 116841540.985 7  91045334.93645  22234214.987    22234215.0824
        45.900          34.0004
 113613284.722 7  88529907.17445  21619851.561    21619845.1514
        47.300          33.7004
 116284592.266 8  90611414.88246  22128190.441    22128183.3864
        49.000          36.7004
 12 10 28  1 31  0.0000000  0  9G11G06G22G18G03G30G16G14G19
 128531676.401 6 100154609.07943  24458749.193    24458752.7464
        41.000          18.6004
 106490773.326 8  82979825.10946  20264509.412    20264502.9434
        50.900          40.1004
 112620484.749 7  87756200.01746  21430959.764    21430950.3064
        47.500          38.8004
 128301658.510 6  99975289.93043  24414995.013    24414988.7784
        39.100          19.9004
 106595559.805 8  83061498.84046  20284440.513    20284434.2204
        49.500          41.0004
 125315658.006 7  97648532.36443  23846799.816    23846805.1284
        42.500          23.2004
 116904294.188 7  91094233.37145  22246156.279    22246156.0824
        46.000          33.2004
 113588676.746 7  88510732.23945  21615168.179    21615161.9444
        46.300          34.2004
 116208836.768 8  90552384.78945  22113775.019    22113766.9684
        49.500          35.5004
 12 10 28  1 31 30.0000000  0  9G11G06G22G18G03G30G16G14G19
 128459750.234 6 100098563.07643  24445061.638    24445065.0744
        41.500          18.6004
 106481628.112 8  82972699.01646  20262769.015    20262762.4294
        51.000          40.0004
 112684021.349 7  87805709.08946  21443050.262    21443040.9224
        47.600          38.9004
 128386661.098 6 100041525.72643  24431170.427    24431164.1344
        39.500          19.6004
 106567924.346 8  83039964.78346  20279181.584    20279176.3464
        49.800          41.3004
 125404302.829 7  97717606.15843  23863667.572    23863673.9394
        42.400          22.9004
 116967328.656 7  91143350.97945  22258151.669    22258152.0584
        46.300          33.8004
 113564539.710 7  88491924.25845  21610574.988    21610568.8714
        47.600          34.2004
 116133273.562 8  90493504.52745  22099395.554    22099387.9714
        48.800          35.9004
 12 10 28  1 32  0.0000000  0  9G11G06G22G18G03G30G16G14G19
 128387765.765 6 100042471.64643  24431362.186    24431367.0294
        40.200          19.3004
 106472948.406 8  82965935.65746  20261117.347    20261111.1124
        51.200          39.8004
 112747754.434 7  87855371.26846  21455177.326    21455169.0994
        47.500          38.7004
 128471611.996 6 100107721.24343  24447336.075    24447330.3094
        38.800          18.3004
 106540799.958 8  83018828.95246  20274020.022    20274013.8464
        50.000          41.0004
 125492879.381 6  97786626.76043  23880522.975    23880529.1074
        41.800          22.3004
 117030642.887 7  91192686.56945  22270199.913    22270200.0674
        46.400          33.6004
 113540877.045 7  88473485.91845  21606071.936    21606066.2294
        47.800          34.3004
 116057906.795 7  90434777.34446  22085053.670    22085045.5604
        46.800          36.1004
 12 10 28  1 32 30.0000000  0  9G11G06G22G18G03G30G16G14G19
 128315722.345 6  99986334.27143  24417654.672    24417658.5774
        38.400          18.6004
 106464734.369 8  82959535.15746  20259554.484    20259547.7814
        51.600          40.2004
 112811681.142 8  87905184.31846  21467343.065    21467333.4314
        48.800          38.0004
 128556509.507 6 100173875.17143  24463491.014    24463485.5424
        39.000          19.0004
 106514187.124 8  82998091.73046  20268955.464    20268949.8154
        49.700          41.5004
 125581384.205 6  97855591.46443  23897364.927    23897371.3524
        41.600          22.6004
 117094233.322 7  91242237.38945  22282301.505    22282301.6014
        46.700          33.3004
 113517689.736 7  88455417.99145  21601660.040    21601653.7474
        47.600          34.5004
 115982737.858 7  90376204.30645  22070749.588    22070741.5364
        46.600          35.7004
 12 10 28  1 33  0.0000000  0  9G11G06G22G18G03G30G16G14G19
 128243619.893 6  99930150.95242  24403932.542    24403936.5644
        38.300          17.8004
 106456986.637 8  82953498.01646  20258080.243    20258073.3054
        51.100          39.9004
 112875798.832 8  87955146.18946  21479543.853    21479534.6304
        48.800          38.6004
 128641351.701 6 100239985.94943  24479635.823    24479630.5264
        39.400          19.9004
 106488086.761 8  82977753.84046  20263989.044    20263982.6934
        50.000          41.2004
 125669814.278 7  97924497.91243  23914192.633    23914198.4724
        42.200          22.8004
 117158096.798 7  91292000.97145  22294454.436    22294454.8254
        46.300          33.5004
 113494978.815 8  88437721.25345  21597338.011    21597331.6014
        48.100          34.8004
 115907768.724 7  90317786.95645  22056483.279    22056475.1694
        46.900          35.6004
 12 10 28  1 33 30.0000000  0  9G11G06G22G18G03G30G16G14G19
 128171459.168 6  99873922.19842  24390199.781    24390203.3354
        38.700          16.9004
 106449706.786 8  82947825.45846  20256694.729    20256687.8504
        50.800          40.1004
 112940105.623 8  88005255.40146  21491781.148    21491771.8074
        48.100          38.5004
 128726137.008 6 100306052.40843  24495771.024    24495764.7904
        40.400          19.3004
 106462500.926 8  82957816.88446  20259120.035    20259114.0354
        49.600          40.8004
 125758167.281 6  97993344.31043  23931005.349    23931011.6574
        41.800          22.8004
 117222230.179 7  91341974.86345  22306658.540    22306658.4014
        46.400          34.5004
 113472746.380 8  88420397.37745  21593107.490    21593101.3144
        48.100          35.5004
 115833002.045 7  90259527.37246  22042255.320    22042247.6794
        47.300          36.1004
 12 10 28  1 34  0.0000000  0  9G11G06G22G18G03G30G16G14G19
 128099240.254 6  99817648.07343  24376457.348    24376460.3164
        39.400          18.3004
 106442895.877 8  82942518.30146  20255398.665    20255391.7854
        50.700          39.7004
 113004599.373 8  88055510.30146  21504054.089    21504044.4554
        48.100          38.8004
 128810864.121 6 100372073.56343  24511893.766    24511887.3564
        39.600          20.4004
 106437430.728 8  82938281.72346  20254348.977    20254343.2704
        49.900          40.9004
 125846440.642 7  98062128.64843  23947803.655    23947809.3774
        42.100          22.8004
 117286630.772 7  91392156.96945  22318913.653    22318914.0424
        46.400          34.3004
 113450994.234 8  88403447.74745  21588968.055    21588961.5274
        48.300          35.0004
 115758440.446 8  90201427.57846  22028066.572    22028058.5794
        48.100          36.4004
 12 10 28  1 34 30.0000000  0  9G11G06G22G18G03G30G16G14G19
 128026964.151 6  99761329.51342  24362703.734    24362706.2924
        40.800          17.4004
 106436555.464 8  82937577.76246  20254192.089    20254185.5034
        51.000          40.1004
 113069278.445 8  88105909.60846  21516362.148    21516352.6904
        48.600          38.5004
 128895532.340 6 100438048.79843  24528005.192    24527999.0754
        40.900          20.6004
 106412878.409 8  82919150.09446  20249677.211    20249670.9184
        49.600          41.2004
 125934632.146 6  98130849.19443  23964585.768    23964591.7244
        40.600          22.8004
 117351296.531 7  91442545.68645  22331219.183    22331219.2794
        46.100          34.0004
 113429724.445 7  88386873.99245  21584920.437    21584914.1444
        47.700          34.0004
 115684086.903 8  90143489.91446  22013917.546    22013909.7874
        49.800          36.1004
 12 10 28  1 35  0.0000000  0  9G11G06G22G18G03G30G16G14G19
 127954630.715 6  99704966.17243  24348937.563    24348941.7034
        41.000          19.9004
 106430686.174 8  82933004.32646  20253075.042    20253068.6914
        50.200          40.4004
 113134140.245 8  88156451.30146  21528704.796    21528694.7524
        48.600          38.1004
 128980139.924 6 100503976.82643  24544105.893    24544099.6004
        41.300          21.1004
 106388844.740 8  82900422.61246  20245103.785    20245097.6684
        50.300          41.3004
 126022739.162 6  98199503.93243  23981352.222    23981358.8824
        41.600          22.6004
 117416224.060 7  91493138.40245  22343575.017    22343575.2884
        46.300          33.1004
 113408938.324 7  88370677.12245  21580964.812    21580958.3434
        47.200          34.7004
 115609943.273 8  90085715.81946  21999807.836    21999800.3124
        49.600          36.8004
 12 10 28  1 35 30.0000000  0  9G11G06G22G18G03G30G16G14G19
 127882239.759 6  99648558.05143  24335162.018    24335165.9824
        40.700          19.3004
 106425288.607 8  82928798.46146  20252047.601    20252041.4844
        51.000          40.5004
 113199181.950 8  88207133.17546  21541081.553    21541072.3294
        48.200          37.9004
 129064685.063 7 100569856.16143  24560194.915    24560188.6814
        42.500          21.8004
 106365331.130 8  82882100.37246  20240628.753    20240623.3394
        49.100          41.2004
 126110758.232 6  98268090.14543  23998101.732    23998107.8654
        41.300          22.3004
 117481409.632 7  91543932.16945  22355979.008    22355979.1624
        45.900          32.5004
 113388636.790 7  88354857.85445  21577101.421    21577094.8944
        47.800          34.7004
 115536012.039 8  90028107.22246  21985739.447    21985731.9234
        48.600          36.8004
 12 10 28  1 36  0.0000000  0  9G11G06G22G18G03G30G16G14G19
 127809791.582 6  99592105.39243  24321375.278    24321379.1254
        40.600          18.3004
 106420363.822 8  82924960.99746  20251110.539    20251103.9534
        50.300          39.3004
 113264401.352 8  88257953.51446  21553492.251    21553482.8524
        49.000          38.2004
 129149166.446 7 100635685.82943  24576271.498    24576264.3844
        42.700          21.7004
 106342338.110 8  82864183.78746  20236253.214    20236247.7414
        50.000          41.5004
 126198687.046 6  98336605.98743  24014834.323    24014841.1004
        40.400          21.8004
 117546850.422 7  91594924.80845  22368432.325    22368432.9474
        46.200          33.3004
 113368821.472 8  88339417.47645  21573330.765    21573324.3554
        49.300          35.2004
 115462295.342 7  89970665.79246  21971711.682    21971703.8064
        47.600          36.3004
 12 10 28  1 36 30.0000000  0  9G11G06G22G18G03G30G16G14G19
 127737287.164 6  99535608.88543  24307578.823    24307581.7324
        38.900          18.6004
 106415913.368 8  82921493.15046  20250263.874    20250257.1134
        50.800          40.4004
 113329796.995 8  88308911.18746  21565936.653    21565927.0774
        49.400          38.0004
 129233583.233 6 100701465.17443  24592335.357    24592327.8334
        41.400          20.4004
 106319867.942 8  82846674.61646  20231977.698    20231971.4634
        50.300          41.2004
 126286523.412 6  98405049.81843  24031548.878    24031555.3034
        40.800          22.2004
 117612544.622 7  91646114.90645  22380934.155    22380934.3684
        47.300          33.1004
 113349494.543 8  88324357.65645  21569652.813    21569646.2854
        49.500          34.7004
 115388796.026 7  89913393.74146  21957724.952    21957716.9604
        47.200          36.2004
 12 10 28  1 37  0.0000000  0  9G11G06G22G18G03G30G16G14G19
 127664726.694 6  99479068.68943  24293769.751    24293772.8364
        37.200          18.6004
 106411937.954 8  82918395.46146  20249507.592    20249500.8894
        50.500          40.2004
 113395366.476 8  88360004.32546  21578414.342    21578405.2354
        49.000          38.3004
 129317934.106 6 100767193.13243  24608386.326    24608379.3884
        41.500          21.8004
 106297921.802 8  82829573.77646  20227801.465    20227795.1134
        50.400          41.3004
 126374264.728 6  98473419.59943  24048244.941    24048252.3044
        40.200          22.6004
 117678488.626 7  91697499.65845  22393482.036    22393483.0694
        46.600          32.3004
 113330657.397 8  88309679.49345  21566068.017    21566061.8994
        48.500          34.4004
 115315516.412 7  89856292.90546  21943779.771    21943771.8954
        45.900          36.3004
 12 10 28  1 37 30.0000000  0  9G11G06G22G18G03G30G16G14G19
 127592111.031 6  99422485.51343  24279951.673    24279953.2344
        38.400          20.1004
 106408439.143 8  82915669.15446  20248841.395    20248835.3954
        50.900          40.3004
 113461108.404 8  88411231.82446  21590924.477    21590914.9014
        48.600          37.9004
 129402217.952 7 100832868.88543  24624424.171    24624418.2884
        42.200          20.4004
 106276501.570 8  82812882.73946  20223725.284    20223718.6984
        50.800          40.7004
 126461908.961 6  98541713.69843  24064924.140    24064930.5654
        40.600          22.0004
 117744679.925 7  91749077.11045  22406078.222    22406079.0804
        45.600          32.5004
 113312312.033 8  88295384.53345  21562576.759    21562570.5244
        48.900          34.2004
 115242459.496 7  89799365.58546  21929877.376    21929869.9114
        45.900          36.8004
 12 10 28  1 38  0.0000000  0 10G11G06G22G21G18G03G30G16G14G19
 127519443.914 6  99365862.24243  24266121.944    24266124.5594
        38.400          18.6004
 106405421.177 8  82913317.52746  20248267.066    20248260.5974
        51.000          39.7004
 113527023.401 7  88462594.19846  21603468.042    21603458.4674
        47.800          38.1004
 130161852.031 5                  24768979.147
        32.000
 129486436.578 7 100898493.82343  24640450.978    24640444.3924
        43.000          21.3004
 106255611.608 8  82796604.89746  20219749.837    20219743.6614
        51.900          40.7004
 126549456.850 6  98609932.75143  24081583.907    24081590.3914
        40.900          22.2004
 117811119.219 7  91800847.80045  22418721.919    22418722.0144
        45.800          33.0004
 113294463.323 8  88281476.59745  21559180.271    21559173.5094
        49.300          34.3004
 115169631.297 8  89742616.48446  21916018.563    21916010.9224
        48.500          37.2004
 12 10 28  1 38 30.0000000  0 10G11G06G22G21G18G03G30G16G14G19
 127446717.076 6  99309192.43943  24252283.227    24252285.9604
        39.300          20.6004
 106402876.351 8  82911334.57846  20247782.744    20247775.9824
        50.100          40.0004
 113593101.109 7  88514083.36146  21616042.276    21616032.5254
        47.900          37.9004
 130200843.629 5                  24776399.489
        31.800
 129570580.480 7 100964060.52643  24656463.532    24656456.4774
        42.600          21.3004
 106235244.838 8  82780734.73846  20215874.398    20215868.1054
        51.500          41.1004
 126636897.237 6  98678068.05543  24098223.657    24098230.1414
        40.900          22.5004
 117877794.787 7  91852802.58345  22431409.814    22431410.0264
        46.000          33.4004
 113277104.034 8  88267950.01845  21555876.881    21555870.1774
        48.600          34.0004
 115097025.422 8  89686040.61746  21902201.722    21902194.5504
        48.100          37.3004
 12 10 28  1 39  0.0000000  0 10G11G06G22G21G18G03G30G16G14G19
 127373934.675 6  99252479.35143  24238433.889    24238435.3924
        39.000          21.3004
 106400809.522 8  82909724.08846  20247389.582    20247382.6454
        50.900          39.8004
 113659343.159 8  88565700.57646  21628646.995    21628637.5374
        48.600          37.8004
 130239913.446 5                  24783834.058
        31.600
 129654652.259 7 101029571.01843  24672461.551    24672454.8484
        42.000          20.6004
 106215406.266 8  82765276.15746  20212099.418    20212092.7144
        51.500          41.3004
 126724231.584 6  98746120.72643  24114842.779    24114849.3814
        40.500          22.6004
 117944707.844 7  91904942.43545  22444143.632    22444143.5524
        47.200          33.5004
 113260239.527 7  88254808.98045  21552667.508    21552660.7464
        47.600          34.0004
 115024648.397 7  89629643.05646  21888429.028    21888421.7974
        47.600          37.0004
 12 10 28  1 39 30.0000000  0 10G11G06G22G21G18G03G30G16G14G19
 127301099.388 6  99195724.97143  24224572.119    24224574.1484
        37.600          20.6004
 106399223.742 8  82908488.44546  20247088.041    20247081.3964
        51.600          40.3004
 113725749.237 8  88617445.61846  21641283.777    21641274.4364
        49.300          38.2004
 130279064.530 4                  24791282.496
        28.000
 129738652.480 6 101095025.76643  24688446.507    24688438.6314
        41.200          19.6004
 106196099.322 8  82750231.82746  20208425.476    20208418.7734
        51.900          41.1004
 126811459.498 6  98814090.44944  24131441.374    24131447.7994
        40.700          24.5004
 118011857.502 8  91957266.65645  22456922.004    22456922.3934
        48.400          33.0004
 113243873.440 8  88242056.30645  21549553.609    21549546.8474
        48.600          34.9004
 114952504.587 8  89573427.23246  21874700.549    21874692.9084
        48.100          37.1004
 12 10 28  1 40  0.0000000  0 10G11G06G22G21G18G03G30G16G14G19
 127228209.842 6  99138928.32643  24210701.480    24210704.0374
        41.000          20.4004
 106398117.917 8  82907626.79746  20246877.221    20246870.8694
        48.700          40.1004
 113792315.547 8  88669315.50646  21653950.927    21653942.1734
        48.800          37.9004
 130318296.183 5                  24798749.938
        34.600
 129822578.123 6 101160422.40143  24704416.251    24704409.9004
        41.300          19.3004
 106177323.235 9  82735601.16346  20204852.239    20204845.7704
        54.000          41.2004
 126898576.740 6  98881973.94243  24148018.804    24148026.3434
        40.200          22.0004
 118079238.776 7  92009771.33645  22469743.842    22469744.4654
        47.800          33.6004
 113228005.253 8  88229691.61045  21546533.264    21546526.4434
        49.100          34.8004
 114880594.938 8  89517393.87146  21861016.894    21861008.9604
        49.200          37.6004
 12 10 28  1 40 30.0000000  0 11G11G06G22G21G18G01G03G30G16G14G19
 127155266.066 6  99082089.45843  24196820.294    24196823.2034
        40.400          19.6004
 106397492.585 8  82907139.55446  20246758.071    20246751.4854
        49.100          39.7004
 113859039.748 8  88721308.42146  21666648.132    21666638.7334
        49.000          38.2004
 130357609.229 5                  24806231.589
        34.100
 129906427.731 6 101225759.79042  24720371.642    24720366.1114
        40.100          17.8004
                                  25172822.148
        31.900
 106159078.505 8  82721384.54146  20201380.153    20201373.3324
        52.600          40.5004
 126985580.431 6  98949768.96643  24164575.290    24164582.4774
        41.500          21.3004
 118146848.518 7  92062454.05145  22482609.613    22482610.2364
        47.300          32.2004
 113212636.174 8  88217715.81145  21543608.612    21543601.9674
        49.600          34.9004
 114808921.547 8  89461544.59146  21847378.213    21847369.6344
        50.200          36.6004
 12 10 28  1 41  0.0000000  0 11G11G06G22G21G18G01G03G30G16G14G19
 127082264.785 6  99025205.74743  24182928.427    24182931.2194
        41.100          21.5004
 106397345.107 8  82907024.67246  20246730.048    20246723.1694
        49.800          39.6004
 113925916.240 8  88773420.01646  21679374.019    21679365.1484
        49.600          38.0004
 130397001.217 5                  24813726.982
        33.300
 129990196.331 6 101291034.04242  24736312.596    24736306.3614
        38.800          17.8004
 132231576.194 5                  25162832.349
        35.500
 106141363.178 8  82707580.43646  20198009.082    20198002.5554
        52.800          40.7004
 127072464.517 6  99017470.80043  24181108.804    24181115.9914
        40.900          22.6004
 118214680.465 7  92115309.91345  22495517.272    22495518.0124
        47.800          32.9004
 113197763.986 8  88206127.18345  21540778.530    21540771.8274
        48.700          35.2004
 114737483.349 8  89405878.58546  21833783.533    21833775.4824
        49.900          37.4004
 12 10 28  1 41 30.0000000  0 11G11G06G22G21G18G01G03G30G16G14G19
 127009214.914 6  98968284.25143  24169027.439    24169028.7664
        40.200          20.1004
 106397684.626 8  82907289.26246  20246795.023    20246788.0264
        49.200          39.4004
 113992950.812 8  88825654.78646  21692130.678    21692120.9864
        49.500          37.9004
 130436481.453 5                  24821239.550
        32.400
 130073891.566 6 101356251.16643  24752237.385    24752233.1444
        37.300          18.3004
 132179012.060 5                  25152829.689
        35.000
 106124186.860 8  82694196.34646  20194740.436    20194734.1434
        52.000          40.4004
 127159234.876 6  99085083.98243  24197620.515    24197628.4064
        41.000          22.0004
 118282739.871 8  92168343.01345  22508468.959    22508470.2854
        48.300          33.2004
 113183398.338 8  88194933.25245  21538045.166    21538038.0524
        49.600          35.1004
 114666290.809 8  89350404.01146  21820235.914    21820227.5694
        49.700          37.0004
 12 10 28  1 42  0.0000000  0 11G11G06G22G21G18G01G03G30G16G14G19
 126936112.532 6  98911321.81743  24155115.094    24155117.7694
        39.900          20.4004
 106398507.694 8  82907930.63546  20246951.254    20246944.5504
        48.000          40.5004
 114060137.275 8  88878007.90246  21704915.624    21704906.6354
        49.800          37.6004
 130476047.334 4                  24828767.254
        28.600
 130157507.279 6 101421406.26642  24768150.853    24768144.6184
        39.200          17.8004
 132126378.982 6 102955661.38543  25142813.982    25142824.0414
        38.500          19.9004
 106107546.294 8  82681229.72646  20191573.625    20191567.6844
        52.600          41.2004
 127245884.978 6  99152603.48743  24214109.963    24214116.9164
        40.700          22.6004
 118351019.336 7  92221547.60045  22521462.746    22521463.3104
        47.400          32.3004
 113169536.060 8  88184131.55445  21535406.890    21535400.4804
        49.100          35.3004
 114595342.547 8  89295119.77546  21806734.313    21806726.0854
        49.600          36.8004
 12 10 28  1 42 30.0000000  0 11G11G06G22G21G18G01G03G30G16G14G19
 126862958.277 6  98854318.91543  24141194.533    24141196.2694
        40.500          21.1004
 106399815.118 8  82908949.43846  20247200.314    20247193.3174
        50.200          39.7004
 114127473.536 8  88930477.75846  21717729.473    21717719.7804
        50.000          37.6004
 130515699.134 4                  24836314.090
        29.400
 130241042.330 6 101486498.52442  24784046.474    24784041.1774
        38.600          17.4004
 132073676.050 5 102914594.70343  25132782.116    25132794.9884
        35.500          18.6004
 106091442.244 8  82668681.16446  20188509.094    20188502.6254
        52.000          41.0004
 127332412.195 7  99220027.19843  24230576.294    24230582.2514
        42.400          22.5004
 118419516.016 7  92274921.41545  22534497.322    22534498.2974
        47.100          33.2004
 113156178.918 8  88173723.46145  21532865.050    21532858.1134
        48.800          35.5004
 114524640.972 8  89240027.76046  21793280.313    21793271.8514
        49.700          36.5004
 12 10 28  1 43  0.0000000  0 10G11G06G22G18G01G03G30G16G14G19
 126789752.842 6  98797276.23943  24127264.678    24127265.5364
        39.700          20.4004
 106401607.734 8  82910346.30846  20247541.317    20247534.6724
        50.900          39.8004
 114194958.296 7  88983063.32746  21730571.337    21730561.7034
        47.300          37.1004
 130324495.924 6 101551527.34743  24799928.429    24799922.1364
        39.700          18.3004
                 102873424.83742  25122739.008
        32.000          16.9004
 106075876.432 8  82656552.01346  20185547.289    20185540.9964
        53.000          41.0004
 127418814.435 7  99287353.56843  24247017.692    24247024.7044
        42.100          22.3004
 118488227.261 7  92328462.44645  22547572.700    22547573.7924
        45.200          31.6004
 113143328.270 8  88163710.04045  21530419.449    21530412.9814
        48.200          35.1004
 114454188.646 8  89185129.95646  21779874.088    21779865.0404
        50.200          37.2004
 12 10 28  1 43 30.0000000  0 10G11G06G22G18G01G03G30G16G14G19
 126716491.954 6  98740190.24843  24113321.680    24113323.3584
        38.900          19.3004
 106403881.681 8  82912118.22746  20247974.238    20247967.1834
        50.300          39.6004
 114262584.373 8  89035759.01346  21743440.267    21743430.6914
        48.500          38.0004
 130407861.925 6 101616487.85842  24815792.843    24815785.6714
        40.800          17.4004
 131968043.218 5 102832296.92642  25112681.994    25112694.9834
        35.200          16.9004
 106060844.753 8  82644839.07246  20182686.743    20182680.2744
        52.300          41.2004
 127505084.525 6  99354576.94243  24263435.081    24263441.2144
        41.600          21.7004
 118557145.338 7  92382164.65745  22560687.025    22560688.4684
        46.500          31.9004
 113130980.605 7  88154088.54545  21528069.773    21528062.6604
        47.900          34.0004
 114383983.367 8  89130424.66846  21766514.257    21766506.0304
        49.300          37.4004
 12 10 28  1 44  0.0000000  0 10G11G06G22G18G01G03G30G16G14G19
 126643184.159 6  98683067.71643  24099371.751    24099373.6054
        37.700          19.6004
 106406646.011 8  82914272.27746  20248500.011    20248493.4844
        50.800          39.6004
 114330357.345 7  89088569.14646  21756336.826    21756327.3684
        47.500          37.6004
 130491147.553 6 101681385.82243  24831640.684    24831633.7464
        40.900          19.6004
 131915126.781 6 102791063.82443  25102613.688    25102623.8654
        37.900          18.3004
 106046356.764 8  82633549.78446  20179929.517    20179923.2834
        52.000          41.3004
 127591228.312 6  99421701.92943  24279826.900    24279833.5604
        41.400          21.5004
 118626275.873 7  92436032.40545  22573842.686    22573843.4854
        45.000          32.3004
 113119145.471 7  88144866.42945  21525817.087    21525810.8534
        47.000          34.4004
 114314035.764 8  89075920.17146  21753203.405    21753195.0604
        48.400          37.3004
 12 10 28  1 44 30.0000000  0 10G11G06G22G18G01G03G30G16G14G19
 126569825.482 6  98625905.59343  24085409.946    24085414.6134
        37.100          20.1004
 106409896.622 8  82916805.23946  20249118.833    20249111.8374
        50.700          40.0004
 114398270.595 8  89141488.59546  21769260.338    21769250.1774
        49.800          37.5004
 130574347.152 6 101746216.68742  24847473.350    24847466.5884
        40.900          16.9004
 131862137.217 6 102749773.78442  25092529.626    25092540.5064
        36.100          17.4004
 106032408.794 8  82622681.29146  20177275.487    20177268.7254
        52.500          41.3004
 127677238.703 6  99488722.99043  24296194.122    24296201.3104
        41.600          21.7004
 118695610.745 7  92490059.38645  22587036.981    22587038.0734
        47.300          32.1004
 113107819.192 7  88136040.83945  21523661.749    21523655.5734
        46.500          34.8004
 114244343.748 7  89021614.82546  21739941.016    21739932.9064
        46.900          37.9004
 12 10 28  1 45  0.0000000  0 10G11G06G22G18G01G03G30G16G14G19
 126496416.792 6  98568704.45943  24071442.889    24071443.2194
        37.900          20.1004
 106413634.731 8  82919718.06846  20249829.999    20249823.2954
        49.700          40.2004
 114466322.805 7  89194516.32446  21782210.475    21782200.1384
        47.200          37.3004
 130657459.822 6 101810979.87542  24863289.133    24863281.5514
        40.800          17.4004
 131809074.510 5 102708426.76443  25082431.231    25082443.5184
        35.800          18.6004
 106019002.027 8  82612234.51846  20174724.185    20174717.3644
        51.300          40.8004
 127763114.054 7  99555638.80443  24312535.502    24312542.2794
        42.100          21.3004
 118765147.919 7  92544244.00045  22600269.153    22600270.8904
        45.000          31.4004
 113097003.631 7  88127613.19945  21521604.502    21521597.0374
        46.300          35.1004
 114174910.414 7  88967511.04646  21726728.377    21726720.5024
        46.800          37.4004
 12 10 28  1 45 30.0000000  0 10G11G06G22G18G01G03G30G16G14G19
 126422959.383 6  98511465.41443  24057463.572    24057464.5474
        38.700          20.6004
 106417861.405 8  82923011.60346  20250634.480    20250627.3664
        50.200          39.9004
 114534512.391 8  89247651.08546  21795186.093    21795176.5774
        49.000          37.3004
 130740484.829 6 101875674.73542  24879088.412    24879080.8884
        40.800          16.9004
 131755938.603 6 102667022.64943  25072319.129    25072331.8854
        37.000          19.9004
 106006138.215 8  82602210.81846  20172276.135    20172269.3144
        51.600          40.8004
 127848852.144 6  99622447.68343  24328851.284    24328858.0034
        40.700          21.7004
 118834884.635 7  92598584.10745  22613539.674    22613541.0594
        47.200          32.1004
 113086700.399 7  88119584.79145  21519642.958    21519636.1964
        45.800          34.7004
 114105738.716 7  88913611.13546  21713565.162    21713556.5244
        47.600          37.6004
 12 10 28  1 46  0.0000000  0 10G11G06G22G18G01G03G30G16G14G19
 126349453.502 6  98454188.60143  24043475.544    24043476.4604
        39.700          19.3004
 106422577.530 8  82926686.53246  20251531.690    20251524.8694
        50.300          39.7004
 114602837.261 7  89300891.26546  21808187.854    21808178.3964
        47.900          36.8004
 130823421.308 6 101940300.57842  24894870.554    24894863.5584
        41.800          17.8004
 131702728.760 6 102625560.91143  25062194.789    25062205.9044
        36.500          19.9004
 105993817.968 8  82592610.67646  20169931.797    20169925.3284
        52.100          41.2004
 127934450.949 6  99689148.00943  24345140.740    24345146.8144
        40.900          21.7004
 118904817.875 7  92653077.34745  22626847.871    22626849.6664
        45.700          30.9004
 113076910.760 7  88111956.59845  21517780.427    21517773.6654
        47.400          34.7004
 114036831.365 7  88859917.21346  21700452.833    21700444.7234
        47.600          37.0004
 12 10 28  1 46 30.0000000  0 10G11G06G22G18G01G03G30G16G14G19
 126275898.947 6  98396873.84143  24029478.575    24029477.9684
        38.400          19.9004
 106427782.959 8  82930742.73346  20252522.049    20252515.3464
        50.800          40.1004
 114671294.683 8  89354234.73846  21821214.861    21821205.4034
        49.100          37.3004
 130906267.098 6 102004855.80443  24910635.470    24910628.5914
        41.300          18.3004
 131649443.770 5 102584040.63042  25052051.471    25052062.9954
        33.000          16.3004
 105982041.778 8  82583434.47446  20167690.553    20167684.2014
        52.300          41.6004
 128019907.206 7  99755737.29043  24361402.239    24361408.4894
        42.100          22.5004
 118974944.294 7  92707721.12245  22640192.601    22640194.2214
        47.800          30.9004
 113067635.155 8  88104728.96245  21516015.157    21516008.2194
        48.800          34.8004
 113968189.811 8  88806430.40446  21687390.610    21687381.7964
        49.700          37.2004
 12 10 28  1 47  0.0000000  0 10G11G06G22G18G01G03G30G16G14G19
 126202296.615 6  98339521.83243  24015471.352    24015472.0334
        39.400          19.0004
 106433478.324 8  82935180.70946  20253606.030    20253599.4444
        49.900          40.2004
 114739882.680 7  89407679.94746  21834266.749    21834257.8194
        47.100          36.8004
 130989021.096 6 102069339.51343  24926382.960    24926376.6094
        40.500          18.3004
 131596083.227 5 102542461.51243  25041896.182    25041908.2344
        35.000          18.3004
 105970810.775 8  82574683.09746  20165553.518    20165546.7564
        51.100          40.6004
 128105218.843 6  99822213.86943  24377636.587    24377642.7784
        40.900          21.3004
 119045261.100 7  92762513.25545  22653573.871    22653575.1384
        45.500          31.9004
 113058874.971 7  88097902.95245  21514347.920    21514341.2164
        47.300          34.7004
 113899816.644 8  88753152.73846  21674379.131    21674370.9624
        48.500          38.3004
 12 10 28  1 47 30.0000000  0 11G11G06G22G21G18G01G03G30G16G14G19
 126128650.485 6  98282135.70043  24001457.591    24001458.0974
        41.600          20.1004
 106439667.686 8  82940003.60646  20254783.926    20254776.9294
        50.000          39.8004
 114808602.600 7  89461227.95446  21847343.866    21847334.5844
        47.100          36.7004
 130917191.474 5                  24912714.158
        30.500
 131071685.921 6 102133753.71242  24942113.880    24942106.0634
        40.200          17.4004
 131542649.998 6 102500825.77943  25031731.656    25031740.4844
        38.400          19.0004
 105960129.182 8  82566359.81746  20163520.773    20163514.2454
        50.300          41.3004
 128190386.909 6  99888578.54543  24393843.517    24393850.0604
        41.500          20.9004
 119115768.424 7  92817453.83345  22666991.837    22666992.8124
        45.200          31.8004
 113050634.268 7  88091481.73545  21512779.607    21512773.0214
        45.600          35.5004
 113831717.896 8  88700088.88846  21661420.727    21661411.9724
        48.100          37.2004
 12 10 28  1 48  0.0000000  0 11G11G06G22G21G18G01G03G30G16G14G19
 126054955.035 6  98224711.13243  23987431.924    23987433.4854
        41.100          21.3004
 106446345.491 8  82945207.11746  20256054.424    20256047.4864
        49.800          39.7004
 114877446.219 7  89514872.35246  21860443.913    21860434.3974
        46.900          36.8004
 130957859.887 5                  24920454.113
        31.900
 131154254.531 6 102198092.91842  24957825.319    24957818.1474
        38.300          16.3004
 131489137.415 6 102459128.15343  25021549.138    25021558.2014
        38.700          19.0004
 105949991.669 8  82558460.51046  20161591.543    20161584.8984
        51.100          40.7004
 128275403.034 6  99954824.87543  24410021.563    24410028.1064
        41.800          21.8004
 119186457.492 7  92872536.04645  22680442.691    22680444.3694
        45.000          31.9004
 113042908.332 7  88085461.64345  21511309.466    21511302.4694
        47.600          34.9004
 113763890.315 7  88647236.34446  21648513.435    21648504.9144
        47.000          37.6004
 12 10 28  1 48 30.0000000  0 11G11G06G22G21G18G01G03G30G16G14G19
 125981212.274 6  98167249.70843  23973400.720    23973400.2294
        41.200          21.3004
 106453513.788 8  82950792.82946  20257418.179    20257411.9454
        49.300          40.0004
 114946413.014 7  89568612.72646  21873567.779    21873558.0864
        47.700          37.1004
 130998633.136 5                  24928212.604
        33.100
 131236727.057 6 102262357.27042  24973519.781    24973511.2614
        38.400          16.3004
 131435546.450 5 102417369.44843  25011347.853    25011359.7294
        35.500          20.4004
 105940400.671 8  82550987.04846  20159766.301    20159759.8324
        49.500          40.6004
 128360266.254 6 100020952.02843  24426170.213    24426176.8144
        40.600          21.7004
 119257326.730 7  92927758.64845  22693929.032    22693930.2414
        47.400          31.0004
 113035699.496 7  88079844.49045  21509937.272    21509930.3934
        46.000          34.9004
 113696337.339 7  88594597.76346  21635658.541    21635649.6694
        47.300          37.2004
 12 10 28  1 49  0.0000000  0 11G11G06G22G21G18G01G03G30G16G14G19
 125907423.765 6  98109752.62843  23959355.954    23959357.6324
        39.800          20.1004
 106461174.531 8  82956762.27346  20258875.967    20258869.6744
        48.600          39.6004
 115015502.570 7  89622448.76846  21886715.219    21886705.2924
        47.300          36.6004
 131039501.383 4                  24935988.910
        29.400
 131319103.801 6 102326547.00242  24989195.818    24989187.7084
        38.100          16.9004
 131381877.863 5 102375550.29043  25001132.998    25001146.3394
        33.100          19.0004
 105931358.075 8  82543940.91646  20158045.905    20158038.9094
        51.500          40.5004
 128444975.908 6 100086959.53043  24442289.255    24442296.5014
        39.000          20.4004
 119328374.762 7  92983120.56145  22707448.477    22707451.1524
        47.000          30.9004
 113029010.353 7  88074632.29645  21508664.736    21508657.6224
        46.400          35.2004
 113629063.080 7  88542176.37646  21622855.737    21622847.5094
        46.000          37.1004
 12 10 28  1 49 30.0000000  0 11G11G06G22G21G18G01G03G30G16G14G19
 125833585.794 7  98052217.01843  23945306.979    23945306.6644
        42.300          21.1004
 106469323.360 8  82963112.02946  20260426.982    20260420.0444
        49.300          40.3004
 115084707.904 7  89676375.02945  21899884.421    21899875.0814
        47.600          35.9004
                                  24943783.306
        30.300
 131401378.993 6 102390657.56742  25004851.998    25004844.7094
        36.900          16.9004
 131328126.333 6 102333666.55143  24990908.257    24990917.2024
        37.200          18.6004
 105922859.816 8  82537318.94846  20156428.597    20156422.0114
        51.500          41.2004
 128529524.696 6 100152841.70543  24458377.817    24458385.6494
        38.500          20.1004
 119399593.440 7  93038615.46045  22721000.940    22721003.6734
        47.400          31.6004
 113022836.882 7  88069821.92245  21507489.732    21507482.5024
        46.800          35.4004
 113562065.018 7  88489970.19646  21610106.874    21610098.7064
        47.200          38.2004
 12 10 28  1 50  0.0000000  0 11G11G06G22G21G18G01G03G30G16G14G19
 125759712.268 6  97994653.69343  23931248.995    23931249.0904
        41.900          20.9004
 106477974.264 8  82969853.02746  20262073.308    20262066.1364
        49.100          39.8004
 115154040.323 7  89730400.31345  21913078.262    21913068.2764
        47.800          35.7004
 131121535.739 4                  24951600.370
        29.900
 131483564.907 6 102454698.62942  25020491.393    25020484.1624
        36.400          15.6004
 131274305.029 6 102291728.36042  24980663.206    24980672.9134
        37.500          17.4004
 105914920.346 8  82531132.39346  20154917.863    20154910.7494
        49.600          40.9004
 128613924.020 6 100218607.39743  24474439.560    24474446.2794
        39.200          20.6004
 119470993.609 7  93094251.78045  22734588.592    22734590.9734
        46.500          30.6004
 113017193.642 7  88065424.70745  21506415.414    21506408.4774
        45.600          35.1004
 113495359.265 7  88437991.80546  21597413.128    21597404.9594
        47.200          37.6004
 12 10 28  1 50 30.0000000  0 11G11G06G22G21G18G01G03G30G16G14G19
 125685790.161 7  97937052.48743  23917182.828    23917181.4584
        42.000          22.0004
 106487114.065 8  82976974.97746  20263812.350    20263805.2954
        50.200          39.6004
 115223484.274 8  89784512.50145  21926293.013    21926283.0874
        48.200          35.7004
 131162703.433 5                  24959435.419
        30.500
 131565646.892 6 102518658.63142  25036110.882    25036103.9444
        36.100          15.6004
 131220399.508 6 102249724.59743  24970407.300    24970414.3704
        38.400          18.3004
 105907526.656 8  82525371.13446  20153510.774    20153503.9534
        49.700          41.3004
 128698157.806 6 100284244.06343  24490468.378    24490474.9794
        38.500          19.9004
 119542558.430 7  93150016.39445  22748207.136    22748208.9904
        47.000          30.4004
 113012067.863 7  88061430.70345  21505440.117    21505433.4724
        47.400          35.2004
 113428934.685 7  88386232.48946  21584772.481    21584764.5474
        46.900          37.8004
 12 10 28  1 51  0.0000000  0 11G11G06G22G21G18G01G03G30G16G14G19
 125611823.941 6  97879416.90843  23903106.203    23903106.4164
        41.700          20.4004
 106496747.069 8  82984481.24946  20265645.251    20265638.3714
        49.300          39.8004
 115293041.600 7  89838713.02645  21939529.370    21939519.1504
        46.900          35.9004
 131203980.877 5                  24967291.300
        34.100
 131647627.625 5 102582539.81042  25051711.548    25051703.9664
        35.600          15.6004
 131166413.089 6 102207657.85942  24960133.437    24960140.9174
        39.500          16.3004
 105900683.497 8  82520038.85646  20152208.394    20152201.8084
        51.000          41.0004
 128782227.622 6 100349753.02143  24506466.266    24506473.1614
        38.900          20.9004
 119614288.912 7  93205910.08845  22761857.208    22761859.2964
        44.600          30.9004
 113007464.382 7  88057843.67545  21504563.908    21504557.0294
        46.300          34.8004
 113362797.558 7  88334697.17046  21572187.167    21572178.7634
        47.200          37.6004
 12 10 28  1 51 30.0000000  0 11G11G06G22G21G18G01G03G30G16G14G19
 125537814.560 7  97821747.74643  23889022.630    23889021.7884
        43.300          22.0004
 106506873.987 8  82992372.37346  20267572.963    20267566.0254
        49.400          39.8004
 115362710.776 7  89893000.72245  21952786.582    21952776.8894
        47.300          35.9004
 131245363.245 5                  24975165.580
        32.000
 131729506.498 6 102646341.61042  25067292.456    25067284.5814
        38.100          16.9004
 131112345.954 6 102165528.09643  24949842.764    24949852.8824
        38.300          19.0004
 105894391.423 8  82515135.98946  20151010.937    20151004.3514
        51.200          40.3004
 128866131.908 6 100415132.97043  24522433.703    24522440.2464
        39.600          21.3004
 119686183.012 7  93261931.28345  22775537.855    22775539.8264
        45.000          30.5004
 113003384.465 7  88054664.61045  21503787.563    21503780.4504
        47.800          35.5004
 113296950.966 7  88283388.24846  21559657.112    21559648.4754
        47.500          38.0004
 12 10 28  1 52  0.0000000  0 11G11G06G22G21G18G01G03G30G16G14G19
 125463763.542 7  97764046.17543  23874929.549    23874929.9964
        42.100          22.6004
 106517496.125 8  83000649.39846  20269593.907    20269587.0284
        48.700          40.3004
 115432490.517 7  89947374.56245  21966065.369    21966055.8524
        46.800          35.0004
 131286852.725 5                  24983060.362
        32.900
 131811282.920 6 102710063.57842  25082853.556    25082845.9144
        37.500          16.3004
 131058198.159 6 102123335.58843  24939538.131    24939548.2494
        38.300          19.0004
 105888652.007 8  82510663.76146  20149918.725    20149912.0214
        50.500          40.7004
 128949869.094 6 100480382.71343  24538367.962    24538374.1524
        39.900          20.1004
 119758237.752 7  93318077.64745  22789250.643    22789252.0864
        45.400          31.9004
 112999829.607 7  88051894.67645  21503111.333    21503104.0444
        46.000          35.1004
 113231397.787 8  88232307.93846  21547183.090    21547174.2184
        48.800          38.9004
 12 10 28  1 52 30.0000000  0 11G11G06G22G21G18G01G03G30G16G14G19
 125389670.498 7  97706311.80343  23860831.625    23860829.9044
        43.600          22.0004
 106528612.868 8  83009311.81646  20271708.583    20271702.5244
        48.000          39.2004
 115502377.888 7  90001832.27445  21979364.181    21979354.7234
        46.600          35.3004
 131328448.351 5                  24990974.161
        31.500
 131892955.618 6 102773704.73442  25098395.023    25098388.6134
        38.700          16.3004
 131003968.373 6 102081079.08943  24929219.468    24929228.1794
        39.800          18.6004
 105883465.355 8  82506622.26346  20148932.161    20148925.2824
        49.900          40.5004
 129033435.941 6 100545499.75843  24554270.298    24554277.3684
        38.300          19.9004
 119830449.344 7  93374346.24145  22802991.869    22802993.4304
        45.700          31.1004
 112996799.842 7  88049533.90545  21502534.770    21502527.3054
        46.000          35.6004
 113166139.784 8  88181457.64346  21534764.955    21534755.5564
        48.500          38.2004
 12 10 28  1 53  0.0000000  0 11G11G06G22G21G18G01G03G30G16G14G19
 125315536.339 7  97648545.40443  23846724.187    23846722.2314
        43.400          22.3004
 106540224.605 8  83018359.94446  20273918.541    20273912.0134
        49.400          39.8004
 115572371.058 8  90056372.43845  21992683.506    21992673.9314
        48.000          35.4004
 131370157.858 5                  24998910.886
        32.400
 131974523.331 6 102837264.06742  25113917.454    25113910.2244
        36.000          14.8004
 130949655.966 6 102038758.35143  24918883.391    24918893.0994
        40.400          20.1004
 105878832.126 8  82503012.00946  20148050.244    20148043.2484
        50.000          40.5004
 129116830.359 6 100610482.42043  24570139.167    24570146.1204
        39.200          20.1004
 119902815.021 7  93430734.90145  22816762.934    22816764.5534
        45.400          30.2004
 112994296.070 8  88047582.99945  21502058.144    21502051.0314
        48.200          35.9004
 113101179.255 8  88130839.15546  21522403.305    21522393.9064
        48.700          37.9004
 12 10 28  1 53 30.0000000  0 11G11G06G22G21G18G01G03G30G16G14G19
 125241361.575 7  97590747.36843  23832607.258    23832605.9474
        42.100          21.3004
 106552331.845 8  83027794.17446  20276222.830    20276216.1854
        50.000          39.8004
 115642468.090 8  90110993.51545  22006023.046    22006013.1194
        48.000          35.1004
 131411972.178 5                  25006867.671
        31.300
 132055985.060 6 102900740.87542  25129418.699    25129412.6414
        36.000          14.8004
 130895260.830 6 101996373.12743  24908531.543    24908541.7204
        41.000          20.6004
 105874752.972 8  82499833.49546  20147273.879    20147267.0004
        49.800          41.1004
 129200050.251 6 100675329.07243  24585975.624    24585982.6364
        40.700          20.1004
 119975332.133 7  93487241.56145  22830562.552    22830563.4684
        46.200          30.0004
 112992319.318 7  88046042.74845  21501681.939    21501674.7084
        45.800          34.8004
 113036519.079 8  88080454.71246  21510098.540    21510089.6684
        48.000          38.5004
 12 10 28  1 54  0.0000000  0 11G11G06G22G21G18G01G03G30G16G14G19
 125167147.455 6  97532918.66943  23818484.044    23818483.2024
        41.600          20.6004
 106564935.242 8  83037615.02146  20278621.251    20278614.6654
        50.000          39.7004
 115712667.700 8  90165694.53145  22019380.873    22019371.8844
        48.200          35.2004
 131453894.903 5                  25014844.505
        32.200
 132137340.235 6 102964134.56342  25144899.233    25144893.7024
        36.600          16.3004
 130840782.577 6 101953923.15643  24898165.192    24898173.6104
        39.400          20.1004
 105871228.745 8  82497087.39946  20146603.524    20146596.4104
        50.900          41.1004
 129283093.680 6 100740038.22543  24601778.653    24601785.3134
        41.400          20.1004
 120047997.977 7  93543864.12545  22844389.807    22844391.9544
        45.600          30.2004
 112990870.388 7  88044913.78945  21501406.430    21501398.7894
        47.500          35.5004
 112972162.112 8  88030306.52646  21497851.561    21497843.0414
        48.200          38.9004
 12 10 28  1 54 30.0000000  0 11G11G06G22G21G18G01G03G30G16G14G19
 125092894.323 6  97475059.54243  23804354.391    23804352.7284
        41.600          21.1004
 106578034.743 8  83047822.44246  20281114.052    20281106.8214
        50.200          39.9004
 115782967.111 8  90220473.31345  22032758.758    22032749.3594
        48.900          35.3004
 131495928.857 5                  25022845.234
        32.800
 132218587.774 5 103027444.46742  25160359.682    25160353.9754
        35.800          15.6004
 130786220.636 6 101911407.95543  24887782.317    24887789.3874
        40.700          21.7004
 105868259.728 8  82494773.92346  20146038.033    20146031.2124
        49.700          40.5004
 129365958.445 6 100804608.14643  24617547.205    24617554.0404
        40.400          20.6004
 120120809.243 7  93600599.98544  22858245.517    22858247.7814
        43.900          29.4004
 112989949.995 7  88044196.67645  21501231.275    21501223.8104
        46.000          35.0004
 112908110.324 8  87980396.14046  21485662.584    21485653.9474
        48.400          38.6004
 12 10 28  1 55  0.0000000  0 11G11G06G22G21G18G01G03G30G16G14G19
 125018597.959 6  97417166.70943  23790213.302    23790213.6324
        39.000          19.6004
 106591626.095 8  83058413.12846  20283700.456    20283693.5184
        49.700          39.5004
 115853359.363 8  90275324.43645  22046153.826    22046144.5444
        48.300          35.6004
                                  25030862.221
        28.900
 132299721.866 6 103090665.88042  25175800.689    25175793.6934
        36.400          15.6004
 130731569.679 6 101868823.41243  24877381.293    24877390.3564
        40.500          21.1004
 105865841.503 8  82492889.64146  20145577.908    20145571.0884
        50.400          40.8004
 129448637.381 6 100869033.27143  24633280.516    24633287.1764
        40.900          20.6004
 120193758.135 7  93657443.09344  22872127.872    22872130.1954
        43.800          29.8004
 112989554.043 7  88043888.22045  21501156.047    21501148.2894
        46.400          35.6004
 112844361.318 8  87930721.70146  21473531.318    21473522.9744
        48.700          39.6004
 12 10 28  1 55 30.0000000  0 11G11G06G22G21G18G01G03G30G16G14G19
 124944271.273 6  97359250.27243  23776071.179    23776069.2824
        37.900          21.1004
 106605721.584 8  83069396.64146  20286382.246    20286375.5434
        50.300          39.5004
 115923855.281 8  90330256.34545  22059568.626    22059558.9924
        48.600          35.3004
 131580319.482 4                  25038904.894
        28.600
 132380753.667 6 103153807.71242  25191220.420    25191212.8974
        36.100          16.3004
 130676841.648 6 101826178.78843  24866965.629    24866975.6304
        39.600          21.8004
 105863987.172 8  82491444.75846  20145224.874    20145218.2294
        50.200          40.8004
 129531140.945 6 100933321.76143  24648980.738    24648987.4564
        41.700          22.9004
 120266854.294 7  93714400.95145  22886037.609    22886039.5804
        44.700          30.4004
 112989695.497 7  88043998.51745  21501182.285    21501174.8784
        46.000          35.2004
 112780930.169 7  87881294.92946  21461460.761    21461452.5934
        47.700          39.5004
 12 10 28  1 56  0.0000000  0 11G11G06G22G20G18G01G03G30G16G14G19
 124869898.921 6  97301298.28143  23761919.341    23761918.0884
        39.900          21.1004
 106620305.081 8  83080760.43946  20289157.791    20289150.4434
        49.800          39.8004
 115994436.443 8  90385254.67245  22073000.477    22072990.3164
        48.600          35.3004
 132376792.714 6                  25190466.108
        36.800
 132461665.718 5 103216856.11242  25206617.035    25206609.9224
        35.800          13.9004
 130622019.426 6 101783460.75943  24856532.184    24856542.6534
        38.000          20.6004
 105862680.302 8  82490426.46746  20144976.740    20144969.3924
        49.500          40.5004
 129613450.218 6 100997458.84943  24664643.502    24664650.3384
        40.800          22.2004
 120340078.182 7  93771458.34544  22899971.793    22899974.5854
        44.300          29.6004
 112990358.350 7  88044515.10945  21501308.016    21501301.2544
        46.800          35.9004
 112717802.539 7  87832104.67246  21449448.014    21449439.4944
        47.300          39.2004
 12 10 28  1 56 30.0000000  0 11G11G06G22G20G18G01G03G30G16G14G19
 124795497.269 6  97243323.40543  23747760.693    23747758.7374
        41.000          22.3004
 106635392.827 8  83092517.15146  20292028.532    20292021.7114
        51.000          39.7004
 116065116.929 8  90440330.39945  22086449.852    22086440.3354
        48.900          35.4004
 132297444.897 5                  25175365.242
        34.200
 132542473.265 6 103279823.14442  25221994.472    25221986.8904
        36.200          15.6004
 130567118.798 6 101740681.70943  24846084.999    24846093.8284
        38.900          20.1004
 105861937.615 8  82489847.79046  20144834.739    20144827.9184
        49.400          41.0004
 129695579.220 6 101061455.44143  24680271.962    24680279.2674
        40.000          21.7004
 120413442.788 7  93828625.38545  22913932.535    22913935.3854
        45.800          30.5004
 112991559.525 7  88045451.17545  21501536.929    21501529.8154
        45.900          35.3004
 112654997.078 8  87783165.45246  21437496.818    21437488.0634
        48.700          39.2004
 12 10 28  1 57  0.0000000  0 11G11G06G22G20G18G01G03G30G16G14G19
 124721056.997 6  97185318.45243  23733594.840    23733593.0024
        41.700          21.7004
 106650974.732 8  83104658.90646  20294993.505    20294987.0364
        50.900          39.8004
 116135884.513 8  90495473.99946  22099916.904    22099907.1534
        49.200          36.2004
 132218282.717 5                  25160302.496
        35.500
 132623165.247 5 103342700.04842  25237349.496    25237341.7384
        35.800          16.9004
 130512128.988 6 101697833.03543  24835620.823    24835628.6554
        40.300          20.1004
 105861748.914 8  82489700.79146  20144798.813    20144792.2854
        49.500          40.8004
 129777515.589 6 101125301.97643  24695864.994    24695871.1264
        40.000          20.1004
 120486935.031 7  93885891.89444  22927917.759    22927920.3164
        44.700          29.2004
 112993289.496 7  88046799.28345  21501866.156    21501858.5744
        47.000          35.9004
 112592506.041 8  87734471.25246  21425604.782    21425596.5544
        49.200          38.4004
 12 10 28  1 57 30.0000000  0 11G11G06G22G20G18G01G03G30G16G14G19
 124646581.412 6  97127285.97643  23719421.856    23719419.6664
        41.600          22.5004
 106667053.564 8  83117187.89046  20298053.303    20298046.2484
        50.300          39.8004
 116206739.870 8  90550686.00046  22113399.902    22113390.0334
        49.100          36.3004
 132139309.250 5                  25145274.543
        35.900
 132703743.201 5 103405488.11642  25252681.509    25252675.0404
        32.200          13.9004
 130457052.095 5 101654916.55243  24825139.364    24825148.1344
        35.500          21.1004
 105862117.745 8  82489988.24446  20144869.176    20144862.1214
        49.400          41.0004
 129859259.846 6 101188998.80043  24711419.645    24711425.7184
        40.200          19.6004
 120560554.640 7  93943257.64544  22941927.200    22941929.9914
        46.400          28.9004
 112995551.422 7  88048561.90946  21502296.438    21502288.9144
        47.300          36.2004
 112530334.378 8  87686025.90546  21413773.965    21413765.3864
        49.100          39.1004
 12 10 28  1 58  0.0000000  0 11G11G06G22G20G18G01G03G30G16G14G19
 124572071.484 6  97069226.68843  23705242.781    23705240.8844
        41.300          22.5004
 106683629.796 8  83130104.46646  20301207.691    20301201.1054
        50.800          39.3004
 116277681.515 8  90605965.24345  22126899.618    22126890.1024
        49.100          35.7004
 132060526.260 5                  25130283.283
        35.700
 132784206.239 5 103468186.77042  25267994.588    25267986.3604
        34.600          16.9004
 130401888.031 6 101611932.20743  24814640.537    24814650.2454
        36.200          19.6004
 105863044.504 8  82490710.43846  20145045.120    20145038.8264
        49.500          41.2004
 129940810.159 6 101252544.50343  24726936.922    24726944.5784
        38.900          18.3004
 120634298.546 7  94000720.25944  22955960.048    22955962.8394
        46.400          29.7004
 112998346.044 7  88050739.62346  21502828.078    21502820.6724
        47.200          36.3004
 112468484.916 8  87637831.62946  21402004.286    21401995.5904
        48.300          38.6004
 12 10 28  1 58 30.0000000  0 11G11G06G22G20G18G01G03G30G16G14G19
 124497527.409 6  97011140.86643  23691056.121    23691055.4554
        39.900          22.3004
 106700702.959 8  83143408.25346  20304456.655    20304449.8934
        50.600          39.3004
 116348706.956 8  90661309.76945  22140415.732    22140405.6884
        49.000          35.5004
 131981933.361 5                  25115327.098
        34.800
 132864553.458 5 103530795.10342  25283282.734    25283275.3864
        34.600          13.9004
 130346635.903 6 101568879.09543  24804127.185    24804135.9554
        36.900          20.4004
 105864529.037 8  82491867.26146  20145328.373    20145321.0844
        50.900          41.5004
 130022164.029 6 101315937.12043  24742419.201    24742425.7444
        38.100          18.3004
 120708163.950 7  94058277.54744  22970016.706    22970019.2054
        45.600          28.8004
 113001673.222 7  88053332.30746  21503461.233    21503453.7674
        47.000          36.1004
 112406959.386 8  87589889.76446  21390296.479    21390287.4314
        49.300          38.4004
 12 10 28  1 59  0.0000000  0 11G11G06G22G20G18G01G03G30G16G14G19
 124422950.878 6  96953029.69443  23676863.863    23676863.1384
        40.700          22.8004
 106718273.795 8  83157099.84146  20307800.099    20307793.1034
        51.000          39.6004
 116419814.830 8  90716718.53846  22153946.688    22153936.7024
        49.000          36.1004
 131903532.211 5                  25100407.808
        33.800
 132944784.120 5 103593312.62442  25298550.094    25298543.3324
        33.500          16.3004
 130291295.905 6 101525757.60443  24793595.856    24793604.9784
        36.000          19.6004
 105866572.283 8  82493459.44346  20145717.051    20145709.7034
        50.200          40.6004
 130103319.865 6 101379175.45342  24757862.992    24757869.2424
        39.700          17.8004
 120782147.986 7  94115927.29144  22984095.346    22984097.9614
        46.200          29.0004
 113005534.210 7  88056340.95846  21504195.938    21504188.7074
        46.900          36.3004
 112345760.784 8  87542202.64846  21378650.659    21378641.3774
        49.300          38.9004
 12 10 28  1 59 30.0000000  0 11G11G06G22G20G18G01G03G30G16G14G19
 124348341.451 7  96894892.84743  23662667.455    23662665.4414
        42.500          22.3004
 106736341.707 8  83171178.75646  20311238.378    20311231.7334
        51.200          39.9004
 116491002.491 8  90772189.49146  22167493.013    22167483.5554
        49.200          36.1004
 131825322.251 6                  25085525.217
        37.300
 133024896.539 5 103655738.03842  25313796.238    25313789.1834
        35.000          16.3004
 130235866.792 5 101482566.58043  24783046.614    24783055.3844
        35.200          19.6004
 105869173.908 8  82495486.72546  20146211.637    20146204.5824
        50.800          40.9004
 130184274.955 6 101442257.31842  24773267.307    24773274.6704
        38.600          17.8004
 120856247.161 7  94173666.75644  22998196.252    22998198.5164
        46.000          28.1004
 113009928.863 7  88059765.44546  21505032.291    21505024.8254
        46.100          36.4004
 112284890.945 8  87494771.70846  21367067.399    21367058.2344
        48.200          39.1004
 12 10 28  2  0  0.0000000  0 11G11G06G22G20G18G01G03G30G16G14G19
 124273700.380 7  96836731.40143  23648462.899    23648461.1784
        42.200          22.6004
 106754906.894 8  83185645.15946  20314771.116    20314765.0584
        50.100          39.8004
 116562268.688 8  90827721.62645  22181054.688    22181044.3514
        49.500          35.9004
 131747304.743 6                  25070680.053
        36.900
 133104890.364 5 103718071.00443  25329016.436    25329010.9634
        34.200          18.3004
 130180348.516 5 101439306.13242  24772481.070    24772488.8434
        34.700          17.4004
 105872333.910 8  82497949.10846  20146813.131    20146806.0764
        51.200          40.8004
 130265027.248 6 101505181.16242  24788635.015    24788640.9724
        37.500          17.8004
 120930458.680 7  94231493.75644  23012318.304    23012320.8614
        46.500          29.7004
 113014858.186 8  88063606.55245  21505970.207    21505962.6254
        49.400          35.7004
 112224352.687 8  87447599.15146  21355546.637    21355537.7654
        48.000          38.2004
 12 10 28  2  0 30.0000000  0 11G11G06G22G20G18G01G03G30G16G14G19
 124199029.713 6  96778546.88343  23634253.663    23634250.8874
        41.200          22.3004
 106773970.624 8  83200500.04246  20318399.112    20318391.7054
        50.300          40.1004
 116633612.082 8  90883313.90845  22194630.994    22194621.2434
        49.200          35.4004
 131669481.357 6 102599626.13342  25055870.273    25055876.5814
        37.600          16.3004
 133184765.931 5 103780311.86842  25344217.156    25344210.3364
        35.400          16.9004
 130124741.622 6 101395976.70743  24761901.376    24761907.0394
        36.200          19.3004
 105876054.048 8  82500847.95546  20147521.373    20147514.5534
        51.100          41.0004
 130345576.127 6 101567946.53443  24803962.232    24803968.2484
        36.700          18.3004
 121004780.899 7  94289407.02644  23026461.651    23026464.0324
        46.200          28.9004
 113020323.024 8  88067864.93945  21507009.985    21507001.9924
        48.500          35.8004
 112164149.097 8  87400687.36746  21344090.303    21344081.3134
        48.400          38.2004
 12 10 28  2  1  0.0000000  0 11G11G06G22G20G18G01G03G30G16G14G19
 124124327.914 7  96720338.09343  23620038.702    23620035.2814
        43.000          22.5004
 106793530.657 8  83215741.65346  20322121.281    20322114.4614
        50.800          39.8004
 116705028.803 8  90938963.33945  22208221.522    22208211.0094
        48.800          35.8004
 131591850.983 6 102539134.78743  25041097.393    25041104.8734
        38.200          18.3004
 133264519.756 5 103842457.79642  25359393.302    25359386.7164
        35.000          15.6004
 130069043.837 5 101352576.27543  24751298.903    24751307.4974
        35.400          19.9004
 105880332.274 8  82504181.67946  20148335.110    20148328.1724
        49.400          40.8004
 130425917.210 5 101630550.05242  24819249.819    24819257.0074
        35.700          17.8004
 121079208.494 7  94347402.41744  23040624.787    23040627.3444
        46.200          28.3004
 113026321.994 7  88072539.53245  21508151.484    21508144.0774
        45.900          35.6004
 112104280.730 8  87354036.79646  21332697.845    21332688.9734
        48.900          38.8004
 12 10 28  2  1 30.0000000  0 11G11G06G22G20G18G01G03G30G16G14G19
 124049618.138 7  96662123.07743  23605821.206    23605817.8434
        42.900          22.3004
 106813609.109 8  83231387.22546  20325942.020    20325935.0834
        50.500          39.6004
 116776539.196 8  90994685.76645  22221828.917    22221818.7564
        48.800          35.7004
 131514436.143 6 102478811.33542  25026366.354    25026373.0144
        37.000          16.9004
 133344173.647 5 103904525.92442  25374551.624    25374543.9834
        34.000          16.9004
 130013276.806 6 101309121.99643  24740688.953    24740695.9064
        36.100          19.3004
 105885191.201 8  82507967.88646  20149259.384    20149252.8574
        50.300          41.4004
 130506070.687 6 101693007.26642  24834502.991    24834509.7094
        36.000          15.6004
 121153760.973 7  94405495.12444  23054810.936    23054814.6664
        45.500          29.3004
 113032877.616 7  88077647.88645  21509398.912    21509391.2134
        47.900          35.7004
 112044772.090 7  87307666.53446  21321373.446    21321364.6324
        47.500          39.2004
 12 10 28  2  2  0.0000000  0 11G11G06G22G20G18G01G03G30G16G14G19
 123974858.611 7  96603869.31543  23591594.361    23591591.4084
        43.000          21.8004
 106834163.733 8  83247403.83246  20329853.334    20329846.5134
        50.300          39.6004
 116848099.268 8  91050446.90945  22235446.699    22235436.1864
        49.000          35.1004
 131437195.199 5 102418623.38742  25011667.823    25011675.5384
        35.000          17.4004
 133423684.140 5 103966482.27343  25389681.268    25389674.9754
        35.500          18.3004
 129957397.895 6 101265580.50043  24730054.683    24730061.4604
        36.200          19.6004
 105890588.252 8  82512173.41246  20150286.575    20150279.8724
        49.200          41.2004
 130585992.345 5 101755283.89142  24849711.189    24849717.6144
        35.700          16.9004
 121228392.743 7  94463649.61244  23069013.521    23069016.1364
        45.300          28.6004
 113039948.091 7  88083157.40245  21510744.184    21510736.6014
        45.800          35.5004
 111985583.232 8  87261545.43846  21310110.794    21310101.6874
        49.100          39.3004
 12 10 28  2  2 30.0000000  0 11G11G06G22G20G18G01G03G30G16G14G19
 123900070.889 7  96545593.53644  23577361.909    23577359.1914
        43.400          24.7004
 106855215.022 8  83263807.46446  20333859.223    20333852.3444
        50.100          39.5004
 116919727.693 8  91106261.29845  22249077.102    22249066.8824
        48.900          35.1004
 131360149.718 5 102358587.80242  24997005.991    24997013.7644
        34.200          15.6004
 133503071.305 5 104028342.53942  25404787.386    25404781.9724
        34.300          17.4004
 129901427.294 5 101221967.56343  24719402.725    24719410.8504
        35.700          19.6004
 105896544.516 8  82516814.68946  20151419.977    20151413.0394
        51.000          41.0004
 130665700.703 5 101817394.28442  24864879.263    24864885.5134
        35.200          16.3004
 121303121.573 7  94521879.74344  23083234.064    23083237.0904
        46.300          29.0004
 113047554.375 7  88089084.44545  21512191.897    21512183.9634
        47.200          35.3004
 111926737.085 8  87215691.39346  21298912.509    21298903.3444
        48.100          39.2004
 12 10 28  2  3  0.0000000  0 11G11G06G22G20G18G01G03G30G16G14G19
 123825256.247 7  96487296.81743  23563124.707    23563123.1614
        43.200          22.6004
 106876763.291 8  83280598.33746  20337959.320    20337952.5584
        50.500          39.6004
 116991422.827 8  91162127.66945  22262719.941    22262709.9554
        48.800          35.4004
 131283300.352 6 102298705.03442  24982383.301    24982390.6054
        36.600          16.9004
 133582334.188 6 104090105.95142  25419870.976    25419864.3904
        36.900          16.9004
 129845365.091 6 101178283.24143  24708735.529    24708740.4314
        37.500          19.3004
 105903060.398 8  82521892.03146  20152659.802    20152653.1574
        50.300          40.8004
 130745194.151 6 101879337.27743  24880006.889    24880012.7874
        38.000          18.3004
 121377945.291 7  94580183.81244  23097473.518    23097475.0794
        47.200          28.6004
 113055696.910 8  88095429.33246  21513741.370    21513733.0844
        48.800          36.2004
 111868236.529 8  87170106.64646  21287780.220    21287771.1724
        49.300          38.7004
 12 10 28  2  3 30.0000000  0 11G11G06G22G20G18G01G03G30G16G14G19
 123750415.598 7  96428979.81543  23548882.868    23548880.3264
        43.100          22.8004
 106898808.337 8  83297776.30846  20342154.512    20342147.7514
        50.800          39.1004
 117063182.986 8  91218044.71345  22276375.030    22276365.3374
        48.800          34.9004
 131206647.588 6 102238975.48942  24967796.596    24967803.1974
        37.300          17.8004
 133661472.025 6 104151771.96643  25434929.079    25434923.3724
        37.500          18.3004
 129789210.761 6 101134527.20143  24698048.936    24698055.0684
        37.100          18.3004
 105910135.923 8  82527405.45546  20154006.490    20153999.6114
        50.700          40.5004
 130824470.670 6 101941111.16642  24895093.576    24895099.6504
        38.000          16.3004
 121452860.569 7  94638559.21144  23111728.681    23111731.7654
        46.400          28.9004
 113064376.100 8  88102192.38645  21515392.769    21515384.7174
        48.500          35.4004
 111810083.895 8  87124792.98446  21276713.577    21276705.1744
        48.700          39.3004
 12 10 28  2  4  0.0000000  0 11G11G06G22G20G18G01G03G30G16G14G19
 123675549.907 7  96370643.31343  23534637.072    23534633.1244
        44.100          22.8004
 106921350.503 8  83315341.65046  20346444.647    20346437.5924
        50.300          39.6004
 117135006.703 8  91274011.28145  22290042.567    22290032.8164
        48.100          34.5004
 131130192.543 6 102179399.98343  24953246.970    24953255.1544
        36.400          18.3004
 133740484.820 6 104213340.49842  25449966.338    25449958.5224
        37.700          16.3004
 129732964.388 6 101090699.30342  24687344.994    24687351.0674
        36.300          17.4004
 105917771.310 8  82533355.13346  20155459.259    20155452.2624
        49.900          41.3004
 130903528.695 6 102002714.83842  24910139.556    24910142.9934
        38.700          16.9004
 121527864.980 7  94697004.09044  23126001.480    23126004.0964
        46.200          28.7004
 113073592.522 7  88109374.06545  21517146.214    21517138.8664
        45.900          35.1004
 111752281.830 8  87079752.49846  21265714.286    21265705.3554
        49.600          39.5004
 12 10 28  2  4 30.0000000  0 11G11G06G22G20G31G01G03G30G16G14G19
 123600651.464 7  96312281.27443  23520383.715    23520380.4114
        44.500          22.9004
 106944381.184 8  83333287.65246  20350827.165    20350819.7004
        50.200          39.1004
 117206883.621 8  91330019.29545  22303720.537    22303710.4354
        48.300          34.5004
 131053927.386 6 102119972.50242  24938735.722    24938742.3814
        37.000          16.9004
 131295070.977 5                  24984583.335
        34.900
 129676617.216 6 101046792.90742  24676621.471    24676628.3654
        38.200          16.9004
 105925958.361 8  82539734.68146  20157017.165    20157009.9934
        49.100          40.9004
 130982357.719 6 102064140.05942  24925138.736    24925144.3414
        37.200          14.8004
 121602947.255 7  94755509.65844  23140289.555    23140292.6984
        46.400          28.3004
 113083338.042 7  88116968.02045  21519000.723    21518993.4334
        45.800          35.5004
 111694824.496 8  87034980.64146  21254780.716    21254771.9034
        49.300          39.8004
 12 10 28  2  5  0.0000000  0 11G11G06G22G20G31G01G03G30G16G14G19
 123525737.756 7  96253907.32643  23506127.626    23506124.3234
        43.800          23.8004
 106967916.482 8  83351626.86046  20355305.327    20355298.3894
        50.200          39.9004
 117278828.162 7  91386080.01045  22317410.787    22317401.4464
        46.700          34.9004
 130977869.283 5 102060706.34242  24924261.537    24924268.9004
        34.500          16.3004
 131255207.364 5                  24976996.737
        33.900
 129620185.211 6 101002820.50543  24665882.603    24665888.8534
        37.100          19.0004
 105934713.309 8  82546556.74846  20158683.191    20158676.4884
        50.200          40.3004
 131060972.190 6 102125398.07142  24940097.125    24940104.1374
        36.500          14.8004
 121678120.656 7  94814086.20444  23154594.935    23154597.1994
        45.100          28.2004
 113093628.905 7  88124986.92546  21520959.466    21520951.6494
        46.200          36.0004
 111637730.299 8  86990491.74246  21243915.603    21243906.9074
        48.900          40.0004
 12 10 28  2  5 30.0000000  0 11G11G06G22G20G31G01G03G30G16G14G19
 123450801.658 7  96195515.96643  23491867.835    23491864.2974
        44.300          22.9004
 106991948.328 8  83370352.99146  20359878.799    20359871.4514
        51.500          39.2004
 117350830.878 7  91442186.05845  22331112.832    22331102.6714
        46.900          34.9004
 130902010.532 6 102001595.57442  24909825.663    24909833.6124
        36.100          16.3004
 131215103.626 5                  24969364.253
        34.300
 129563660.116 6 100958775.51143  24655126.149    24655133.3374
        39.200          19.0004
 105944028.388 8  82553815.27646  20160455.394    20160448.9254
        50.300          41.1004
 131139362.240 6 102186481.24542  24955015.059    24955021.6614
        39.200          16.9004
 121753374.338 7  94872725.32644  23168914.793    23168918.1134
        45.400          28.5004
 113104457.559 7  88133424.89245  21523019.638    21523012.0554
        46.000          35.4004
 111580993.604 8  86946281.41746  21233119.569    21233109.9364
        50.400          39.8004
 12 10 28  2  6  0.0000000  0 11G11G06G22G20G31G01G03G30G16G14G19
 123375842.812 7  96137106.86144  23477603.862    23477600.0304
        43.500          24.0004
 107016475.213 8  83389464.86446  20364545.743    20364538.6304
        50.400          39.3004
 117422888.684 7  91498335.01845  22344825.243    22344815.1414
        46.900          34.8004
 130826350.519 6 101942639.71342  24895429.637    24895435.8284
        38.700          16.9004
 131174760.103 6                  24961690.316
        36.800
 129507040.381 6 100914656.70743  24644354.039    24644357.2414
        40.700          20.1004
 105953902.134 8  82561509.14146  20162334.605    20162327.9014
        49.900          40.7004
 131217524.726 6 102247387.08642  24969888.346    24969895.7104
        39.200          17.8004
 121828704.158 7  94931423.77744  23183250.300    23183253.0924
        45.800          28.1004
 113115822.966 7  88142281.10245  21525182.542    21525174.4904
        45.900          35.3004
 111524615.284 8  86902350.35946  21222390.840    21222381.3824
        50.000          40.0004
 12 10 28  2  6 30.0000000  0 11G11G06G22G20G31G01G03G30G16G14G19
 123300862.074 7  96078680.67144  23463334.810    23463331.0374
        43.500          24.5004
 107041497.185 8  83408962.52146  20369307.784    20369299.9674
        51.100          39.5004
 117494999.709 7  91554525.45145  22358547.338    22358536.8254
        46.400          34.4004
 130750890.270 6 101883839.50842  24881069.138    24881076.6184
        37.300          17.4004
 131134179.098 6                  24953967.233
        36.600
 129450325.854 6 100870464.08643  24633557.916    24633565.3964
        38.300          19.9004
 105964334.689 8  82569638.43746  20164320.192    20164313.0784
        49.800          40.6004
 131295457.801 6 102308114.10442  24984718.699    24984726.0624
        38.300          16.3004
 121904107.414 7  94990179.44344  23197599.109    23197600.8454
        46.000          29.4004
 113127725.671 7  88151556.00245  21527448.026    21527440.0334
        46.000          35.5004
 111468598.243 8  86858700.81646  21211731.149    21211721.4564
        50.000          39.6004
 12 10 28  2  7  0.0000000  0 11G11G06G22G20G31G01G03G30G16G14G19
 123225862.615 7  96020239.88243  23449061.980    23449058.2664
        42.400          23.4004
 107067016.004 8  83428847.33546  20374163.653    20374156.1294
        50.800          39.4004
 117567164.371 7  91610757.67945  22372279.558    22372269.8664
        45.800          34.5004
 130675632.338 5 101825197.01142  24866747.561    24866755.4514
        35.700          17.4004
 131093364.459 5                  24946196.407
        32.200
 129393518.289 6 100826199.01243  24622746.936    24622753.5384
        37.600          19.3004
 105975328.141 8  82578204.79246  20166411.606    20166405.1374
        49.200          40.8004
 131373161.621 6 102368662.54343  24999506.073    24999512.2644
        39.600          18.6004
 121979583.234 7  95048991.66644  23211961.388    23211963.5944
        45.600          28.3004
 113140167.460 7  88161250.96445  21529815.326    21529807.2164
        46.100          35.7004
 111412946.741 8  86815336.09046  21201140.645    21201131.3624
        49.400          40.2004
 12 10 28  2  7 30.0000000  0 11G11G06G22G20G31G01G03G30G16G14G19
 123150843.941 6  95961784.14943  23434787.014    23434782.4794
        41.100          22.9004
 107093029.849 8  83449117.87546  20379113.572    20379106.5174
        50.800          39.9004
 117639379.288 7  91667029.06845  22386021.447    22386011.5214
        46.200          34.9004
 130600575.715 5 101766711.37142  24852464.063    24852472.1894
        34.600          16.9004
 131052316.412 5                  24938386.445
        35.300
 129336615.940 6 100781860.04043  24611920.153    24611925.4644
        38.700          19.9004
 105986880.757 8  82587206.87046  20168610.260    20168603.5564
        50.900          41.2004
 131450633.103 6 102429029.91442  25014247.677    25014254.2784
        39.200          16.9004
 122055127.355 7  95107857.11744  23226337.316    23226339.4044
        45.100          27.9004
 113153147.178 7  88171365.10346  21532285.380    21532277.1534
        46.800          36.1004
 111357661.570 8  86772256.82946  21190620.760    21190610.7164
        49.700          39.8004
 12 10 28  2  8  0.0000000  0 11G11G06G22G20G31G01G03G30G16G14G19
 123075807.031 6  95903314.22143  23420506.770    23420503.8764
        40.500          23.0004
 107119538.651 8  83469774.09746  20384158.341    20384151.1104
        49.000          40.0004
 117711642.936 7  91723338.42645  22399772.939    22399762.6614
        46.900          34.8004
 130525720.701 6 101708382.95742  24838219.667    24838227.8514
        36.000          17.4004
 131011036.944 5                  24930530.650
        33.900
 129279618.514 6 100737446.99543  24601073.224    24601078.3014
        38.300          20.1004
 105998992.527 8  82596644.65346  20170915.159    20170907.8114
        50.400          40.7004
 131527870.150 6 102489214.65642  25028945.473    25028951.8394
        40.000          16.3004
 122130736.938 7  95166773.57144  23240725.263    23240727.9964
        44.900          28.5004
 113166664.642 7  88181898.25545  21534857.264    21534849.6824
        46.600          35.2004
 111302745.649 8  86729465.30246  21180170.090    21180160.8664
        49.800          39.7004
 12 10 28  2  8 30.0000000  0 11G11G06G22G20G31G01G03G30G16G14G19
 123000752.216 6  95844830.29543  23406223.241    23406220.4064
        40.900          22.3004
 107146541.525 8  83490815.31346  20389296.860    20389289.6294
        50.800          39.6004
 117783953.425 7  91779684.28345  22413533.350    22413523.0134
        46.600          35.3004
 130451067.567 6 101650211.75243  24824013.907    24824021.5634
        37.300          18.3004
 130969527.557 5                  24922631.863
        34.600
 129222525.332 6 100692959.30443  24590208.528    24590213.1364
        38.800          19.0004
 106011662.519 8  82606517.41846  20173326.006    20173318.7754
        49.000          40.6004
 131604870.612 6 102549215.05442  25043597.517    25043603.7664
        37.900          16.3004
 122206408.491 7  95225738.31744  23255125.198    23255128.2834
        45.200          28.1004
 113180719.901 7  88192850.47845  21537531.955    21537523.9034
        46.500          35.4004
 111248200.286 8  86686962.51446  21169790.895    21169781.4374
        50.300          40.3004
 12 10 28  2  9  0.0000000  0 11G11G06G22G20G31G01G03G30G16G14G19
 122925680.752 6  95786333.37943  23391937.281    23391934.2704
        40.300          22.6004
 107174038.300 8  83512241.38146  20394529.276    20394522.1624
        50.800          39.8004
 117856308.706 7  91836065.04745  22427302.050    22427292.2994
        46.700          34.7004
 130376616.810 6 101592198.25143  24809846.914    24809854.3364
        38.900          18.6004
 130927790.284 5                  24914689.349
        33.900
 129165336.451 6 100648397.08843  24579327.192    24579329.9254
        39.300          19.6004
 106024891.052 8  82616825.40546  20175843.192    20175836.4894
        50.000          40.7004
 131681632.756 6 102609029.77542  25058205.264    25058211.8664
        36.300          16.3004
 122282139.473 7  95284749.38844  23269535.625    23269539.4714
        43.500          28.1004
 113195312.646 7  88204221.52645  21540308.950    21540300.7824
        47.500          35.3004
 111194028.145 8  86644750.55946  21159481.952    21159472.6704
        49.800          40.3004
 12 10 28  2  9 30.0000000  0 11G11G06G22G20G31G01G03G30G16G14G19
 122850593.381 7  95727824.07743  23377649.684    23377644.8574
        42.000          22.8004
 107202028.318 8  83534051.80346  20399855.685    20399848.5714
        48.500          39.1004
 117928706.850 7  91892479.21145  22441078.682    22441068.9894
        46.100          34.6004
 130302368.958 6 101534342.90342  24795718.186    24795725.4324
        36.700          17.8004
 130885826.799 5                  24906703.730
        33.500
 129108051.218 6 100603759.71243  24568424.538    24568429.6744
        39.200          21.5004
 106038678.042 8  82627568.55646  20178466.601    20178459.6634
        49.500          41.0004
 131758154.437 6 102668657.04442  25072765.442    25072774.3884
        36.500          16.9004
 122357926.578 7  95343804.16844  23283958.071    23283961.5084
        42.600          28.1004
 113210442.821 7  88216011.35045  21543187.894    21543179.9024
        47.700          35.3004
 111140231.039 8  86602830.83046  21149244.278    21149235.0554
        50.300          40.0004
 12 10 28  2 10  0.0000000  0 11G11G06G22G20G31G01G03G30G16G14G19
 122775491.263 6  95669303.32043  23363357.686    23363354.3244
        41.200          22.8004
 107230511.740 8  83556246.68346  20405275.430    20405268.4344
        49.100          38.6004
 118001146.915 7  91948926.04845  22454863.501    22454853.7504
        45.600          34.1004
 130228325.011 6 101476646.43943  24781628.381    24781635.8034
        36.400          19.0004
 130843639.113 5                  24898676.489
        34.000
 129050669.696 6 100559047.36343  24557504.144    24557508.5764
        37.900          20.1004
 106053023.191 8  82638746.63746  20181196.392    20181189.5724
        49.100          40.1004
 131834434.214 5 102728095.80542  25087281.542    25087289.8434
        34.600          16.3004
 122433767.566 7  95402900.94944  23298389.769    23298393.2054
        42.400          26.7004
 113226111.022 7  88228220.41445  21546169.237    21546161.4794
        46.400          35.6004
 111086811.628 8  86561205.41446  21139079.048    21139069.6484
        50.400          40.3004
 12 10 28  2 10 30.0000000  0 11G11G06G22G20G31G01G03G30G16G14G19
 122700375.745 7  95610772.08644  23349063.629    23349060.0914
        42.300          26.0004
 107259488.473 8  83578825.97146  20410789.666    20410782.4944
        48.400          39.5004
 118073627.180 7  92005404.20445  22468656.298    22468646.1364
        46.600          33.9004
 130154485.521 6 101419109.26043  24767576.765    24767585.2424
        37.200          20.1004
 130801229.750 5                  24890605.876
        32.500
 128993192.169 6 100514260.14743  24546568.124    24546571.0914
        38.500          21.5004
 106067926.669 8  82650359.78346  20184032.545    20184025.2554
        49.200          40.0004
 131910470.805 5 102787345.09142  25101750.813    25101759.7584
        35.200          16.3004
 122509659.731 7  95462037.61444  23312831.998    23312835.5524
        42.600          26.0004
 113242317.412 7  88240848.85445  21549253.119    21549245.5954
        46.300          35.7004
 111033772.513 8  86519876.31846  21128985.929    21128976.1194
        50.300          40.0004
 12 10 28  2 11  0.0000000  0 11G11G06G22G20G31G01G03G30G16G14G19
 122625246.974 7  95552230.54444  23334768.057    23334762.5844
        42.400          24.5004
 107288957.172 8  83601788.60746  20416397.733    20416390.5614
        50.200          39.2004
 118146145.026 7  92061911.63645  22482455.997    22482445.6604
        46.800          34.0004
 130080850.227 6 101361731.20643  24753564.413    24753572.3034
        36.400          19.6004
 130758599.388 5                  24882494.490
        32.000
 128935617.291 6 100469397.12043  24535608.752    24535615.4714
        37.200          20.9004
 106083387.217 8  82662407.01246  20186974.530    20186967.2994
        50.000          41.0004
 131986261.250 6 102846402.65942  25116173.181    25116181.7754
        36.800          16.9004
 122585599.340 7  95521211.24044  23327282.510    23327286.4154
        42.000          27.0004
 113259060.825 7  88253895.74845  21552438.976    21552430.8664
        47.500          35.8004
 110981115.466 8  86478844.94246  21118965.554    21118955.9204
        50.800          40.8004
 12 10 28  2 11 30.0000000  0 11G11G06G22G20G31G01G03G30G16G14G19
 122550106.568 7  95493679.90644  23320467.585    23320463.8124
        42.000          24.7004
 107318917.774 8  83625134.53646  20422098.871    20422092.1684
        49.300          39.3004
 118218699.449 7  92118447.58945  22496262.478    22496252.9614
        46.900          33.9004
 130007419.196 6 101304512.28343  24739589.831    24739598.7774
        37.500          19.3004
 130715750.569 5                  24874340.513
        33.200
 128877945.198 6 100424458.33343  24524633.146    24524639.2194
        37.000          20.4004
 106099404.859 8  82674888.34246  20190022.709    20190015.4204
        49.700          40.6004
 132061804.194 6 102905267.30842  25130549.611    25130556.0954
        38.300          16.9004
 122661583.756 6  95580419.78244  23341742.409    23341745.3774
        41.800          26.4004
 113276341.679 8  88267361.44045  21555727.656    21555719.7224
        48.600          35.5004
 110928842.540 8  86438112.88646  21109018.135    21109008.6194
        50.700          40.4004
 12 10 28  2 12  0.0000000  0 11G11G06G22G20G31G01G03G30G16G14G19
 122474955.725 6  95435121.14044  23306166.610    23306161.7834
        41.700          24.0004
 107349370.186 8  83648863.71146  20427893.395    20427887.0434
        49.600          39.2004
 118291288.758 7  92175010.70845  22510075.171    22510066.1234
        46.800          33.4004
 129934194.055 5 101247453.75043  24725654.911    24725663.5634
        35.800          19.6004
 130672685.614 5                  24866143.487    24866147.5094
        34.600          16.9004
 128820176.160 6 100379443.97343  24513639.447    24513644.8184
        37.900          19.9004
 106115979.479 8  82687803.67546  20193176.518    20193169.4044
        49.600          40.0004
 132137098.112 6 102963937.91942  25144877.579    25144884.1214
        37.600          16.9004
 122737610.832 6  95639661.56344  23356209.364    23356212.9174
        41.800          27.3004
 113294160.023 8  88281245.95145  21559118.459    21559110.4664
        48.300          35.4004
 110876956.871 8  86397682.58446  21099144.774    21099134.9644
        51.000          40.5004
 12 10 28  2 12 30.0000000  0 11G11G06G22G20G31G01G03G30G16G14G19
 122399794.890 7  95376554.60444  23291863.165    23291859.5094
        42.000          24.5004
 107380313.417 8  83672975.32846  20433781.704    20433775.0004
        48.000          39.3004
 118363910.821 7  92231599.36345  22523894.781    22523885.2064
        47.000          33.4004
 129861174.663 5 101190555.54442  24711759.422    24711768.8954
        32.900          17.8004
 130629405.956 5                  24857906.879    24857910.7844
        32.400          14.8004
 128762309.673 6 100334353.67543  24502629.839    24502631.9274
        38.100          19.9004
 106133110.390 8  82701152.48646  20196436.780    20196429.7834
        50.300          40.7004
 132212141.117 6 103022413.05042  25159157.935    25159164.2434
        38.000          16.9004
 122813677.134 7  95698933.92544  23370684.624    23370688.0014
        42.300          26.4004
 113312515.345 8  88295548.88545  21562611.075    21562603.1414
        48.600          35.6004
 110825460.110 8  86357555.32346  21089344.895    21089335.4954
        50.700          40.1004
 12 10 28  2 13  0.0000000  0 11G11G06G22G20G31G01G03G30G16G14G19
 122324625.163 6  95317981.12043  23277559.222    23277554.3364
        41.800          23.3004
 107411747.098 8  83697469.12646  20439763.450    20439756.1614
        48.300          39.8004
 118436564.241 7  92288212.45545  22537720.713    22537710.8454
        47.200          33.2004
 129788361.506 5 101133818.05043  24697904.159    24697912.6364
        34.200          18.6004
 130585895.474 5 101755099.21142  24849630.489    24849634.9804
        32.900          15.6004
 128704345.426 6 100289187.22743  24491598.097    24491602.8824
        37.900          21.3004
 106150797.469 8  82714934.67646  20199802.034    20199794.6864
        51.000          40.5004
 132286931.301 5 103080691.14442  25173389.963    25173396.0374
        35.800          16.3004
 122889779.978 7  95758234.75744  23385166.583    23385170.0784
        43.300          28.3004
 113331407.500 8  88310270.11545  21566206.091    21566198.2744
        49.000          35.3004
 110774354.518 8  86317732.86346  21079619.993    21079610.1244
        50.500          40.4004
 12 10 28  2 13 30.0000000  0 11G11G06G22G20G31G01G03G30G16G14G19
 122249447.399 7  95259401.37644  23263252.388    23263249.1424
        42.000          24.8004
 107443670.330 8  83722344.37346  20445838.576    20445831.5214
        50.800          39.4004
 118509247.207 7  92344848.56845  22551551.664    22551541.6794
        46.800          33.6004
 129715754.750 5 101077241.30743  24684088.388    24684096.7484
        35.000          18.6004
 130542192.264 5 101721045.08342  24841312.959    24841319.0914
        31.800          16.3004
 128646282.921 6 100243944.23143  24480549.605    24480553.6864
        37.600          21.1004
 106169040.071 8  82729149.72646  20203273.401    20203266.3464
        51.100          40.7004
 132361466.816 5 103138770.69142  25187573.248    25187579.6154
        33.500          17.4004
 122965916.167 7  95817561.57144  23399655.691    23399658.7764
        42.800          27.1004
 113350835.807 8  88325409.14045  21569903.031    21569895.0974
        49.000          35.8004
 110723641.856 8  86278216.58046  21069969.413    21069960.4244
        50.800          39.3004
 12 10 28  2 14  0.0000000  0 11G11G06G22G20G31G01G03G30G16G14G19
 122174263.176 7  95200816.61144  23248946.178    23248941.3514
        43.600          24.6004
 107476083.277 8  83747601.22646  20452005.839    20451999.1354
        49.800          39.8004
 118581958.316 7  92401506.60445  22565388.275    22565377.6444
        46.800          33.2004
 129643355.488 5 101020826.31243  24670311.295    24670319.8314
        35.400          18.3004
 130498280.832 5 101686828.62142  24832958.126    24832963.0864
        32.300          14.8004
 128588122.701 6 100198625.04443  24469481.382    24469485.4634
        38.000          22.6004
 106187838.268 8  82743797.72446  20206850.987    20206843.5804
        50.900          40.6004
 132435746.308 5 103196650.80542  25201707.749    25201714.7024
        33.500          16.9004
 123042083.238 7  95876912.45844  23414149.720    23414152.5704
        43.700          27.8004
 113370800.920 8  88340966.44145  21573702.518    21573694.8774
        49.200          35.7004
 110673325.087 8  86239008.78246  21060394.329    21060385.2824
        50.100          39.8004
 12 10 28  2 14 30.0000000  0 11G11G06G22G20G31G01G03G30G16G14G19
 122099072.498 7  95142226.80944  23234637.743    23234632.8564
        43.400          24.1004
 107508984.426 8  83773238.49746  20458266.895    20458259.9584
        50.200          39.8004
 118654695.117 7  92458184.67345  22579229.447    22579219.4034
        46.000          32.7004
 129571162.890 5 100964572.30643  24656572.299    24656581.8304
        35.400          18.6004
 130454161.916 5 101652450.42742  24824561.049    24824566.9474
        33.400          17.4004
 128529863.466 6 100153228.75143  24458394.059    24458399.0774
        36.000          21.5004
 106207190.691 8  82758877.57546  20210532.796    20210526.0934
        50.500          40.5004
 132509767.005 6 103254329.25143  25215793.831    25215800.7844
        37.900          19.3004
 123118277.681 7  95936284.67044  23428649.050    23428651.7834
        43.500          26.0004
 113391301.496 8  88356940.98945  21577603.659    21577595.5494
        49.200          34.9004
 110623405.000 8  86200110.08646  21050895.023    21050885.5074
        50.300          40.3004
 12 10 28  2 15  0.0000000  0 11G11G06G22G20G31G01G03G30G16G14G19
 122023877.258 7  95083633.44744  23220328.464    23220323.6364
        43.800          24.9004
 107542373.707 8  83799256.13746  20464620.907    20464613.7934
        50.500          39.2004
 118727456.727 7  92514882.05845  22593075.451    22593065.3494
        45.800          32.4004
 129499178.241 6 100908480.35743  24642875.287    24642882.8854
        37.200          19.0004
 130409838.404 5 101617912.86242  24816127.547    24816132.8004
        32.300          16.3004
 128471505.774 6 100107755.69643  24447288.719    24447292.7414
        37.300          20.1004
 106227097.009 8  82774389.04046  20214321.010    20214314.0134
        50.800          40.4004
 132583528.042 6 103311805.39343  25229830.555    25229837.6264
        37.700          18.6004
 123194497.175 6  95995676.42144  23443152.334    23443156.0054
        41.800          26.4004
 113412337.976 8  88373333.11745  21581606.177    21581598.1844
        49.100          34.7004
 110573885.232 8  86161523.33346  21041471.652    21041462.0184
        49.500          39.5004
 12 10 28  2 15 30.0000000  0 11G11G06G22G20G31G01G03G30G16G14G19
 121948678.591 7  95025037.42644  23206017.281    23206013.2154
        43.200          25.4004
 107576250.435 8  83825653.59746  20471067.201    20471059.7944
        50.400          38.8004
 118800241.501 7  92571597.51045  22606925.522    22606915.5954
        44.100          32.3004
 129427401.852 6 100852550.68643  24629216.798    24629224.1024
        37.900          19.3004
 130365312.218 5 101583217.36942  24807653.318    24807659.1574
        30.800          13.9004
 128413049.302 6 100062205.69243  24436164.563    24436167.4144
        36.900          20.6004
 106247556.771 8  82790331.74746  20218214.596    20218207.3654
        52.100          40.8004
 132657027.273 6 103369077.57142  25243816.708    25243823.1334
        36.900          17.8004
 123270738.966 7  96055085.54744  23457661.072    23457664.5084
        42.200          25.8004
 113433909.971 8  88390142.52545  21585711.571    21585703.4614
        49.600          35.6004
 110524767.444 8  86123249.80646  21032125.001    21032114.9574
        49.300          39.7004
 12 10 28  2 16  0.0000000  0 11G11G06G22G20G31G01G03G30G16G14G19
 121873476.854 7  94966439.00243  23191707.642    23191701.9934
        43.000          23.9004
 107610613.652 8  83852430.14146  20477606.328    20477599.3314
        49.500          38.6004
 118873047.020 7  92628329.11745  22620780.730    22620770.1584
        45.400          32.0004
 129355833.642 6 100796783.24743  24615598.109    24615605.0624
        39.100          20.6004
 130320584.992 5 101548365.19642  24799143.599    24799146.5084
        35.600          15.6004
 128354493.583 6 100016578.33743  24425021.638    24425023.7854
        37.000          20.9004
 106268569.597 8  82806705.41246  20222213.155    20222206.2764
        51.300          40.3004
 132730263.210 6 103426144.57343  25257754.375    25257759.1014
        37.700          18.3004
 123346999.958 7  96114509.63844  23472172.053    23472176.7794
        42.300          24.5004
 113456016.638 8  88407368.54945  21589918.135    21589910.3184
        48.800          35.6004
 110476053.520 8  86085290.98546  21022854.917    21022845.1084
        49.900          39.7004
 12 10 28  2 16 30.0000000  0 11G11G06G22G20G31G01G03G30G16G14G19
 121798272.984 7  94907838.93044  23177396.165    23177390.9274
        42.800          24.6004
 107645462.501 8  83879585.10146  20484238.097    20484231.3354
        49.100          38.8004
 118945872.110 7  92685075.97645  22634638.357    22634628.1374
        44.900          32.4004
 129284473.642 6 100741178.13843  24602018.534    24602025.3704
        38.700          18.3004
 130275658.473 6 101513357.77042  24790593.851    24790596.7014
        36.800          14.8004
 128295838.400 6  99970873.47943  24413859.724    24413862.2224
        38.600          21.3004
 106290134.467 8  82823509.24946  20226317.066    20226309.7184
        51.600          40.4004
 132803233.672 5 103483004.66342  25271640.303    25271645.2054
        34.800          16.3004
 123423276.943 7  96173946.16744  23486687.487    23486691.2754
        42.300          25.3004
 113478657.693 8  88425010.98545  21594226.251    21594218.2584
        48.900          34.8004
 110427745.391 8  86047648.36646  21013662.142    21013652.0984
        49.400          39.7004
 12 10 28  2 17  0.0000000  0 11G11G06G22G20G31G01G03G30G16G14G19
 121723068.389 7  94849238.27244  23163084.545    23163079.0734
        42.600          24.3004
 107680796.818 8  83907118.35046  20490961.608    20490954.9044
        50.700          38.7004
 119018715.201 7  92741836.85445  22648500.254    22648490.0934
        46.100          31.6004
 129213322.659 6 100685735.91843  24588479.402    24588487.4694
        39.200          20.4004
 130230535.126 6 101478197.00942  24782007.906    24782010.9324
        37.700          16.9004
 128237083.778 6  99925091.13343  24402678.365    24402682.0944
        38.800          22.6004
 106312250.950 8  82840742.90846  20230525.502    20230518.0954
        51.400          39.9004
 132875937.442 5 103539657.00442  25285474.107    25285480.3574
        33.000          14.8004
 123499567.419 7  96233393.22744  23501205.933    23501209.6624
        43.500          26.5004
 113501832.757 8  88443069.53745  21598636.760    21598628.1234
        49.300          35.3004
 110379845.525 8  86010323.87546  21004546.727    21004536.9764
        50.000          40.3004
 12 10 28  2 17 30.0000000  0 11G11G06G22G20G31G01G03G30G16G14G19
 121647864.604 7  94790638.22344  23148773.870    23148768.4564
        43.000          25.9004
 107716615.658 8  83935029.15546  20497778.142    20497770.9114
        50.000          39.5004
 119091574.598 7  92798610.44145  22662364.471    22662354.3104
        45.800          31.8004
 129142381.175 6 100630456.91543  24574977.791    24574987.7924
        36.600          19.0004
 130185217.070 6 101442884.50642  24773383.414    24773386.2064
        36.400          16.3004
 128178229.723 6  99879231.29043  24391478.529    24391481.7894
        38.800          21.7004
 106334918.690 8  82858406.11946  20234838.997    20234831.4734
        52.700          40.6004
                 103596267.57442  25299256.980
        30.300          15.6004
 123575868.833 7  96292848.81744  23515725.403    23515729.3674
        43.200          24.0004
 113525541.491 8  88461543.91845  21603148.605    21603139.6754
        49.500          35.4004
 110332355.868 8  85973319.03146  20995509.602    20995500.3194
        50.200          40.5004
 12 10 28  2 18  0.0000000  0 11G11G06G22G20G31G01G03G30G16G14G19
 121572662.658 6  94732039.62744  23134462.897    23134457.4834
        41.700          25.3004
 107752918.846 8  83963317.36746  20504686.288    20504679.0574
        50.600          39.4004
 119164449.209 7  92855395.89245  22676231.735    22676222.2774
        45.500          32.3004
 129071649.909 6 100575341.75143  24561519.621    24561527.6294
        38.100          19.0004
 130139706.876 5 101407422.30742  24764720.469    24764726.1324
        31.900          17.8004
 128119276.492 6  99833294.13843  24380260.220    24380263.6574
        39.000          21.5004
 106358137.161 8  82876498.45646  20239257.477    20239250.0114
        50.800          40.7004
 133020689.436 4 103652529.10442  25312988.941    25312996.4804
        29.900          12.6004
 123652178.429 7  96352310.77044  23530247.236    23530250.8484
        43.700          25.8004
 113549784.058 8  88480434.28145  21607761.602    21607753.5514
        49.100          35.1004
 110285279.327 8  85936636.07846  20986551.376    20986541.6844
        50.300          40.5004
 12 10 28  2 18 30.0000000  0 11G11G06G22G20G31G01G03G30G16G14G19
 121497464.401 6  94673443.91944  23120152.888    23120147.3574
        41.900          24.2004
 107789706.320 8  83991982.96746  20511686.554    20511679.3814
        49.900          39.4004
 119237338.131 7  92912192.49245  22690101.941    22690092.7764
        45.200          31.5004
 129001129.621 6 100520391.05743  24548099.285    24548107.7034
        36.300          18.3004
 130093994.115 5 101371802.40442  24756025.410    24756029.0224
        31.600          14.8004
 128060224.635 6  99787280.17643  24369021.666    24369025.6294
        38.100          21.8004
 106381906.671 8  82895020.18446  20243780.523    20243773.3514
        50.300          40.5004
 133092584.496 5 103708551.16242  25326670.397    25326677.8194
        31.500          14.8004
 123728494.344 7  96411777.65544  23544770.179    23544773.0294
        44.600          26.7004
 113574560.617 7  88499740.75145  21612475.868    21612468.2854
        47.000          35.1004
 110238618.352 8  85900276.95146  20977672.516    20977662.5314
        50.400          41.3004
 12 10 28  2 19  0.0000000  0 11G11G06G22G20G31G01G03G30G16G14G19
 121422269.235 7  94614850.59744  23105843.482    23105837.8924
        42.800          24.4004
 107826975.245 8  84021023.70346  20518778.307    20518771.8384
        50.000          39.4004
 119310237.970 7  92968997.60445  22703975.313    22703964.7414
        46.000          31.5004
 128930819.127 6 100465603.81243  24534718.344    24534727.1724
        37.800          19.9004
 130048103.876 5 101336043.74442  24747293.085    24747295.7014
        35.400          16.9004
 128001072.035 6  99741187.70043  24357765.128    24357768.7994
        37.600          22.2004
 106406224.455 8  82913969.12846  20248407.702    20248400.8814
        48.700          39.8004
 133164205.338 5 103764359.61342  25340300.626    25340306.9344
        33.500          16.3004
 123804811.923 7  96471245.83444  23559291.815    23559295.8964
        43.300          26.2004
 113599868.639 7  88519461.35145  21617292.435    21617283.7384
        46.600          35.0004
 110192373.274 8  85864241.89946  20968871.967    20968861.9824
        50.300          40.2004
 12 10 28  2 19 30.0000000  0 11G11G06G22G20G31G01G03G30G16G14G19
 121347078.317 7  94556260.60344  23091535.099    23091529.1584
        43.200          25.2004
 107864724.945 8  84050439.06646  20525962.088    20525955.2094
        50.900          39.1004
 119383147.184 7  93025810.01345  22717848.879    22717838.8354
        44.300          31.2004
 128860718.469 6 100410980.10243  24521379.730    24521386.5074
        37.200          18.3004
 130002027.629 6 101300140.50842  24738526.131    24738526.8714
        36.900          16.3004
 127941818.713 6  99695016.79043  24346489.868    24346491.9574
        40.000          21.8004
 106431089.834 8  82933344.77646  20253139.406    20253132.3514
        49.200          40.4004
 133235550.371 5 103819953.16242  25353877.530    25353884.0144
        35.800          17.4004
 123881128.478 7  96530713.22644  23573815.082    23573818.1674
        42.700          25.9004
 113625707.950 7  88539595.93645  21622209.145    21622200.8594
        46.600          35.1004
 110146546.160 8  85828532.53446  20960150.700    20960141.4184
        49.100          40.4004
 12 10 28  2 20  0.0000000  0 11G11G06G22G20G31G01G03G30G16G14G19
 121271893.196 7  94497675.10044  23077227.221    23077221.6314
        43.100          25.8004
 107902955.244 8  84080228.93046  20533237.329    20533230.3914
        50.700          39.8004
 119456064.885 7  93082629.04145  22731724.701    22731714.4224
        45.000          30.9004
 128790828.597 6 100356520.61243  24508079.868    24508087.4074
        38.200          18.6004
 129955766.952 5 101264093.52942  24729721.839    24729723.9864
        35.900          17.8004
 127882465.204 6  99648767.78143  24335195.385    24335196.5354
        39.900          22.2004
 106456502.757 8  82953147.08646  20257975.472    20257968.3584
        49.200          39.6004
 133306618.931 6 103875331.24543  25367401.114    25367408.5364
        38.900          19.3004
 123957441.759 7  96590178.05843  23588336.747    23588340.4184
        42.600          22.8004
 113652078.304 7  88560144.33745  21627227.240    21627219.1304
        46.100          34.4004
 110101139.751 8  85793150.99746  20951510.418    20951500.7844
        49.400          40.9004
 12 10 28  2 20 30.0000000  0 11G11G06G22G20G31G01G03G30G16G14G19
 121196715.827 7  94439095.63144  23062921.355    23062916.2344
        42.600          26.7004
 107941665.900 8  84110393.09546  20540603.256    20540596.0254
        50.500          39.1004
 119528989.903 7  93139453.75545  22745601.841    22745591.5634
        46.100          31.6004
 128721150.056 6 100302225.90943  24494821.443    24494827.8104
        40.400          19.9004
 129909324.572 5 101227904.97542  24720882.886    24720886.2644
        35.000          14.8004
 127823011.971 6  99602441.05243  24323881.499    24323882.7094
        39.200          22.0004
 106482462.860 8  82973375.76046  20262915.443    20262908.0954
        50.500          40.2004
 133377409.376 6 103930492.66343  25380871.871    25380878.7074
        38.600          19.3004
 124033749.355 6  96649638.46244  23602857.772    23602861.4434
        41.900          24.4004
 113678979.557 8  88581106.42045  21632346.114    21632337.9454
        48.400          35.0004
 110056156.544 8  85758099.21646  20942950.213    20942940.8724
        49.300          40.9004
 12 10 28  2 21  0.0000000  0 11G11G06G22G20G31G01G03G30G16G14G19
 121121547.229 7  94380523.00244  23048617.441    23048611.7924
        42.600          25.8004
 107980856.141 8  84140930.95546  20548061.408    20548054.4114
        51.000          39.0004
 119601920.584 7  93196282.88445  22759480.696    22759469.9494
        46.500          30.5004
 128651683.359 6 100248096.22243  24481601.645    24481609.1844
        38.700          19.9004
 129862702.452 6 101191576.48942  24712009.831    24712014.3814
        36.500          17.8004
 127763458.857 6  99556036.51243  24312546.809    24312550.3634
        37.700          21.8004
 106508969.564 8  82994030.35846  20267959.807    20267952.3414
        51.000          40.4004
 133447920.481 6 103985436.39942  25394290.329    25394297.1064
        37.200          17.8004
 124110048.667 7  96709092.42944  23617377.417    23617380.2094
        42.100          25.0004
 113706411.376 8  88602481.93445  21637566.011    21637558.3704
        48.300          34.8004
 110011598.706 8  85723378.89846  20934470.985    20934461.1164
        49.700          40.2004
 12 10 28  2 21 30.0000000  0 11G11G06G22G20G31G01G03G30G16G14G19
 121046387.669 7  94321957.41544  23034314.723    23034308.7824
        42.900          27.1004
 108020523.831 8  84171840.85646  20555609.850    20555603.0894
        51.000          39.4004
 119674854.976 7  93253114.90845  22773359.274    22773349.1124
        47.000          31.2004
 128582427.808 6 100194131.04643  24468422.034    24468429.4564
        40.300          19.3004
 129815901.811 6 101155108.77642  24703105.296    24703107.0334
        37.600          16.9004
 127703804.860 6  99509553.35843  24301196.475    24301198.6804
        38.900          22.0004
 106536021.073 8  83015109.48646  20273106.831    20273100.2444
        49.800          40.5004
 133518149.751 6 104040160.50342  25407655.173    25407660.6024
        37.300          17.4004
 124186336.243 7  96768537.22944  23631894.372    23631897.8084
        42.200          25.2004
 113734372.153 8  88624269.61545  21642887.200    21642878.8564
        49.300          34.9004
 109967467.162 8  85688990.76346  20926073.115    20926063.3064
        49.500          40.9004
